2010-06-01 21:46:05.110418500 aprsmon>JAVA:javaMSG  :Linux APRS server (aprsdigi-2.4.4 by Alan Crosswell, N2YGK) on brooks running Linux 2.6.28-18-generic
2010-06-01 21:46:05.110424500 # No saved data available.
2010-06-01 21:46:05.110427500 # Live data follows:
2010-06-01 21:46:05.110429500 aprsmon>JAVA:javaTITLE:Live data from Linux
2010-06-01 21:46:21.025188500 KJ6AOD-11>APZBA1,WIDE2-2:>ProjectBacchus.org Up=00:03:00 X=472 Y=462 Z=279 TI=919 TE=913
2010-06-01 21:46:21.025192500 
2010-06-01 21:46:51.028519500 KJ6AOD-11>APZBA1,WIDE2-2:>ProjectBacchus.org Up=00:03:30 X=476 Y=465 Z=280 TI=920 TE=912
2010-06-01 21:46:51.028524500 
2010-06-01 21:47:18.554322500 KJ6AOD-11>APZBA1,WIDE2-2:>No GPS yet
2010-06-01 21:47:18.554325500 
2010-06-01 21:47:48.549624500 KJ6AOD-11>APZBA1,WIDE2-2:>No GPS yet
2010-06-01 21:47:48.549627500 
2010-06-01 21:47:50.960936500 KJ6AOD-11>APZBA1,WIDE2-2:>ProjectBacchus.org Up=00:04:30 X=480 Y=463 Z=278 TI=920 TE=911
2010-06-01 21:47:50.960941500 
2010-06-01 21:48:18.661348500 KJ6AOD-11>APZBA1,WIDE2-2:>No GPS yet
2010-06-01 21:48:18.661352500 
2010-06-01 21:48:21.121286500 KJ6AOD-11>APZBA1,WIDE2-2:>ProjectBacchus.org Up=00:05:00 X=475 Y=463 Z=277 TI=922 TE=910
2010-06-01 21:48:21.121291500 
2010-06-01 21:48:48.621763500 KJ6AOD-11>APZBA1,WIDE2-2:>No GPS yet
2010-06-01 21:48:48.621766500 
2010-06-01 21:48:51.081748500 KJ6AOD-11>APZBA1,WIDE2-2:>ProjectBacchus.org Up=00:05:30 X=476 Y=464 Z=279 TI=922 TE=910
2010-06-01 21:48:51.081753500 
2010-06-01 21:49:18.602156500 KJ6AOD-11>APZBA1,WIDE2-2:>No GPS yet
2010-06-01 21:49:18.602160500 
2010-06-01 21:49:21.062041500 KJ6AOD-11>APZBA1,WIDE2-2:>ProjectBacchus.org Up=00:06:00 X=503 Y=435 Z=289 TI=921 TE=913
2010-06-01 21:49:21.062045500 
2010-06-01 21:51:13.703501500 N6WKZ-3>APU25N,WIDE2-2:=3746.42N112226.00W# {UIV32N}
2010-06-01 21:56:09.319970500 KJ6AOD-11>APZBA1,WIDE2-2:>ProjectBacchus.org Startup
2010-06-01 21:56:09.319974500 
2010-06-01 21:56:39.018246500 KJ6AOD-11>APZBA1,WIDE2-2:>No GPS yet
2010-06-01 21:56:39.018249500 
2010-06-01 21:56:41.477834500 KJ6AOD-11>APZBA1,WIDE2-2:>ProjectBacchus.org Up=00:00:30 X=485 Y=462 Z=277 TI=925 TE=913
2010-06-01 21:56:41.477839500 
2010-06-01 21:57:08.936329500 KJ6AOD-11>APZBA1,WIDE2-2:>No GPS yet
2010-06-01 21:57:08.936332500 
2010-06-01 21:57:11.396218500 KJ6AOD-11>APZBA1,WIDE2-2:>ProjectBacchus.org Up=00:01:00 X=481 Y=460 Z=279 TI=924 TE=915
2010-06-01 21:57:11.396223500 
2010-06-01 21:57:38.914588500 KJ6AOD-11>APZBA1,WIDE2-2:>No GPS yet
2010-06-01 21:57:38.914591500 
2010-06-01 21:57:41.374431500 KJ6AOD-11>APZBA1,WIDE2-2:>ProjectBacchus.org Up=00:01:30 X=486 Y=462 Z=280 TI=925 TE=915
2010-06-01 21:57:41.374435500 
2010-06-01 21:58:08.892939500 KJ6AOD-11>APZBA1,WIDE2-2:>No GPS yet
2010-06-01 21:58:08.892943500 
2010-06-01 21:58:11.332812500 KJ6AOD-11>APZBA1,WIDE2-2:>ProjectBacchus.org Up=00:02:00 X=483 Y=465 Z=278 TI=925 TE=914
2010-06-01 21:58:11.332817500 
2010-06-01 21:58:23.132232500 KJ6AOD-11>APZBA1,WIDE2-2:>ProjectBacchus.org Startup
2010-06-01 21:58:23.132236500 
2010-06-01 21:58:52.990710500 KJ6AOD-11>APZBA1,WIDE2-2:$GPGGA,045851.00,,,,,0,00,99.99,,,,,,*6B
2010-06-01 21:58:52.990714500 
2010-06-01 21:59:22.969112500 KJ6AOD-11>APZBA1,WIDE2-2:$GPGGA,045921.00,,,,,0,00,99.99,,,,,,*6D
2010-06-01 21:59:22.969116500 
2010-06-01 21:59:25.210624500 KJ6AOD-11>APZBA1,WIDE2-2:>ProjectBacchus.org Up=00:01:00 X=485 Y=466 Z=277 TI=922 TE=914
2010-06-01 21:59:25.210629500 
2010-06-01 21:59:52.997563500 KJ6AOD-11>APZBA1,WIDE2-2:$GPGGA,045951.00,,,,,0,00,99.99,,,,,,*6A
2010-06-01 21:59:52.997567500 
2010-06-01 21:59:55.227578500 KJ6AOD-11>APZBA1,WIDE2-2:>ProjectBacchus.org Up=00:01:30 X=481 Y=463 Z=278 TI=925 TE=914
2010-06-01 21:59:55.227583500 
2010-06-01 22:00:22.976182500 KJ6AOD-11>APZBA1,WIDE2-2:$GPGGA,050021.00,,,,,0,00,99.99,,,,,,*60
2010-06-01 22:00:22.976186500 
2010-06-01 22:00:52.984816500 KJ6AOD-11>APZBA1,WIDE2-2:$GPGGA,050051.00,,,,,0,00,99.99,,,,,,*67
2010-06-01 22:00:52.984821500 
2010-06-01 22:00:55.224739500 KJ6AOD-11>APZBA1,WIDE2-2:>ProjectBacchus.org Up=00:02:30 X=482 Y=464 Z=280 TI=924 TE=914
2010-06-01 22:00:55.224744500 
2010-06-01 22:01:22.963380500 KJ6AOD-11>APZBA1,WIDE2-2:$GPGGA,050121.00,,,,,0,00,99.99,,,,,,*61
2010-06-01 22:01:22.963384500 
2010-06-01 22:01:25.203262500 KJ6AOD-11>APZBA1,WIDE2-2:>ProjectBacchus.org Up=00:03:00 X=484 Y=462 Z=279 TI=923 TE=917
2010-06-01 22:01:25.203267500 
2010-06-01 22:01:52.882209500 KJ6AOD-11>APZBA1,WIDE2-2:$GPGGA,050151.00,,,,,0,00,99.99,,,,,,*66
2010-06-01 22:01:52.882213500 
2010-06-01 22:02:22.900957500 KJ6AOD-11>APZBA1,WIDE2-2:$GPGGA,050221.00,,,,,0,00,99.99,,,,,,*62
2010-06-01 22:02:22.900961500 
2010-06-01 22:02:52.879784500 KJ6AOD-11>APZBA1,WIDE2-2:$GPGGA,050251.00,,,,,0,00,99.99,,,,,,*65
2010-06-01 22:02:52.879788500 
2010-06-01 22:02:55.119646500 KJ6AOD-11>APZBA1,WIDE2-2:>ProjectBacchus.org Up=00:04:30 X=483 Y=466 Z=277 TI=925 TE=916
2010-06-01 22:02:55.119650500 
2010-06-01 22:03:22.838539500 KJ6AOD-11>APZBA1,WIDE2-2:$GPGGA,050321.00,,,,,0,00,99.99,,,,,,*63
2010-06-01 22:03:22.838543500 
2010-06-01 22:03:52.877577500 KJ6AOD-11>APZBA1,WIDE2-2:$GPGGA,050351.00,,,,,0,00,99.99,,,,,,*64
2010-06-01 22:03:52.877581500 
2010-06-01 22:03:55.117510500 KJ6AOD-11>APZBA1,WIDE2-2:>ProjectBacchus.org Up=00:05:30 X=484 Y=472 Z=274 TI=926 TE=917
2010-06-01 22:03:55.117515500 
2010-06-01 22:04:22.896442500 KJ6AOD-11>APZBA1,WIDE2-2:$GPGGA,050421.00,,,,,0,00,99.99,,,,,,*64
2010-06-01 22:04:22.896447500 
2010-06-01 22:04:25.136328500 KJ6AOD-11>APZBA1,WIDE2-2:>ProjectBacchus.org Up=00:06:00 X=483 Y=475 Z=278 TI=922 TE=913
2010-06-01 22:04:25.136333500 
2010-06-01 22:04:55.114392500 KJ6AOD-11>APZBA1,WIDE2-2:>ProjectBacchus.org Up=00:06:30 X=484 Y=475 Z=277 TI=924 TE=914
2010-06-01 22:04:55.114396500 
2010-06-01 22:05:22.832792500 KJ6AOD-11>APZBA1,WIDE2-2:$GPGGA,050520.99,,,,,0,00,99.99,,,,,,*64
2010-06-01 22:05:22.832796500 
2010-06-01 22:05:25.072600500 KJ6AOD-11>APZBA1,WIDE2-2:>ProjectBacchus.org Up=00:07:00 X=483 Y=480 Z=277 TI=925 TE=915
2010-06-01 22:05:25.072605500 
2010-06-01 22:05:52.811522500 KJ6AOD-11>APZBA1,WIDE2-2:$GPGGA,050550.99,,,,,0,04,10.53,,,,,,*60
2010-06-01 22:05:52.811526500 
2010-06-01 22:06:25.039135500 KJ6AOD-11>APZBA1,WIDE2-2:>ProjectBacchus.org Up=00:08:00 X=482 Y=476 Z=277 TI=926 TE=916
2010-06-01 22:06:25.039139500 
2010-06-01 22:06:52.708312500 KJ6AOD-11>APZBA1,WIDE2-2:$GPGGA,050651.00,,,,,0,04,10.29,,,,,,*6F
2010-06-01 22:06:52.708317500 
2010-06-01 22:06:54.988216500 KJ6AOD-11>APZBA1,WIDE2-2:>ProjectBacchus.org Up=00:08:30 X=483 Y=478 Z=276 TI=925 TE=915
2010-06-01 22:06:54.988221500 
2010-06-01 22:07:22.667529500 KJ6AOD-11>APZBA1,WIDE2-2:$GPGGA,050721.00,,,,,0,04,10.17,,,,,,*64
2010-06-01 22:07:22.667533500 
2010-06-01 22:07:54.946896500 KJ6AOD-11>APZBA1,WIDE2-2:>ProjectBacchus.org Up=00:09:30 X=479 Y=477 Z=276 TI=924 TE=914
2010-06-01 22:07:54.946900500 
2010-06-01 22:08:22.886493500 KJ6AOD-11>APZBA1,WIDE2-2:$GPGGA,050821.00,3745.76542,N,12225.15841,W,1,05,4.51,117.9,M,-29.8,M,,*6D
2010-06-01 22:08:22.886498500 
2010-06-01 22:08:24.906383500 KJ6AOD-11>APZBA1,WIDE2-2:>ProjectBacchus.org Up=00:10:00 X=479 Y=476 Z=268 TI=924 TE=915
2010-06-01 22:08:24.906388500 
2010-06-01 22:08:52.586059500 KJ6AOD-11>APZBA1,WIDE2-2:$GPGGA,050851.00,,,,,0,05,9.81,,,,,,*5A
2010-06-01 22:08:52.586064500 
2010-06-01 22:08:54.826080500 KJ6AOD-11>APZBA1,WIDE2-2:>ProjectBacchus.org Up=00:10:30 X=486 Y=473 Z=275 TI=924 TE=917
2010-06-01 22:08:54.826085500 
2010-06-01 22:09:22.825634500 KJ6AOD-11>APZBA1,WIDE2-2:$GPGGA,050921.00,3745.75143,N,12225.15127,W,1,05,4.12,47.7,M,-29.8,M,,*5E
2010-06-01 22:09:22.825639500 
2010-06-01 22:09:24.865536500 KJ6AOD-11>APZBA1,WIDE2-2:>ProjectBacchus.org Up=00:11:00 X=483 Y=475 Z=271 TI=923 TE=915
2010-06-01 22:09:24.865541500 
2010-06-01 22:09:52.805268500 KJ6AOD-11>APZBA1,WIDE2-2:$GPGGA,050951.00,3745.72424,N,12225.13862,W,1,05,3.96,-102.1,M,-29.8,M,,*44
2010-06-01 22:09:52.805272500 
2010-06-01 22:09:54.825125500 KJ6AOD-11>APZBA1,WIDE2-2:>ProjectBacchus.org Up=00:11:30 X=482 Y=475 Z=275 TI=922 TE=916
2010-06-01 22:09:54.825130500 
2010-06-01 22:10:22.725001500 KJ6AOD-11>APZBA1,WIDE2-2:$GPGGA,051021.00,3745.74237,N,12225.14975,W,1,05,3.80,3.2,M,-29.8,M,,*60
2010-06-01 22:10:22.725006500 
2010-06-01 22:10:24.744944500 KJ6AOD-11>APZBA1,WIDE2-2:>ProjectBacchus.org Up=00:12:00 X=485 Y=477 Z=274 TI=923 TE=914
2010-06-01 22:10:24.744948500 
2010-06-01 22:10:52.704619500 KJ6AOD-11>APZBA1,WIDE2-2:$GPGGA,051051.00,3745.75104,N,12225.15172,W,1,05,3.66,58.7,M,-29.8,M,,*58
2010-06-01 22:10:52.704624500 
2010-06-01 22:10:54.732289500 KJ6AOD-11>APZBA1,WIDE2-2:>ProjectBacchus.org Up=00:12:30 X=482 Y=471 Z=278 TI=922 TE=913
2010-06-01 22:10:54.732293500 
2010-06-01 22:11:22.664271500 KJ6AOD-11>APZBA1,WIDE2-2:$GPGGA,051121.00,3745.74410,N,12225.15025,W,1,05,3.53,12.1,M,-29.8,M,,*52
2010-06-01 22:11:22.664276500 
2010-06-01 22:11:24.704285500 KJ6AOD-11>APZBA1,WIDE2-2:>ProjectBacchus.org Up=00:13:00 X=488 Y=473 Z=276 TI=924 TE=916
2010-06-01 22:11:24.704290500 
2010-06-01 22:11:52.703924500 KJ6AOD-11>APZBA1,WIDE2-2:$GPGGA,051151.00,3745.75110,N,12225.15341,W,1,05,3.41,41.6,M,-29.8,M,,*52
2010-06-01 22:11:52.703929500 
2010-06-01 22:11:54.732059500 KJ6AOD-11>APZBA1,WIDE2-2:>ProjectBacchus.org Up=00:13:30 X=484 Y=478 Z=274 TI=920 TE=913
2010-06-01 22:11:54.732064500 
2010-06-01 22:12:22.663591500 KJ6AOD-11>APZBA1,WIDE2-2:$GPGGA,051221.00,3745.76042,N,12225.15139,W,1,05,3.30,79.7,M,-29.8,M,,*52
2010-06-01 22:12:22.663596500 
2010-06-01 22:12:24.703561500 KJ6AOD-11>APZBA1,WIDE2-2:>ProjectBacchus.org Up=00:14:00 X=486 Y=474 Z=278 TI=922 TE=914
2010-06-01 22:12:24.703565500 
2010-06-01 22:12:52.643351500 KJ6AOD-11>APZBA1,WIDE2-2:$GPGGA,051251.00,3745.75445,N,12225.14915,W,1,05,3.19,61.9,M,-29.8,M,,*5E
2010-06-01 22:12:52.643356500 
2010-06-01 22:12:54.663475500 KJ6AOD-11>APZBA1,WIDE2-2:>ProjectBacchus.org Up=00:14:30 X=484 Y=476 Z=273 TI=922 TE=914
2010-06-01 22:12:54.663479500 
2010-06-01 22:13:22.663001500 KJ6AOD-11>APZBA1,WIDE2-2:$GPGGA,051321.00,3745.75164,N,12225.14694,W,1,05,3.09,64.8,M,-29.8,M,,*5D
2010-06-01 22:13:22.663006500 
2010-06-01 22:13:24.702932500 KJ6AOD-11>APZBA1,WIDE2-2:>ProjectBacchus.org Up=00:15:00 X=486 Y=475 Z=276 TI=924 TE=915
2010-06-01 22:13:24.702936500 
2010-06-01 22:13:52.642825500 KJ6AOD-11>APZBA1,WIDE2-2:$GPGGA,051351.00,3745.75582,N,12225.14737,W,1,05,3.00,93.1,M,-29.8,M,,*56
2010-06-01 22:13:52.642830500 
2010-06-01 22:14:22.342470500 KJ6AOD-11>APZBA1,WIDE2-2:$GPGGA,051421.00,,,,,0,04,8.55,,,,,,*59
2010-06-01 22:14:22.342474500 
2010-06-01 22:14:24.642353500 KJ6AOD-11>APZBA1,WIDE2-2:>ProjectBacchus.org Up=00:16:00 X=488 Y=476 Z=276 TI=923 TE=914
2010-06-01 22:14:24.642358500 
2010-06-01 22:14:52.322262500 KJ6AOD-11>APZBA1,WIDE2-2:$GPGGA,051451.00,,,,,0,04,8.43,,,,,,*59
2010-06-01 22:14:52.322266500 
2010-06-01 22:14:54.622224500 KJ6AOD-11>APZBA1,WIDE2-2:>ProjectBacchus.org Up=00:16:30 X=486 Y=473 Z=274 TI=924 TE=914
2010-06-01 22:14:54.622229500 
2010-06-01 22:15:22.661955500 KJ6AOD-11>APZBA1,WIDE2-2:$GPGGA,051521.00,3745.74561,N,12225.14909,W,1,05,2.77,20.7,M,-29.8,M,,*57
2010-06-01 22:15:22.661960500 
2010-06-01 22:15:24.702068500 KJ6AOD-11>APZBA1,WIDE2-2:>ProjectBacchus.org Up=00:17:00 X=484 Y=480 Z=279 TI=923 TE=912
2010-06-01 22:15:24.702073500 
2010-06-01 22:15:54.661859500 KJ6AOD-11>APZBA1,WIDE2-2:>ProjectBacchus.org Up=00:17:30 X=488 Y=477 Z=278 TI=923 TE=913
2010-06-01 22:15:54.661864500 
2010-06-01 22:16:22.661603500 KJ6AOD-11>APZBA1,WIDE2-2:$GPGGA,051621.00,3745.74698,N,12225.14932,W,1,06,1.74,23.2,M,-29.8,M,,*5C
2010-06-01 22:16:22.661608500 
2010-06-01 22:16:24.691680500 KJ6AOD-11>APZBA1,WIDE2-2:>ProjectBacchus.org Up=00:18:00 X=483 Y=475 Z=274 TI=923 TE=914
2010-06-01 22:16:24.691685500 
2010-06-01 22:16:52.701503500 KJ6AOD-11>APZBA1,WIDE2-2:$GPGGA,051651.00,3745.74510,N,12225.14730,W,1,06,1.74,14.2,M,-29.8,M,,*50
2010-06-01 22:16:52.701508500 
2010-06-01 22:17:24.696289500 KJ6AOD-11>APZBA1,WIDE2-2:>ProjectBacchus.org Up=00:19:00 X=484 Y=475 Z=278 TI=922 TE=913
2010-06-01 22:17:24.696293500 
2010-06-01 22:17:52.701091500 KJ6AOD-11>APZBA1,WIDE2-2:$GPGGA,051751.00,3745.74693,N,12225.14507,W,1,06,1.75,34.1,M,-29.8,M,,*5F
2010-06-01 22:17:52.701096500 
2010-06-01 22:17:54.728173500 KJ6AOD-11>APZBA1,WIDE2-2:>ProjectBacchus.org Up=00:19:30 X=482 Y=474 Z=276 TI=923 TE=914
2010-06-01 22:17:54.728178500 
2010-06-01 22:18:22.661286500 KJ6AOD-11>APZBA1,WIDE2-2:$GPGGA,051821.00,3745.74732,N,12225.14581,W,1,06,1.75,39.8,M,-29.8,M,,*57
2010-06-01 22:18:22.661291500 
2010-06-01 22:18:24.701047500 KJ6AOD-11>APZBA1,WIDE2-2:>ProjectBacchus.org Up=00:20:00 X=487 Y=475 Z=274 TI=922 TE=914
2010-06-01 22:18:24.701052500 
2010-06-01 22:18:52.640911500 KJ6AOD-11>APZBA1,WIDE2-2:$GPGGA,051851.00,3745.74393,N,12225.14801,W,1,06,1.75,5.2,M,-29.8,M,,*6F
2010-06-01 22:18:52.640916500 
2010-06-01 22:18:54.728173500 KJ6AOD-11>APZBA1,WIDE2-2:>ProjectBacchus.org Up=00:20:30 X=480 Y=476 Z=275 TI=922 TE=913
2010-06-01 22:18:54.728177500 
2010-06-01 22:19:22.660701500 KJ6AOD-11>APZBA1,WIDE2-2:$GPGGA,051921.00,3745.74579,N,12225.14769,W,1,06,1.74,8.9,M,-29.8,M,,*6D
2010-06-01 22:19:22.660706500 
2010-06-01 22:19:24.700760500 KJ6AOD-11>APZBA1,WIDE2-2:>ProjectBacchus.org Up=00:21:00 X=486 Y=476 Z=277 TI=924 TE=914
2010-06-01 22:19:24.700765500 
2010-06-01 22:19:52.640670500 KJ6AOD-11>APZBA1,WIDE2-2:$GPGGA,051951.00,3745.74897,N,12225.14710,W,1,05,2.17,22.4,M,-29.8,M,,*59
2010-06-01 22:19:52.640675500 
2010-06-01 22:19:54.728173500 KJ6AOD-11>APZBA1,WIDE2-2:>ProjectBacchus.org Up=00:21:30 X=481 Y=475 Z=278 TI=921 TE=913
2010-06-01 22:19:54.728178500 
2010-06-01 22:20:22.660513500 KJ6AOD-11>APZBA1,WIDE2-2:$GPGGA,052021.00,3745.74833,N,12225.14945,W,1,06,1.74,32.0,M,-29.8,M,,*54
2010-06-01 22:20:22.660519500 
2010-06-01 22:20:24.696177500 KJ6AOD-11>APZBA1,WIDE2-2:>ProjectBacchus.org Up=00:22:00 X=483 Y=477 Z=276 TI=921 TE=913
2010-06-01 22:20:24.696182500 
2010-06-01 22:20:52.700364500 KJ6AOD-11>APZBA1,WIDE2-2:$GPGGA,052051.00,3745.74596,N,12225.14944,W,1,06,1.74,19.9,M,-29.8,M,,*50
2010-06-01 22:20:52.700369500 
2010-06-01 22:20:54.728173500 KJ6AOD-11>APZBA1,WIDE2-2:>ProjectBacchus.org Up=00:22:30 X=486 Y=475 Z=277 TI=920 TE=911
2010-06-01 22:20:54.728178500 
2010-06-01 22:21:22.660276500 KJ6AOD-11>APZBA1,WIDE2-2:$GPGGA,052121.00,3745.74816,N,12225.14814,W,1,06,1.73,36.3,M,-29.8,M,,*57
2010-06-01 22:21:22.660281500 
2010-06-01 22:21:24.700316500 KJ6AOD-11>APZBA1,WIDE2-2:>ProjectBacchus.org Up=00:23:00 X=489 Y=474 Z=276 TI=922 TE=914
2010-06-01 22:21:24.700321500 
2010-06-01 22:21:52.700066500 KJ6AOD-11>APZBA1,WIDE2-2:$GPGGA,052151.00,3745.74958,N,12225.14259,W,1,06,1.73,38.4,M,-29.8,M,,*51
2010-06-01 22:21:52.700071500 
2010-06-01 22:22:22.340055500 KJ6AOD-11>APZBA1,WIDE2-2:$GPGGA,052221.00,,,,,0,04,10.60,,,,,,*63
2010-06-01 22:22:22.340059500 
2010-06-01 22:22:24.586503500 KJ6AOD-11>APZBA1,WIDE2-2:>ProjectBacchus.org Up=00:24:00 X=485 Y=474 Z=275 TI=924 TE=914
2010-06-01 22:22:24.586508500 
2010-06-01 22:22:52.640087500 KJ6AOD-11>APZBA1,WIDE2-2:$GPGGA,052251.00,3745.74792,N,12225.14788,W,1,06,1.72,28.0,M,-29.8,M,,*57
2010-06-01 22:22:52.640092500 
2010-06-01 22:23:22.660070500 KJ6AOD-11>APZBA1,WIDE2-2:$GPGGA,052321.00,3745.74998,N,12225.14476,W,1,06,1.72,40.0,M,-29.8,M,,*59
2010-06-01 22:23:22.660075500 
2010-06-01 22:23:52.639933500 KJ6AOD-11>APZBA1,WIDE2-2:$GPGGA,052351.00,3745.75021,N,12225.14368,W,1,06,1.71,46.3,M,-29.8,M,,*5A
2010-06-01 22:23:52.639938500 
2010-06-01 22:23:54.659928500 KJ6AOD-11>APZBA1,WIDE2-2:>ProjectBacchus.org Up=00:25:31 X=487 Y=472 Z=275 TI=922 TE=915
2010-06-01 22:23:54.659933500 
2010-06-01 22:24:22.659793500 KJ6AOD-11>APZBA1,WIDE2-2:$GPGGA,052421.00,3745.75145,N,12225.14275,W,1,06,1.70,43.4,M,-29.8,M,,*57
2010-06-01 22:24:22.659798500 
2010-06-01 22:24:24.700011500 KJ6AOD-11>APZBA1,WIDE2-2:>ProjectBacchus.org Up=00:26:01 X=483 Y=478 Z=274 TI=922 TE=914
2010-06-01 22:24:24.700015500 
2010-06-01 22:24:52.709885500 KJ6AOD-11>APZBA1,WIDE2-2:$GPGGA,052451.00,3745.75045,N,12225.14762,W,1,06,1.97,30.9,M,-29.8,M,,*52
2010-06-01 22:24:52.709890500 
2010-06-01 22:25:22.659998500 KJ6AOD-11>APZBA1,WIDE2-2:$GPGGA,052521.00,3745.74584,N,12225.14920,W,1,06,1.69,2.6,M,-29.8,M,,*6A
2010-06-01 22:25:22.660003500 
2010-06-01 22:25:24.699804500 KJ6AOD-11>APZBA1,WIDE2-2:>ProjectBacchus.org Up=00:27:01 X=487 Y=475 Z=278 TI=923 TE=913
2010-06-01 22:25:24.699808500 
2010-06-01 22:25:52.640049500 KJ6AOD-11>APZBA1,WIDE2-2:$GPGGA,052551.00,3745.74453,N,12225.14869,W,1,06,1.69,1.0,M,-29.8,M,,*6F
2010-06-01 22:25:52.640054500 
2010-06-01 22:25:54.660054500 KJ6AOD-11>APZBA1,WIDE2-2:>ProjectBacchus.org Up=00:27:31 X=488 Y=467 Z=280 TI=921 TE=913
2010-06-01 22:25:54.660059500 
2010-06-01 22:26:22.659936500 KJ6AOD-11>APZBA1,WIDE2-2:$GPGGA,052621.00,3745.74088,N,12225.14907,W,1,06,1.68,2.8,M,-29.8,M,,*6A
2010-06-01 22:26:22.659941500 
2010-06-01 22:26:24.695192500 KJ6AOD-11>APZBA1,WIDE2-2:>ProjectBacchus.org Up=00:28:01 X=490 Y=468 Z=274 TI=924 TE=913
2010-06-01 22:26:24.695197500 
2010-06-01 22:26:52.640041500 KJ6AOD-11>APZBA1,WIDE2-2:$GPGGA,052651.00,3745.74048,N,12225.14990,W,1,06,1.67,-0.2,M,-29.8,M,,*45
2010-06-01 22:26:52.640046500 
2010-06-01 22:26:54.662073500 KJ6AOD-11>APZBA1,WIDE2-2:>ProjectBacchus.org Up=00:28:31 X=493 Y=470 Z=278 TI=924 TE=914
2010-06-01 22:26:54.662078500 
2010-06-01 22:27:22.660119500 KJ6AOD-11>APZBA1,WIDE2-2:$GPGGA,052721.00,3745.74543,N,12225.13771,W,1,06,1.67,-25.4,M,-29.8,M,,*7A
2010-06-01 22:27:22.660124500 
2010-06-01 22:27:24.700099500 KJ6AOD-11>APZBA1,WIDE2-2:>ProjectBacchus.org Up=00:29:01 X=493 Y=472 Z=277 TI=924 TE=915
2010-06-01 22:27:24.700104500 
2010-06-01 22:27:52.690059500 KJ6AOD-11>APZBA1,WIDE2-2:$GPGGA,052751.00,3745.73802,N,12225.15235,W,1,06,1.66,-17.1,M,-29.8,M,,*74
2010-06-01 22:27:52.690064500 
2010-06-01 22:27:54.660167500 KJ6AOD-11>APZBA1,WIDE2-2:>ProjectBacchus.org Up=00:29:31 X=488 Y=470 Z=279 TI=926 TE=914
2010-06-01 22:27:54.660172500 
2010-06-01 22:28:22.660157500 KJ6AOD-11>APZBA1,WIDE2-2:$GPGGA,052821.00,3745.73715,N,12225.15333,W,1,06,1.65,-16.4,M,-29.8,M,,*75
2010-06-01 22:28:22.660162500 
2010-06-01 22:28:24.709989500 KJ6AOD-11>APZBA1,WIDE2-2:>ProjectBacchus.org Up=00:30:01 X=488 Y=470 Z=277 TI=926 TE=917
2010-06-01 22:28:24.709994500 
2010-06-01 22:28:52.640268500 KJ6AOD-11>APZBA1,WIDE2-2:$GPGGA,052851.00,3745.73875,N,12225.15191,W,1,06,1.65,-12.8,M,-29.8,M,,*79
2010-06-01 22:28:52.640273500 
2010-06-01 22:28:54.663035500 KJ6AOD-11>APZBA1,WIDE2-2:>ProjectBacchus.org Up=00:30:31 X=487 Y=467 Z=277 TI=924 TE=916
2010-06-01 22:28:54.663039500 
2010-06-01 22:30:11.940386500 N6WKZ-3>APU25N,WIDE2-2:>071903zUI-View32 V2.03
