Startup
00:00:06 47) May 13 2009 17:35:46*49
00:00:06 $GPTXT,01,01,02,ROM BASE 5.00 (28483) Jun  6 2008 14:45:11*4E
00:00:06 $GPTXT,01,01,02,MOD LEA-5H-0*2E
00:00:06 Temperature:  board 79F (237 raw), int 75F (231 raw), ext 74F (229 raw)
00:00:06 Accelerometer X=577 Y=477 Z=346    X=0 Y=0 Z=0
00:00:06 $G$GPRMC,200350.00,V,,,,,,,070410,,,N*7B
00:00:06 $GPVTG,,,,,,,,,N*30
00:00:06 $GPGGA,200350.00,,,,,0,04,1.64,,,,,,*55
00:00:06 $GPGSA,A,1,14,31,11,22,,,298,20*7D
00:00:06 $GPGSV,3,2,10,14,51,040,24,192,30,091,32*7B
00:00:06 $GPGS6,25,32,38,301,*7A
00:00:07 Temperature:  board 80F (238 raw), int 75F (231 raw), ext 74F (229 raw)
00:00:07 Accelerometer X=585 Y=467 Z=340    X=0 Y=0 Z=0
00:00:07 $GPRMC,200351.00,V,,,,,,,070410,,,N*7A
00:00:07 $GPVTG,,,,,,,,,N*30
00:00:07 $GPGGA,200351.00,,,,,0,06,1.64,,,,,,*56
00:00:07 $GPGSA,A,1,14,31,32,11,22,19,,,,,,,4.67,1.64,4.37*08
00:00:07 $GPGSV,3,1,10,03,03,207,,06,01,197,,09,39,059,,11,37,298,21*7C
00:00:07 $GPGSV,3,2,10,14,51,040,22,19,19,229,28,20,09,292,,22,30,091,27*73
00:00:07 $GPGSV,3,3,10,31,48,146,25,32,38,301,19*72
00:00:08 Temperature:  board 80F (238 raw), int 75F (230 raw), ext 74F (229 raw)
00:00:08 Accelerometer X=575 Y=483 Z=336    X=0 Y=0 Z=0
00:00:08 $GPRMC,200352.00,A,3743.22711,N,12132.01997,W,1.065,,070410,,,A*65
00:00:08 $GPVTG,,T,,M,1.065,N,1.972,K,A*2C
00:00:08 $GPGGA,200352.00,3743.22711,N,12132.01997,W,1,07,1.35,60.2,M,-28.9,M,,*53
00:00:08 $GPGSA,A,3,14,31,32,11,22,19,20,,,,,,3.60,1.35,3.34*08
00:00:08 $GPGSV,3,1,10,03,03,207,,06,01,197,,09,39,059,,11,37,298,20*7D
00:00:08 $GPGSV,3,2,10,14,51,040,21,19,19,229,26,20,09,292,18,22,30,091,,31,48,146,23,32,38,301,20*7E
00:00:09 Temperature:  board 80F (238 raw), int 75F (231 raw), ext 74F (229 raw)
00:00:09 Accelerometer X=580 Y=484 Z=349    X=0 Y=0 Z=0
00:00:09 $GPRMC,200353.00,A,3743.22733,N,12132.01935,W,1.909,,070410,,,A*6F
00:00:09 $GPVTG,,T,,M,1.909,N,3.535,K,A*22
00:00:09 $GPGGA,200353.00,3743.22733,N,12132.01935,W,1,07,1.35,66.8,M,-28.9,M,,*56
00:00:09 $GPGSA,A,3,14,31,32,11,22,19,20,,,,,,3.60,1.35,3.33*0F
00:00:09 $GPGSV,3,1,10,03,03,207,,06,01,197,,09,39,059,,11,37,298,21*7C
00:00:09 $GPGSV,3,2,10,14,51,040,19,19,19,229,26,20,09,292,17,22,30,091,,31,48,146,21,32,38,301,19*76
00:00:10 Temperature:  board 80F (238 raw), int 75F (231 raw), ext 74F (228 raw)
00:00:10 Accelerometer X=568 Y=480 Z=350    X=0 Y=0 Z=0
00:00:10 $GPRMC,200354.00,A,3743.22681,N,12132.01869,W,0.525,,070410,,,A*6B
00:00:10 $GPVTG,,T,,M,0.525,N,0.973,K,A*2C
00:00:10 $GPGGA,200354.00,3743.22681,N,12132.01869,W,1,07,1.26,70.5,M,-28.9,M,,*59
00:00:10 $GPGSA,A,3,14,31,32,11,22,19,20,,,,,,3.56,1.26,3.33*08
00:00:10 $GPGSV,3,1,10,03,03,207,,06,01,197,,09,39,059,,11,37,298,24*79
00:00:10 $GPGSV,3,2,10,14,51,040,17,19,19,229,27,20,09,292,16,22,30,091,,31,48,146,22,32,38,301,21*7E
00:00:11 Temperature:  board 80F (238 raw), int 75F (230 raw), ext 74F (229 raw)
00:00:11 Accelerometer X=571 Y=511 Z=353    X=0 Y=0 Z=0
00:00:11 $GPRMC,200355.00,A,3743.22731,N,12132.01777,W,0.555,,070410,,,A*67
00:00:11 $GPVTG,,T,,M,0.555,N,1.027,K,A*22
00:00:11 $GPGGA,200355.00,3743.22731,N,12132.01777,W,1,07,1.26,73.3,M,-28.9,M,,*57
00:00:11 $GPGSA,A,3,14,31,32,11,22,19,20,,,,,,3.56,1.26,3.33*08
00:00:11 $GPGSV,3,1,10,03,03,207,,06,01,197,,09,39,059,,11,37,298,26*7B
00:00:11 $GPGSV,3,2,10,14,51,040,28,19,19,229,32,20,09,292,15,22,30,091,31,48,146,30,32,38,301,23*7F
00:00:12 Temperature:  board 80F (238 raw), int 75F (231 raw), ext 74F (229 raw)
00:00:12 Accelerometer X=566 Y=500 Z=340    X=0 Y=0 Z=0
00:00:12 $GPRMC,200356.00,A,3743.22718,N,12132.01757,W,0.541,,070410,,,A*68
00:00:12 $GPVTG,,T,,M,0.541,N,1.002,K,A*20
00:00:12 $GPGGA,200356.00,3743.22718,N,12132.01757,W,1,07,1.14,73.8,M,-28.9,M,,*57
00:00:12 $GPGSA,A,3,14,31,32,11,22,19,20,,,,,,2.49,1.14,2.21*04
00:00:12 $GPGSV,3,1,10,03,03,207,,06,01,197,,09,39,059,,11,37,298,25*78
00:00:12 $GPGSV,3,2,10,14,51,040,21,19,19,229,33,20,09,293,18,22,30,091,,31,48,146,31,32,38,301,22*7F
00:00:13 Temperature:  board 80F (238 raw), int 75F (231 raw), ext 74F (228 raw)
00:00:13 Accelerometer X=567 Y=502 Z=341    X=0 Y=0 Z=0
00:00:13 $GPRMC,200357.00,A,3743.22697,N,12132.01722,W,0.594,,070410,,,A*65
00:00:13 $GPVTG,,T,,M,0.594,N,1.099,K,A*2A
00:00:13 $GPGGA,200357.00,3743.22697,N,12132.01722,W,1,07,1.14,72.5,M,-28.9,M,,*5E
00:00:13 $GPGSA,A,3,14,31,32,11,22,19,20,,,,,,2.49,1.14,2.21*04
00:00:13 $GPGSV,3,1,10,03,03,207,,06,01,197,,09,39,059,,11,37,298,26*7B
00:00:13 $GPGSV,3,2,10,14,51,040,20,19,19,229,32,20,09,293,18,22,30,091,,31,48,146,25,32,38,301,21*79
00:00:14 Temperature:  board 80F (238 raw), int 75F (230 raw), ext 74F (228 raw)
00:00:14 Accelerometer X=569 Y=499 Z=343    X=0 Y=0 Z=0
00:00:14 $GPRMC,200358.00,A,3743.22683,N,12132.01662,W,0.336,,070410,,,A*64
00:00:14 $GPVTG,,T,,M,0.336,N,0.622,K,A*23
00:00:14 $GPGGA,200358.00,3743.22683,N,12132.01662,W,1,07,1.14,70.8,M,-28.9,M,,*5E
00:00:14 $GPGSA,A,3,14,31,32,11,22,19,20,,,,,,2.49,1.14,2.21*04
00:00:14 $GPGSV,3,1,10,03,03,207,,06,01,197,,09,39,059,,11,37,298,26*7B
00:00:14 $GPGSV,3,2,10,14,51,040,18,19,19,229,32,20,09,293,19,22,30,091,,31,48,146,26,32,38,301,22*79
00:00:15 Sending GPS packet: $GPGGA,200358.00,3743.22683,N,12132.01662,W,1,07,1.14,70.8,M,-28.9,M,,*5E
Sleep... Sleep... Sleep... Sleep... 
00:00:16 $GPRMC,200359.00,A,3743.22676,N,12132.01657,W,1.155,,070410,,,A*6F
00:00:16 $GPVTG,,T,,M,1.155,N,2.139,K,A*2A
00:00:16 $GPGGA,200359.00,3743.223.22657,N,12132.01644,W,0.520,,070410,,,A*62
00:00:16 $GPVTG,,T,,M,0.520,N,000400.00,3743.22657,N,12132.01644,W28.9,M,,*55
00:00:16 $GPGSA,A,3,14,31,32,11,22,19,20,,,,,,2.49,1.14,2.21*04
00:00:16 $7,,06,01,197,,09,39,059,,11,37,298,25*78
00:00:16 $GPGSV,3,2,10,14,51,040,17,118,22,30,091,24*7E
00:00:16 Temperature:  board 80F (238 raw), int 75F (230 raw), ext 74F (228 raw)
00:00:16 Accelerometer X=566 Y=500 Z=343    X=0 Y=0 Z=0
00:00:17 Temperature:  board 80F (238 raw), int 75F (230 raw), ext 74F (229 raw)
00:00:17 Accelerometer X=567 Y=500 Z=340    X=0 Y=0 Z=0
00:00:17 $GPGSV,3,3,10,31,48,146,26,32,38,301$GPRMC,200401.00,A,3743.22647,N,12132.01618,W,0.528,,070410,,,A*63
00:00:17 $GPVTG,,T,,M,0.528,N,0.978,K,A*2A
00:00:18 Temperature:  board 80F (238 raw), int 75F (230 raw), ext 74F (229 raw)
00:00:18 Accelerometer X=568 Y=496 Z=337    X=0 Y=0 Z=0
00:00:18 $GPGGA,200401.00,3743.22647,N,12132.01618,W,1,07,1.119,19,229,33,20,09,293,19,22,30,091,23*7$GPRMC,200402.00,A,3743.22665,N,12132.01612,W,2.126,,070410,,,A*62
00:00:18 $GPVTG,,T,,M,2.126,N,3.937,K,A*2A
00:00:19 Temperature:  board 80F (238 raw), int 75F (230 raw), ext 74F (228 raw)
00:00:19 Accelerometer X=566 Y=498 Z=340    X=0 Y=0 Z=0
00:00:19 $GPGGA,200402.00,3743.22665,N,12132.01612,W,1,07,1.14,,19,229,29,20,09,293,18,22,30,091,30*7$GPRMC,200403.00,A,3743.22692,N,12132.01588,W,1.941,,070410,,,A*61
00:00:19 $GPVTG,,T,,M,1.941,N,3.595,K,A*24
00:00:20 Temperature:  board 80F (238 raw), int 75F (230 raw), ext 74F (228 raw)
00:00:20 Accelerometer X=567 Y=498 Z=340    X=0 Y=0 Z=0
00:00:20 $GPGGA,200403.00,3743.22692,N,12132.01588,1,040,14,19,19,229,31,20,09,293,18,22,30,091,36*76$GPRMC,200404.00,A,3743.22694,N,12132.01567,W,1.235,,070410,,,A*69
00:00:20 $GPVTG,,T,,M,1.235,N,2.287,K,A*29
00:00:21 Temperature:  board 80F (238 raw), int 75F (230 raw), ext 74F (228 raw)
00:00:21 Accelerometer X=567 Y=499 Z=339    X=0 Y=0 Z=0
00:00:21 $GPGGA,200404.00,3743.22694,N,12132.00,14,51,040,13,19,19,229,32,20,09,293,18,22,30,091,36*7$GPRMC,200405.00,A,3743.22687,N,12132.01549,W,0.489,,070410,,,A*66
00:00:21 $GPVTG,,T,,M,0.489,N,0.906,K,A*29
00:00:22 Temperature:  board 80F (238 raw), int 75F (230 raw), ext 74F (228 raw)
00:00:22 Accelerometer X=568 Y=499 Z=341    X=0 Y=0 Z=0
00:00:22 $GPGGA,200405.00,3743.22687,N,12132.01549,W,1040,12,19,19,229,32,20,09,293,18,22,30,091,36*7$GPRMC,200406.00,A,3743.22707,N,12132.01548,W,2.396,,070410,,,A*66
00:00:22 $GPVTG,,T,,M,2.396,N,4.437,K,A*29
00:00:23 Temperature:  board 80F (238 raw), int 75F (230 raw), ext 74F (229 raw)
00:00:23 Accelerometer X=567 Y=500 Z=340    X=0 Y=0 Z=0
00:00:23 $GPGGA,200406.00,3743.22707,N,12132.01548,W,1,07,1.19,19,229,31,20,09,293,18,22,30,091,36*72$GPRMC,200407.00,A,3743.22718,N,12132.01551,W,0.795,,070410,,,A*64
00:00:23 $GPVTG,,T,,M,0.795,N,1.473,K,A*29
00:00:24 Temperature:  board 80F (238 raw), int 74F (229 raw), ext 74F (228 raw)
00:00:24 Accelerometer X=567 Y=500 Z=342    X=0 Y=0 Z=0
00:00:24 $GPGGA,200407.00,3743.22718,N,12132.0155151,040,10,19,19,229,30,20,09,293,19,22,30,091,36*72$GPRMC,200408.00,A,3743.22724,N,12132.01547,W,1.542,,070410,,,A*6A
00:00:24 $GPVTG,,T,,M,1.542,N,2.855,K,A*2B
00:00:25 Temperature:  board 80F (238 raw), int 75F (230 raw), ext 74F (229 raw)
00:00:25 Accelerometer X=567 Y=498 Z=339    X=0 Y=0 Z=0
00:00:25 $GPGGA,200408.00,3743.22724,N,12132.01547,W,1,07,12,19,19,229,30,20,09,293,20,22,30,091,36*7$GPRMC,200409.00,A,3743.22716,N,12132.01520,W,0.692,,070410,,,A*64
00:00:25 $GPVTG,,T,,M,0.692,N,1.282,K,A*27
00:00:26 Temperature:  board 80F (238 raw), int 75F (230 raw), ext 74F (229 raw)
00:00:26 Accelerometer X=565 Y=501 Z=339    X=0 Y=0 Z=0
00:00:26 $GPGGA,200409.00,3743.22716,N,12132.01520,51,040,14,19,19,229,30,20,09,293,18,22,30,091,36*7$GPRMC,200410.00,A,3743.22669,N,12132.01491,W,1.554,,070410,,,A*66
00:00:26 $GPVTG,,T,,M,1.554,N,2.878,K,A*23
00:00:27 Temperature:  board 80F (238 raw), int 75F (230 raw), ext 74F (229 raw)
00:00:27 Accelerometer X=563 Y=499 Z=338    X=0 Y=0 Z=0
00:00:27 $GPGGA,200410.00,3743.22669,N,12132.01491,W1,040,12,19,19,229,30,20,09,293,18,22,30,091,36*7$GPRMC,200411.00,A,3743.22653,N,12132.01470,W,1.382,,070410,,,A*6C
00:00:27 $GPVTG,,T,,M,1.382,N,2.560,K,A*2A
00:00:28 Temperature:  board 80F (239 raw), int 75F (230 raw), ext 74F (228 raw)
00:00:28 Accelerometer X=565 Y=500 Z=340    X=0 Y=0 Z=0
00:00:28 $GPGGA,200411.00,3743.22653,N,12132.01470,W,040,11,19,19,229,30,20,09,293,17,22,30,091,36*7D$GPRMC,200412.00,A,3743.22639,N,12132.01453,W,0.848,,070410,,,A*6E
00:00:28 $GPVTG,,T,,M,0.848,N,1.570,K,A*24
00:00:29 Temperature:  board 80F (238 raw), int 74F (229 raw), ext 74F (228 raw)
00:00:29 Accelerometer X=565 Y=503 Z=339    X=0 Y=0 Z=0
00:00:29 $GPGGA,200412.00,3743.22639,N,12132.01453,W,1,07,1.119,19,229,29,20,09,293,16,22,30,091,35*7$GPRMC,200413.00,A,3743.22653,N,12132.01445,W,1.973,,070410,,,A*6C
00:00:29 $GPVTG,,T,,M,1.973,N,3.654,K,A*2B
00:00:30 Sending Sensors packet: >ProjectBacchus.org Uptime=00:00:30 Temp=80F,74F,74F (238,229,228) Acc=565,503,339
Sleep... Sleep... Sleep... Sleep... 
00:00:31 $GPGGA,200413.00,3743.22653,N,12132.01445,W,1,00,14,19,19,229,29,20,09,293,17,22,30,091,35*7$GPRMC,200414.00,A,3743.22641,N,12132.01434,W,1.766,,070410,,,A*64
00:00:31 $GPVTG,,T,,M,1.766,N,3.270,K,A*23
00:00:31 $GPGGA,200414.00,3743.22N,12132.01435,W,1,07,1.14,61.1,M,-28.9,M,,*5B
00:00:31 $GPGSA,A,3,14,31,32,1,040,17,19,19,229,28,20,09,293,17,2PGSV,3,3,10,31,49,146,25,32,38,301,23*7A
00:00:31 Temperature:  board 80F (238 raw), int 74F (229 raw), ext 74F (228 raw)
00:00:31 Accelerometer X=564 Y=499 Z=338    X=0 Y=0 Z=0
00:00:32 $GPRMC,200416.00,A,3743.22550,N,12132.01425,W,0.982,,070410,,,A*60
00:00:32 $GPVTG,,T,,M,0.982,N,1.819,K,A*21
00:00:32 $GPGGA,200416.00,3743.22550,N,12132.01425,W,1,07,1.14,61.3,M,-28.9,M,,*54
00:00:32 $GPGSA,A,3,14,31,32,11,22,19,20,,,,,,2.48,1.14,2.21*05
00:00:32 $GPGSV,3,1,10,03,03,207,,06,01,197,,09,39,059,,11,37,298,21*7C
00:00:32 $GPGSV,3,2,10,14,51,040,18,19,19,229,32,20,09,293,18,22,30,091,31,49,146,26,32,38,301,24*7E
00:00:32 Temperature:  board 80F (238 raw), int 74F (229 raw), ext 74F (228 raw)
00:00:32 Accelerometer X=564 Y=503 Z=338    X=0 Y=0 Z=0
00:00:33 $GPRMC,200417.00,A,3743.22552,N,12132.01400,W,0.639,,070410,,,A*6B
00:00:33 $GPVTG,,T,,M,0.639,N,1.184,K,A*23
00:00:33 $GPGGA,200417.00,3743.22552,N,12132.01400,W,1,07,1.14,61.4,M,-28.9,M,,*57
00:00:33 $GPGSA,A,3,14,31,32,11,22,19,20,,,,,,2.48,1.14,2.20*04
00:00:33 $GPGSV,3,1,10,03,03,207,,06,01,197,,09,39,059,,11,37,298,22*7F
00:00:33 $GPGSV,3,2,10,14,51,040,18,19,19,229,26,20,09,293,18,22,30,091,,31,49,146,25,32,38,301,25*7C
00:00:33 Temperature:  board 80F (238 raw), int 74F (229 raw), ext 74F (228 raw)
00:00:33 Accelerometer X=562 Y=502 Z=336    X=0 Y=0 Z=0
00:00:34 $GPRMC,200418.00,A,3743.22515,N,12132.01401,W,1.888,,070410,,,A*63
00:00:34 $GPVTG,,T,,M,1.888,N,3.496,K,A*22
00:00:34 $GPGGA,200418.00,3743.22515,N,12132.01401,W,1,07,1.14,61.1,M,-28.9,M,,*5F
00:00:34 $GPGSA,A,3,14,31,32,11,22,19,20,,,,,,2.48,1.14,2.20*04
00:00:34 $GPGSV,3,1,10,03,03,207,,06,01,197,,09,39,059,,11,37,298,21*7C
00:00:34 $GPGSV,3,2,10,14,51,040,16,19,19,229,25,20,09,293,19,22,30,091,,31,49,146,26,32,38,301,25*7F
00:00:34 Temperature:  board 80F (238 raw), int 74F (228 raw), ext 74F (228 raw)
00:00:34 Accelerometer X=564 Y=500 Z=339    X=0 Y=0 Z=0
00:00:35 $GPRMC,200419.00,A,3743.22444,N,12132.01422,W,3.229,,070410,,,A*65
00:00:35 $GPVTG,,T,,M,3.229,N,5.981,K,A*2C
00:00:35 $GPGGA,200419.00,3743.22444,N,12132.01422,W,1,07,1.14,58.7,M,-28.9,M,,*56
00:00:35 $GPGSA,A,3,14,31,32,11,22,19,20,,,,,,2.48,1.14,2.20*04
00:00:35 $GPGSV,3,1,10,03,03,207,,06,01,197,,09,39,059,,11,37,298,19*77
00:00:35 $GPGSV,3,2,10,14,51,040,14,19,19,229,25,20,09,293,18,22,30,091,,31,49,146,27,32,38,301,24*7F
00:00:35 Temperature:  board 80F (239 raw), int 74F (228 raw), ext 74F (228 raw)
00:00:35 Accelerometer X=561 Y=502 Z=339    X=0 Y=0 Z=0
00:00:36 $GPRMC,200420.00,A,3743.22404,N,12132.01453,W,0.525,,070410,,,A*65
00:00:36 $GPVTG,,T,,M,0.525,N,0.973,K,A*2C
00:00:36 $GPGGA,200420.00,3743.22404,N,12132.01453,W,1,07,1.14,58.1,M,-28.9,M,,*58
00:00:36 $GPGSA,A,3,14,31,32,11,22,19,20,,,,,,2.48,1.14,2.20*04
00:00:36 $GPGSV,3,1,10,03,03,207,,06,01,197,,09,39,059,,11,37,298,19*77
00:00:36 $GPGSV,3,2,10,14,51,040,13,19,19,229,23,20,09,293,18,22,30,091,,31,49,146,27,32,38,301,25*7E
00:00:36 Temperature:  board 80F (239 raw), int 74F (228 raw), ext 74F (228 raw)
00:00:36 Accelerometer X=561 Y=502 Z=338    X=0 Y=0 Z=0
00:00:37 $GPRMC,200421.00,A,3743.22370,N,12132.01440,W,1.856,,070410,,,A*6A
00:00:37 $GPVTG,,T,,M,1.856,N,3.437,K,A*2A
00:00:37 $GPGGA,200421.00,3743.22370,N,12132.01440,W,1,07,1.14,57.6,M,-28.9,M,,*57
00:00:37 $GPGSA,A,3,14,31,32,11,22,19,20,,,,,,2.48,1.14,2.20*04
00:00:37 $GPGSV,3,1,10,03,03,207,,06,01,197,,09,39,059,,11,37,298,18*76
00:00:37 $GPGSV,3,2,10,14,51,040,18,19,19,229,26,20,09,293,19,22,30,091,31,49,146,27,32,38,301,25*7E
00:00:37 Temperature:  board 80F (238 raw), int 74F (228 raw), ext 74F (228 raw)
00:00:37 Accelerometer X=565 Y=501 Z=339    X=0 Y=0 Z=0
00:00:38 $GPRMC,200422.00,A,3743.22357,N,12132.01452,W,1.273,,070410,,,A*62
00:00:38 $GPVTG,,T,,M,1.273,N,2.357,K,A*27
00:00:38 $GPGGA,200422.00,3743.22357,N,12132.01452,W,1,07,1.14,58.4,M,-28.9,M,,*5F
00:00:38 $GPGSA,A,3,14,31,32,11,22,19,20,,,,,,2.48,1.14,2.20*04
00:00:38 $GPGSV,3,1,10,03,03,207,,06,01,197,,09,39,059,,11,37,298,18*76
00:00:38 $GPGSV,3,2,10,14,51,040,19,19,19,229,27,20,09,293,20,22,30,091,,31,49,146,28,32,38,301,23*77
00:00:38 Temperature:  board 80F (239 raw), int 74F (228 raw), ext 74F (228 raw)
00:00:38 Accelerometer X=562 Y=502 Z=341    X=0 Y=0 Z=0
00:00:39 $GPRMC,200423.00,A,3743.22366,N,12132.01479,W,0.472,,070410,,,A*6E
00:00:39 $GPVTG,,T,,M,0.472,N,0.875,K,A*28
00:00:39 $GPGGA,200423.00,3743.22366,N,12132.01479,W,1,07,1.14,59.9,M,-28.9,M,,*59
00:00:39 $GPGSA,A,3,14,31,32,11,22,19,20,,,,,,2.48,1.14,2.20*04
00:00:39 $GPGSV,3,1,10,03,03,207,,06,01,197,,09,39,059,,11,37,298,19*77
00:00:39 $GPGSV,3,2,10,14,51,040,20,19,19,229,27,20,09,293,20,22,30,091,,31,49,146,29,32,38,301,24*71
00:00:39 Temperature:  board 80F (239 raw), int 74F (229 raw), ext 74F (228 raw)
00:00:39 Accelerometer X=563 Y=500 Z=338    X=0 Y=0 Z=0
00:00:40 $GPRMC,200424.00,A,3743.22386,N,12132.01475,W,0.992,,070410,,,A*68
00:00:40 $GPVTG,,T,,M,0.992,N,1.837,K,A*2C
00:00:40 $GPGGA,200424.00,3743.22386,N,12132.01475,W,1,07,1.14,62.0,M,-28.9,M,,*5D
00:00:40 $GPGSA,A,3,14,31,32,11,22,19,20,,,,,,2.48,1.14,2.20*04
00:00:40 $GPGSV,3,1,10,03,03,207,,06,01,197,,09,39,059,,11,37,298,21*7C
00:00:40 $GPGSV,3,2,10,14,51,040,20,19,19,229,32,20,09,293,21,22,30,091,,31,49,146,30,32,38,301,24*79
00:00:40 Temperature:  board 80F (239 raw), int 74F (228 raw), ext 74F (228 raw)
00:00:40 Accelerometer X=564 Y=501 Z=340    X=0 Y=0 Z=0
00:00:41 $GPRMC,200425.00,A,3743.22427,N,12132.01468,W,1.202,,070410,,,A*6A
00:00:41 $GPVTG,,T,,M,1.202,N,2.226,K,A*26
00:00:41 $GPGGA,200425.00,3743.22427,N,12132.01468,W,1,07,1.14,62.4,M,-28.9,M,,*58
00:00:41 $GPGSA,A,3,14,31,32,11,22,19,20,,,,,,2.48,1.14,2.20*04
00:00:41 $GPGSV,3,1,10,03,03,207,,06,01,197,,09,39,059,,11,37,298,22*7F
00:00:41 $GPGSV,3,2,10,14,51,040,19,19,19,229,26,20,09,293,22,22,30,091,,31,49,146,30,32,38,301,25*78
00:00:41 Temperature:  board 80F (239 raw), int 74F (228 raw), ext 74F (228 raw)
00:00:41 Accelerometer X=561 Y=500 Z=340    X=0 Y=0 Z=0
00:00:42 $GPRMC,200426.00,A,3743.22495,N,12132.01454,W,1.563,,070410,,,A*6F
00:00:42 $GPVTG,,T,,M,1.563,N,2.894,K,A*25
00:00:42 $GPGGA,200426.00,3743.22495,N,12132.01454,W,1,07,1.14,61.9,M,-28.9,M,,*53
00:00:42 $GPGSA,A,3,14,31,32,11,22,19,20,,,,,,2.48,1.14,2.20*04
00:00:42 $GPGSV,3,1,10,03,03,207,,06,01,197,,09,39,059,,11,37,298,22*7F
00:00:42 $GPGSV,3,2,10,14,51,040,16,19,19,229,26,20,09,293,20,22,30,091,,31,49,146,30,32,38,301,25*78
00:00:42 Temperature:  board 80F (239 raw), int 74F (228 raw), ext 74F (228 raw)
00:00:42 Accelerometer X=562 Y=501 Z=337    X=0 Y=0 Z=0
00:00:43 $GPRMC,200427.00,A,3743.22535,N,12132.01453,W,0.969,,070410,,,A*65
00:00:43 $GPVTG,,T,,M,0.969,N,1.794,K,A*2E
00:00:43 $GPGGA,200427.00,3743.22535,N,12132.01453,W,1,07,1.14,62.1,M,-28.9,M,,*55
00:00:43 $GPGSA,A,3,14,31,32,11,22,19,20,,,,,,2.48,1.14,2.20*04
00:00:43 $GPGSV,3,1,10,03,03,207,,06,01,197,,09,39,059,,11,37,298,22*7F
00:00:43 $GPGSV,3,2,10,14,51,040,19,19,19,229,24,20,09,293,18,22,30,091,,31,49,146,31,32,38,301,25*79
00:00:43 Temperature:  board 80F (239 raw), int 74F (228 raw), ext 74F (228 raw)
00:00:43 Accelerometer X=562 Y=501 Z=336    X=0 Y=0 Z=0
00:00:44 $GPRMC,200428.00,A,3743.22562,N,12132.01442,W,1.130,,070410,,,A*6D
00:00:44 $GPVTG,,T,,M,1.130,N,2.093,K,A*28
00:00:44 $GPGGA,200428.00,3743.22562,N,12132.01442,W,1,07,1.14,63.3,M,-28.9,M,,*5B
00:00:44 $GPGSA,A,3,14,31,32,11,22,19,20,,,,,,2.48,1.14,2.20*04
00:00:44 $GPGSV,3,1,10,03,03,207,,06,01,197,,09,39,059,,11,37,298,22*7F
00:00:44 $GPGSV,3,2,10,14,51,040,29,19,19,229,23,20,09,293,18,22,30,091,31,49,146,21,32,38,301,24*79
00:00:44 Temperature:  board 80F (239 raw), int 74F (228 raw), ext 74F (228 raw)
00:00:44 Accelerometer X=557 Y=512 Z=339    X=0 Y=0 Z=0
00:00:45 Sending GPS packet: $GPGGA,200428.00,3743.22562,N,12132.01442,W,1,07,1.14,63.3,M,-28.9,M,,*5B
Sleep... Sleep... Sleep... Sleep... 
00:00:46 $GPRMC,200429.00,A,3743.22569,N,12132.01429,W,0.217,,070410,,,A*6D
00:00:46 $GPVTG,,T,,M,0.217,N,0.402,K,A*21
00:00:46 $GPGGA,200429.00,3743.222.20*04
00:00:46 Temperature:  board 80F (239 raw), int 74F (228 raw), ext 74F (228 raw)
00:00:46 Accelerometer X=564 Y=509 Z=338    X=0 Y=0 Z=0
00:00:47 $GPGSV,3,1,10,03,03,207,,06,01,197,,09,39,059,,11,37,298,2051,040,29,19,19,229,20,20,09,293,18$GPGSV,3,3,10,31,49,146,28,32,38,$GPRMC,200431.00,A,3743.22533,N,12132.01490,W,0.398,,070410,,,A*6F
00:00:47 $GPVTG,,T,,M,0.398,N,0.737,K,A*22
00:00:47 $GPGGA,200431.00,3743.22533,N,12132.01490,W,1,07,1.14,67.0,M,-28.9,M,,*5F
00:00:47 $GPGSA,A,3,14,31,98,20*7D
00:00:47 $GPGSV,3,2,10,14,51,040,29,293,20,22,30,091,24*7C
00:00:47 $GPGSV,3,3,10,31,49,146,27,32,38,301,24*7F
00:00:47 Temperature:  board 80F (239 raw), int 74F (228 raw), ext 74F (228 raw)
00:00:47 Accelerometer X=564 Y=508 Z=342    X=0 Y=0 Z=0
00:00:48 $GPRMC,200432.00,A,3743.22566,N,12132.01510,W,2.195,,070410,,,A*68
00:00:48 $GPVTG,,T,,M,2.195,N,4.066,K,A*28
00:00:48 $GPGGA,200432.00,3743.22566,N,12132.01510,W,1,07,1.14,67.1,M,-28.9,M,,*54
00:00:48 $GPGSA,A,3,14,31,32,11,22,19,20,,,,,,2.48,1.14,2.20*04
00:00:48 $GPGSV,3,1,10,03,03,207,,06,01,197,,09,39,059,,11,37,298,19*77
00:00:48 $GPGSV,3,2,10,14,51,040,29,19,19,229,16,20,09,293,20,22,30,091,,31,49,146,25,32,38,301,25*7C
00:00:48 Temperature:  board 80F (239 raw), int 74F (228 raw), ext 74F (228 raw)
00:00:48 Accelerometer X=561 Y=512 Z=340    X=0 Y=0 Z=0
00:00:49 $GPRMC,200433.00,A,3743.22662,N,12132.01533,W,5.858,12.45,070410,,,A*4C
00:00:49 $GPVTG,12.45,T,,M,5.858,N,10.850,K,A*33
00:00:49 $GPGGA,200433.00,3743.22662,N,12132.01533,W,1,07,1.14,69.8,M,-28.9,M,,*54
00:00:49 $GPGSA,A,3,14,31,32,11,22,19,20,,,,,,2.48,1.14,2.20*04
00:00:49 $GPGSV,3,1,10,03,03,207,,06,01,197,,09,39,059,,11,37,298,19*77
00:00:49 $GPGSV,,14,51,040,21,19,19,229,13,20,09,293,19,22,30,091,26*70,146,25,32,38,301,24*7D
00:00:49 Temperature:  board 80F (239 raw), int 74F (228 raw), ext 74F (228 raw)
00:00:49 Accelerometer X=558 Y=510 Z=340    X=0 Y=0 Z=0
00:00:50 $GPRMC,200434.00,A,3743.22806,N,12132.01486,W,5.818,16.56,070410,,,A*4A
00:00:50 $GPVTG,16.56,T,,M,5.818,N,10.775,K,A*39
00:00:50 $GPGGA,200434.00,3743.22806,N,12132.01486,W,1,07,1.14,70.9,M,-28.9,M,,*59
00:00:50 $GPGSA,A,3,14,31,32,11,22,19,20,,,,,,2.48,1.14,2.20*04
00:00:50 $GPGSV,3,1,10,03,03,207,,06,01,197,,09,39,059,,11,37,298,21*7C
00:00:50 $GPGSV,,14,51,040,20,19,19,229,10,20,09,293,19,22,30,091,27*73,146,24,32,38,301,23*7B
00:00:50 Temperature:  board 80F (239 raw), int 74F (228 raw), ext 74F (228 raw)
00:00:50 Accelerometer X=560 Y=507 Z=336    X=0 Y=0 Z=0
00:00:51 $GPRMC,200435.00,A,3743.22846,N,12132.01444,W,1.083,,070410,,,A*65
00:00:51 $GPVTG,,T,,M,1.083,N,2.006,K,A*2D
00:00:51 $GPGGA,200435.00,3743.22846,N,12132.01444,W,1,07,1.14,71.8,M,-28.9,M,,*52
00:00:51 $GPGSA,A,3,14,31,32,11,22,19,20,,,,,,2.48,1.14,2.20*04
00:00:51 $GPGSV,3,1,10,03,03,207,,06,01,197,,09,39,059,,11,37,298,22*7F
00:00:51 $GPGSV,3,2,10,14,51,040,21,19,19,229,16,20,09,293,19,22,30,091,31,49,146,21,32,38,301,22*7F
00:00:51 Temperature:  board 80F (239 raw), int 74F (228 raw), ext 74F (228 raw)
00:00:51 Accelerometer X=561 Y=512 Z=336    X=0 Y=0 Z=0
00:00:52 $GPRMC,200436.00,A,3743.22859,N,12132.01427,W,2.003,,070410,,,A*66
00:00:52 $GPVTG,,T,,M,2.003,N,3.709,K,A*2F
00:00:52 $GPGGA,200436.00,3743.22859,N,12132.01427,W,1,07,1.14,72.8,M,-28.9,M,,*59
00:00:52 $GPGSA,A,3,14,31,32,11,22,19,20,,,,,,2.48,1.14,2.20*04
00:00:52 $GPGSV,3,1,10,03,03,207,,06,01,197,,09,39,059,,11,37,298,21*7C
00:00:52 $GPGSV,3,2,10,14,51,040,19,19,19,229,22,20,09,293,19,22,30,091,,31,49,146,20,32,38,301,22*7E
00:00:52 Temperature:  board 80F (239 raw), int 73F (227 raw), ext 73F (227 raw)
00:00:52 Accelerometer X=559 Y=509 Z=339    X=0 Y=0 Z=0
00:00:53 $GPRMC,200437.00,A,3743.22928,N,12132.01394,W,3.970,,070410,,,A*63
00:00:53 $GPVTG,,T,,M,3.970,N,7.352,K,A*2D
00:00:53 $GPGGA,200437.00,3743.22928,N,12132.01394,W,1,07,1.14,72.6,M,-28.9,M,,*5E
00:00:53 $GPGSA,A,3,14,31,32,11,22,19,20,,,,,,2.48,1.14,2.20*04
00:00:53 $GPGSV,3,1,10,03,03,207,,06,01,197,,09,39,059,,11,37,298,24*79
00:00:53 $GPGSV,3,2,10,14,51,040,21,19,19,229,21,20,09,293,22,22,30,091,,31,49,146,22,32,38,301,22*7C
00:00:53 Temperature:  board 80F (239 raw), int 74F (228 raw), ext 74F (228 raw)
00:00:53 Accelerometer X=563 Y=510 Z=341    X=0 Y=0 Z=0
00:00:54 $GPRMC,200438.00,A,3743.22949,N,12132.01381,W,0.470,,070410,,,A*61
00:00:54 $GPVTG,,T,,M,0.470,N,0.871,K,A*2E
00:00:54 $GPGGA,200438.00,3743.22949,N,12132.01381,W,1,07,1.14,72.8,M,-28.9,M,,*5C
00:00:54 $GPGSA,A,3,14,31,32,11,22,19,20,,,,,,2.48,1.14,2.20*04
00:00:54 $GPGSV,3,1,10,03,03,207,,06,01,197,,09,39,059,,11,37,298,25*78
00:00:54 $GPGSV,3,2,10,14,51,040,22,19,19,229,21,20,09,293,24,22,30,091,,31,49,146,24,32,38,301,22*7A
00:00:54 Temperature:  board 80F (239 raw), int 74F (228 raw), ext 74F (228 raw)
00:00:54 Accelerometer X=560 Y=514 Z=338    X=0 Y=0 Z=0
00:00:55 $GPRMC,200439.00,A,3743.22955,N,12132.01405,W,1.808,,070410,,,A*64
00:00:55 $GPVTG,,T,,M,1.808,N,3.349,K,A*2F
00:00:55 $GPGGA,200439.00,3743.22955,N,12132.01405,W,1,07,1.14,72.6,M,-28.9,M,,*55
00:00:55 $GPGSA,A,3,14,31,32,11,22,19,20,,,,,,2.48,1.14,2.20*04
00:00:55 $GPGSV,3,1,10,03,03,207,,06,01,197,,09,39,059,,11,37,298,23*7E
00:00:55 $GPGSV,3,2,10,14,51,040,24,19,19,229,23,20,09,293,22,22,30,091,31,49,146,21,32,38,301,20*7D
00:00:55 Temperature:  board 80F (239 raw), int 73F (227 raw), ext 74F (228 raw)
00:00:55 Accelerometer X=563 Y=511 Z=338    X=0 Y=0 Z=0
00:00:56 $GPRMC,200440.00,A,3743.22909,N,12132.01384,W,2.909,,070410,,,A*6E
00:00:56 $GPVTG,,T,,M,2.909,N,5.388,K,A*27
00:00:56 $GPGGA,200440.00,3743.22909,N,12132.01384,W,1,07,1.14,72.0,M,-28.9,M,,*5A
00:00:56 $GPGSA,A,3,14,31,32,11,22,19,20,,,,,,2.48,1.14,2.20*04
00:00:56 $GPGSV,3,1,10,03,03,207,,06,01,197,,09,39,059,,11,37,298,22*7F
00:00:56 $GPGSV,3,2,10,14,51,040,26,19,19,229,24,20,09,293,20,22,30,091,,31,49,146,21,32,38,301,19*77
00:00:56 Temperature:  board 80F (239 raw), int 74F (228 raw), ext 74F (228 raw)
00:00:56 Accelerometer X=557 Y=516 Z=342    X=0 Y=0 Z=0
00:00:57 $GPRMC,200441.00,A,3743.22854,N,12132.01332,W,0.325,,070410,,,A*6D
00:00:57 $GPVTG,,T,,M,0.325,N,0.601,K,A*20
00:00:57 $GPGGA,200441.00,3743.22854,N,12132.01332,W,1,07,1.14,71.5,M,-28.9,M,,*59
00:00:57 $GPGSA,A,3,14,31,32,11,22,19,20,,,,,,2.48,1.14,2.20*04
00:00:57 $GPGSV,3,1,10,03,03,207,,06,01,197,,09,39,059,,11,37,298,21*7C
00:00:57 $GPGSV,3,2,10,14,51,040,26,19,19,229,24,20,09,293,17,22,30,091,,31,49,146,24,32,38,301,17*7C
00:00:57 Temperature:  board 80F (239 raw), int 74F (228 raw), ext 74F (228 raw)
00:00:57 Accelerometer X=548 Y=533 Z=341    X=0 Y=0 Z=0
00:00:58 $GPRMC,200442.00,A,3743.22835,N,12132.01299,W,1.441,,070410,,,A*6D
00:00:58 $GPVTG,,T,,M,1.441,N,2.669,K,A*28
00:00:58 $GPGGA,200442.00,3743.22835,N,12132.01299,W,1,07,1.14,72.1,M,-28.9,M,,*5A
00:00:58 $GPGSA,A,3,14,31,32,11,22,19,20,,,,,,2.48,1.14,2.20*04
00:00:58 $GPGSV,3,1,10,03,03,207,,06,01,197,,09,39,059,,11,37,298,20*7D
00:00:58 $GPGSV,3,2,10,14,51,040,25,19,19,229,22,20,09,293,17,22,30,091,,31,49,146,24,32,38,301,18*73
00:00:58 Temperature:  board 80F (239 raw), int 74F (228 raw), ext 74F (228 raw)
00:00:58 Accelerometer X=556 Y=513 Z=334    X=0 Y=0 Z=0
00:00:59 $GPRMC,200443.00,A,3743.22792,N,12132.01248,W,1.679,,070410,,,A*6B
00:00:59 $GPVTG,,T,,M,1.679,N,3.109,K,A*21
00:00:59 $GPGGA,200443.00,3743.22792,N,12132.01248,W,1,07,1.14,71.2,M,-28.9,M,,*55
00:00:59 $GPGSA,A,3,14,31,32,11,22,19,20,,,,,,2.48,1.14,2.20*04
00:00:59 $GPGSV,3,1,10,03,03,207,,06,01,197,,09,39,059,,11,37,298,21*7C
00:00:59 $GPGSV,3,2,10,14,51,040,23,19,19,229,19,20,09,293,20,22,30,091,,31,49,146,26,32,38,301,17*7E
00:00:59 Temperature:  board 80F (239 raw), int 74F (228 raw), ext 74F (228 raw)
00:00:59 Accelerometer X=561 Y=508 Z=342    X=0 Y=0 Z=0
00:01:00 Sending Sensors packet: >ProjectBacchus.org Uptime=00:01:00 Temp=80F,74F,74F (239,228,228) Acc=561,508,342
Sleep... Sleep... Sleep... Sleep... 
00:01:01 $GPRMC,200444.00,A,3743.22741,N,12132.01204,W,1.122,,070410,,,A*63
00:01:01 $GPVTG,,T,,M,1.122,N,2.078,K,A*2E
00:01:01 $GPGGA,200444.00,3743.22,22,19,19,229,18,20,09,293,18,22,30,091,29*76
00:01:01 $GPGSV,3,3,10,31,49,1
00:01:01 Temperature:  board 80F (239 raw), int 74F (228 raw), ext 74F (228 raw)
00:01:01 Accelerometer X=560 Y=509 Z=337    X=0 Y=0 Z=0
00:01:02 $GPRMC,200446.00,A,3743.22637,N,12132.01178,W,1.020,,070410,,,A*6A
00:01:02 $GPVTG,,T,,M,1.020,N,1.889,K,A*28
00:01:02 $GPGGA,200446.00,3743.22637,N,12132.01178,W,1,07,1.14,69.6,M,-28.9,M,,*53
00:01:02 $GPGSA,A,3,14,31,32,11,22,19,20,,,,,,2.48,1.14,2.20*04
00:01:02 $GPGSV,3,1,10,03,03,207,,06,01,197,,09,39,059,,11,37,298,18*76
00:01:02 $GPGSV,3,2,10,14,51,040,26,19,19,229,22,20,09,293,17,22,30,091,,31,49,146,29,32,38,301,22*77
00:01:02 Temperature:  board 80F (239 raw), int 74F (228 raw), ext 74F (228 raw)
00:01:02 Accelerometer X=561 Y=510 Z=340    X=0 Y=0 Z=0
00:01:03 $GPRMC,200447.00,A,3743.22614,N,12132.01182,W,1.366,,070410,,,A*6E
00:01:03 $GPVTG,,T,,M,1.366,N,2.530,K,A*25
00:01:03 $GPGGA,200447.00,3743.22614,N,12132.01182,W,1,07,1.14,70.2,M,-28.9,M,,*5A
00:01:03 $GPGSA,A,3,14,31,32,11,22,19,20,,,,,,2.48,1.14,2.20*04
00:01:03 $GPGSV,3,1,10,03,03,207,,06,01,197,,09,39,059,,11,37,298,16*78
00:01:03 $GPGSV,3,2,10,14,51,040,27,19,19,229,22,20,09,293,17,22,30,091,31,49,146,27,32,38,301,22*79
00:01:03 Temperature:  board 80F (239 raw), int 74F (228 raw), ext 74F (228 raw)
00:01:03 Accelerometer X=565 Y=504 Z=336    X=0 Y=0 Z=0
00:01:04 $GPRMC,200448.00,A,3743.22603,N,12132.01204,W,1.063,,070410,,,A*6C
00:01:04 $GPVTG,,T,,M,1.063,N,1.969,K,A*20
00:01:04 $GPGGA,200448.00,3743.22603,N,12132.01204,W,1,07,1.14,70.3,M,-28.9,M,,*5F
00:01:04 $GPGSA,A,3,14,31,32,11,22,19,20,,,,,,2.48,1.14,2.20*04
00:01:04 $GPGSV,3,1,10,03,03,207,,06,01,197,,09,39,059,,11,37,298,17*79
00:01:04 $GPGSV,3,2,10,14,51,040,26,19,19,229,23,20,09,293,17,22,30,091,,31,49,146,25,32,38,301,21*78
00:01:04 Temperature:  board 80F (239 raw), int 74F (228 raw), ext 74F (228 raw)
00:01:04 Accelerometer X=567 Y=513 Z=336    X=0 Y=0 Z=0
00:01:05 $GPRMC,200449.00,A,3743.22559,N,12132.01263,W,1.984,,070410,,,A*60
00:01:05 $GPVTG,,T,,M,1.984,N,3.675,K,A*20
00:01:05 $GPGGA,200449.00,3743.22559,N,12132.01263,W,1,07,1.14,71.1,M,-28.9,M,,*50
00:01:05 $GPGSA,A,3,14,31,32,11,22,19,20,,,,,,2.48,1.14,2.20*04
00:01:05 $GPGSV,3,1,10,03,03,207,,06,01,197,,09,39,059,,11,37,298,20*7D
00:01:05 $GPGSV,3,2,10,14,51,040,27,19,19,229,22,20,09,293,18,22,30,091,,31,49,146,23,32,38,301,21*7E
00:01:05 Temperature:  board 80F (239 raw), int 72F (225 raw), ext 74F (228 raw)
00:01:05 Accelerometer X=550 Y=498 Z=354    X=0 Y=0 Z=0
00:01:06 $GPRMC,200450.00,A,3743.22549,N,12132.01304,W,1.032,,070410,,,A*6D
00:01:06 $GPVTG,,T,,M,1.032,N,1.912,K,A*28
00:01:06 $GPGGA,200450.00,3743.22549,N,12132.01304,W,1,07,1.14,71.6,M,-28.9,M,,*5E
00:01:06 $GPGSA,A,3,14,31,32,11,22,19,20,,,,,,2.48,1.14,2.20*04
00:01:06 $GPGSV,3,1,10,03,03,207,,06,01,197,,09,39,059,,11,37,298,21*7C
00:01:06 $GPGSV,3,2,10,14,51,040,27,19,19,229,20,20,09,293,20,22,30,091,,31,49,146,23,32,38,301,21*7E
00:01:06 Temperature:  board 80F (239 raw), int 74F (228 raw), ext 74F (228 raw)
00:01:06 Accelerometer X=557 Y=511 Z=340    X=0 Y=0 Z=0
00:01:07 $GPRMC,200451.00,A,3743.22559,N,12132.01315,W,0.531,,070410,,,A*6A
00:01:07 $GPVTG,,T,,M,0.531,N,0.984,K,A*21
00:01:07 $GPGGA,200451.00,3743.22559,N,12132.01315,W,1,07,1.14,70.9,M,-28.9,M,,*50
00:01:07 $GPGSA,A,3,14,31,32,11,22,19,20,,,,,,2.48,1.14,2.20*04
00:01:07 $GPGSV,3,1,10,03,03,207,,06,01,197,,09,39,059,,11,37,298,24*79
00:01:07 $GPGSV,3,2,10,14,51,040,27,19,19,229,22,20,09,293,18,22,30,091,,31,49,146,22,32,38,301,25*7B
00:01:07 Temperature:  board 80F (239 raw), int 74F (228 raw), ext 74F (228 raw)
00:01:07 Accelerometer X=559 Y=509 Z=337    X=0 Y=0 Z=0
00:01:08 $GPRMC,200452.00,A,3743.22570,N,12132.01319,W,1.022,,070410,,,A*68
00:01:08 $GPVTG,,T,,M,1.022,N,1.892,K,A*20
00:01:08 $GPGGA,200452.00,3743.22570,N,12132.01319,W,1,07,1.14,71.1,M,-28.9,M,,*5D
00:01:08 $GPGSA,A,3,14,31,32,11,22,19,20,,,,,,2.48,1.14,2.20*04
00:01:08 $GPGSV,3,1,10,03,03,207,,06,01,197,,09,39,059,,11,37,298,24*79
00:01:08 $GPGSV,3,2,10,14,51,040,26,19,19,229,19,20,09,293,19,22,30,091,,31,49,146,23,32,38,301,23*7C
00:01:08 Temperature:  board 80F (239 raw), int 74F (228 raw), ext 74F (228 raw)
00:01:08 Accelerometer X=560 Y=512 Z=339    X=0 Y=0 Z=0
00:01:09 $GPRMC,200453.00,A,3743.22559,N,12132.01337,W,0.287,,070410,,,A*62
00:01:09 $GPVTG,,T,,M,0.287,N,0.532,K,A*2A
00:01:09 $GPGGA,200453.00,3743.22559,N,12132.01337,W,1,07,1.14,72.0,M,-28.9,M,,*59
00:01:09 $GPGSA,A,3,14,31,32,11,22,19,20,,,,,,2.48,1.14,2.20*04
00:01:09 $GPGSV,3,1,10,03,03,207,,06,00,197,,09,39,059,,11,37,298,24*78
00:01:09 $GPGSV,3,2,10,14,51,040,26,19,19,229,21,20,09,293,18,22,30,091,,31,49,146,26,32,38,301,21*7B
00:01:09 Temperature:  board 81F (240 raw), int 74F (228 raw), ext 73F (227 raw)
00:01:09 Accelerometer X=561 Y=508 Z=339    X=0 Y=0 Z=0
00:01:10 $GPRMC,200454.00,A,3743.22541,N,12132.01340,W,0.490,,070410,,,A*6C
00:01:10 $GPVTG,,T,,M,0.490,N,0.907,K,A*20
00:01:10 $GPGGA,200454.00,3743.22541,N,12132.01340,W,1,07,1.14,72.0,M,-28.9,M,,*57
00:01:10 $GPGSA,A,3,14,31,32,11,22,19,20,,,,,,2.47,1.14,2.20*0B
00:01:10 $GPGSV,3,1,10,03,03,207,,06,00,197,,09,39,059,,11,37,298,23*7F
00:01:10 $GPGSV,3,2,10,14,51,040,27,19,19,229,24,20,09,293,20,22,30,091,31,49,146,31,32,38,301,19*76
00:01:10 Temperature:  board 81F (240 raw), int 74F (229 raw), ext 74F (228 raw)
00:01:10 Accelerometer X=562 Y=508 Z=338    X=0 Y=0 Z=0
00:01:11 $GPRMC,200455.00,A,3743.22526,N,12132.01297,W,0.771,,070410,,,A*6B
00:01:11 $GPVTG,,T,,M,0.771,N,1.427,K,A*22
00:01:11 $GPGGA,200455.00,3743.22526,N,12132.01297,W,1,07,1.14,70.5,M,-28.9,M,,*5B
00:01:11 $GPGSA,A,3,14,31,32,11,22,19,20,,,,,,2.47,1.14,2.20*0B
00:01:11 $GPGSV,3,1,10,03,03,207,,06,00,197,,09,39,059,,11,37,298,21*7D
00:01:11 $GPGSV,3,2,10,14,51,040,27,19,19,229,24,20,09,293,21,22,30,091,,31,49,146,31,32,38,301,18*77
00:01:11 Temperature:  board 80F (239 raw), int 74F (228 raw), ext 74F (228 raw)
00:01:11 Accelerometer X=561 Y=512 Z=338    X=0 Y=0 Z=0
00:01:12 $GPRMC,200456.00,A,3743.22537,N,12132.01255,W,2.223,,070410,,,A*66
00:01:12 $GPVTG,,T,,M,2.223,N,4.117,K,A*21
00:01:12 $GPGGA,200456.00,3743.22537,N,12132.01255,W,1,07,1.14,69.5,M,-28.9,M,,*5E
00:01:12 $GPGSA,A,3,14,31,32,11,22,19,20,,,,,,2.47,1.14,2.20*0B
00:01:12 $GPGSV,3,1,10,03,03,207,,06,00,197,,09,38,058,,11,37,298,22*7E
00:01:12 $GPGSV,3,2,10,14,51,040,27,19,19,229,24,20,09,293,20,22,30,091,31,49,146,30,32,38,301,19*77
00:01:12 Temperature:  board 81F (240 raw), int 74F (228 raw), ext 73F (227 raw)
00:01:12 Accelerometer X=560 Y=509 Z=341    X=0 Y=0 Z=0
00:01:13 $GPRMC,200457.00,A,3743.22518,N,12132.01271,W,0.561,,070410,,,A*6F
00:01:13 $GPVTG,,T,,M,0.561,N,1.038,K,A*2B
00:01:13 $GPGGA,200457.00,3743.22518,N,12132.01271,W,1,07,1.14,70.0,M,-28.9,M,,*59
00:01:13 $GPGSA,A,3,14,31,32,11,22,19,20,,,,,,2.47,1.14,2.20*0B
00:01:13 $GPGSV,3,1,10,03,03,207,,06,00,197,,09,38,058,,11,37,298,23*7F
00:01:13 $GPGSV,3,2,10,14,51,040,28,19,19,229,25,20,09,293,20,22,30,091,31,49,146,30,32,38,301,19*77
00:01:13 Temperature:  board 81F (240 raw), int 74F (229 raw), ext 74F (228 raw)
00:01:13 Accelerometer X=560 Y=507 Z=339    X=0 Y=0 Z=0
00:01:14 $GPRMC,200458.00,A,3743.22498,N,12132.01279,W,0.518,,070410,,,A*6F
00:01:14 $GPVTG,,T,,M,0.518,N,0.960,K,A*20
00:01:14 $GPGGA,200458.00,3743.22498,N,12132.01279,W,1,07,1.14,69.9,M,-28.9,M,,*56
00:01:14 $GPGSA,A,3,14,31,32,11,22,19,20,,,,,,2.47,1.14,2.20*0B
00:01:14 $GPGSV,3,1,10,03,03,207,,06,00,197,,09,38,058,,11,37,297,23*70
00:01:14 $GPGSV,3,2,10,14,51,040,28,19,19,229,25,20,09,293,20,22,30,091,31,49,146,23,32,38,301,19*75
00:01:14 Temperature:  board 81F (240 raw), int 74F (229 raw), ext 73F (227 raw)
00:01:14 Accelerometer X=554 Y=499 Z=336    X=0 Y=0 Z=0
00:01:15 Sending GPS packet: $GPGGA,200458.00,3743.22498,N,12132.01279,W,1,07,1.14,69.9,M,-28.9,M,,*56
Sleep... Sleep... Sleep... Sleep... 
00:01:16 $GPRMC,200459.00,A,3743.22504,N,12132.01309,W,1.444,,070410,,,A*65
00:01:16 $GPVTG,,T,,M,1.444,N,2.675,K,A*20
00:01:16 $GPGGA,200459.00,3743.22$GPGSV,3,1,11,03,03,207,,06,00,197,,09,38,058,,11,37,297,23*71
00:01:16 $GPG14,51,040,26,19,19,229,25,20,09,29311,22,30,091,20,31,49,146,23,32,38,301,20*47
00:01:16 Temperature:  board 81F (240 raw), int 74F (229 raw), ext 74F (228 raw)
00:01:16 Accelerometer X=560 Y=510 Z=337    X=0 Y=0 Z=0
00:01:17 $GPRMC,200501.00,A,3743.22519,N,12132.01387,W,3.377,,070410,,,A*66
00:01:17 $GPVTG,,T,,M,3.377,N,6.254,K,A*26
00:01:17 $GPGGA,200501.00,3743.22519,N,12132.01387,W,1,07,1.14,67.6,M,-28.9,M,,*52
00:01:17 $GPGSA,A,3,14,31,32,11,22,19,20,,,,,,2.47,1.14,2.19*01
00:01:17 $GPGSV,3,1,11,03,03,207,,06,00,197,,09,38,058,,11,37,297,22*70
00:01:17 $GPGSV,3,2,11,12,00,051,,14,51,040,25,19,19,229,25,20,09,293,182,30,091,21,31,49,146,23,32,38,301,18*4D
00:01:17 Temperature:  board 81F (240 raw), int 74F (229 raw), ext 74F (228 raw)
00:01:17 Accelerometer X=558 Y=508 Z=337    X=0 Y=0 Z=0
00:01:18 $GPRMC,200502.00,A,3743.22514,N,12132.01429,W,0.591,,070410,,,A*66
00:01:18 $GPVTG,,T,,M,0.591,N,1.095,K,A*23
00:01:18 $GPGGA,200502.00,3743.22514,N,12132.01429,W,1,07,1.14,67.1,M,-28.9,M,,*58
00:01:18 $GPGSA,A,3,14,31,32,11,22,19,20,,,,,,2.47,1.14,2.19*01
00:01:18 $GPGSV,3,1,11,03,03,207,,06,00,197,,09,38,058,,11,37,297,21*73
00:01:18 $GPGSV,3,2,11,12,00,051,,14,51,040,25,19,19,229,27,20,09,293,202,30,091,22,31,49,146,25,32,38,301,16*46
00:01:18 Temperature:  board 81F (240 raw), int 74F (229 raw), ext 73F (227 raw)
00:01:18 Accelerometer X=560 Y=507 Z=335    X=0 Y=0 Z=0
00:01:19 $GPRMC,200503.00,A,3743.22515,N,12132.01413,W,0.694,,070410,,,A*69
00:01:19 $GPVTG,,T,,M,0.694,N,1.284,K,A*27
00:01:19 $GPGGA,200503.00,3743.22515,N,12132.01413,W,1,07,1.14,66.7,M,-28.9,M,,*56
00:01:19 $GPGSA,A,3,14,31,32,11,22,19,20,,,,,,2.47,1.14,2.19*01
00:01:19 $GPGSV,3,1,11,03,03,207,,06,00,197,,09,38,058,,11,37,297,21*73
00:01:19 $GPGSV,3,2,11,12,00,051,,14,51,040,25,19,19,229,27,20,09,293,20,30,091,24,31,49,146,24,32,38,301,17*40
00:01:19 Temperature:  board 81F (240 raw), int 74F (229 raw), ext 74F (228 raw)
00:01:19 Accelerometer X=560 Y=510 Z=339    X=0 Y=0 Z=0
00:01:20 $GPRMC,200504.00,A,3743.22508,N,12132.01439,W,0.378,,070410,,,A*6D
00:01:20 $GPVTG,,T,,M,0.378,N,0.701,K,A*29
00:01:20 $GPGGA,200504.00,3743.22508,N,12132.01439,W,1,07,1.14,68.1,M,-28.9,M,,*5D
00:01:20 $GPGSA,A,3,14,31,32,11,22,19,20,,,,,,2.47,1.14,2.19*01
00:01:20 $GPGSV,3,1,11,03,03,207,,06,00,197,,09,38,058,,11,37,297,19*78
00:01:20 $GPGSV,3,2,11,12,00,051,,14,51,040,27,19,19,229,26,20,09,293,212,30,091,25,31,49,146,25,32,38,301,17*40
00:01:20 Temperature:  board 81F (240 raw), int 74F (229 raw), ext 73F (227 raw)
00:01:20 Accelerometer X=558 Y=507 Z=338    X=0 Y=0 Z=0
00:01:21 $GPRMC,200505.00,A,3743.22475,N,12132.01492,W,0.987,,070410,,,A*6C
00:01:21 $GPVTG,,T,,M,0.987,N,1.828,K,A*26
00:01:21 $GPGGA,200505.00,3743.22475,N,12132.01492,W,1,07,1.14,69.2,M,-28.9,M,,*54
00:01:21 $GPGSA,A,3,14,31,32,11,22,19,20,,,,,,2.47,1.14,2.19*01
00:01:21 $GPGSV,3,1,11,03,03,207,,06,00,197,,09,38,058,,11,37,297,19*78
00:01:21 $GPGSV,3,2,11,12,00,051,,14,51,040,28,19,19,229,28,20,09,293,212,30,091,34,31,49,146,24,32,38,301,17*41
00:01:21 Temperature:  board 81F (240 raw), int 74F (229 raw), ext 73F (227 raw)
00:01:21 Accelerometer X=562 Y=508 Z=340    X=0 Y=0 Z=0
00:01:22 $GPRMC,200506.00,A,3743.22425,N,12132.01497,W,1.320,,070410,,,A*69
00:01:22 $GPVTG,,T,,M,1.320,N,2.444,K,A*25
00:01:22 $GPGGA,200506.00,3743.22425,N,12132.01497,W,1,07,1.14,69.2,M,-28.9,M,,*57
00:01:22 $GPGSA,A,3,14,31,32,11,22,19,20,,,,,,2.47,1.14,2.19*01
00:01:22 $GPGSV,3,1,11,03,03,207,,06,00,197,,09,38,058,,11,37,297,18*79
00:01:22 $GPGSV,3,2,11,12,00,051,,14,51,040,28,19,19,229,28,20,09,293,222,30,091,27,31,49,146,25,32,38,301,18*4D
00:01:22 Temperature:  board 81F (240 raw), int 74F (229 raw), ext 73F (227 raw)
00:01:22 Accelerometer X=561 Y=506 Z=341    X=0 Y=0 Z=0
00:01:23 $GPRMC,200507.00,A,3743.22374,N,12132.01527,W,1.190,,070410,,,A*68
00:01:23 $GPVTG,,T,,M,1.190,N,2.204,K,A*2E
00:01:23 $GPGGA,200507.00,3743.22374,N,12132.01527,W,1,07,1.14,69.9,M,-28.9,M,,*54
00:01:23 $GPGSA,A,3,14,31,32,11,22,19,20,,,,,,2.47,1.14,2.19*01
00:01:23 $GPGSV,3,1,11,03,03,207,,06,00,197,,09,38,058,,11,37,297,18*79
00:01:23 $GPGSV,3,2,11,12,00,051,,14,51,040,31,19,19,229,28,20,09,293,222,30,091,27,31,49,146,32,32,38,301,18*4B
00:01:23 Temperature:  board 81F (240 raw), int 74F (229 raw), ext 73F (227 raw)
00:01:23 Accelerometer X=557 Y=511 Z=339    X=0 Y=0 Z=0
00:01:24 $GPRMC,200508.00,A,3743.22364,N,12132.01587,W,1.507,,070410,,,A*66
00:01:24 $GPVTG,,T,,M,1.507,N,2.791,K,A*2D
00:01:24 $GPGGA,200508.00,3743.22364,N,12132.01587,W,1,07,1.14,71.4,M,-28.9,M,,*54
00:01:24 $GPGSA,A,3,14,31,32,11,22,19,20,,,,,,2.47,1.14,2.19*01
00:01:24 $GPGSV,3,1,11,03,03,207,,06,00,197,,09,38,058,,11,37,297,19*78
00:01:24 $GPGSV,3,2,11,12,00,051,,14,51,040,30,19,19,229,27,20,09,293,222,30,091,19,31,49,146,26,32,38,301,20*48
00:01:24 Temperature:  board 81F (240 raw), int 74F (229 raw), ext 73F (227 raw)
00:01:24 Accelerometer X=558 Y=508 Z=339    X=0 Y=0 Z=0
00:01:25 $GPRMC,200509.00,A,3743.22379,N,12132.01637,W,1.070,,070410,,,A*66
00:01:25 $GPVTG,,T,,M,1.070,N,1.981,K,A*24
00:01:25 $GPGGA,200509.00,3743.22379,N,12132.01637,W,1,07,1.14,73.0,M,-28.9,M,,*57
00:01:25 $GPGSA,A,3,14,31,32,11,22,19,20,,,,,,2.47,1.14,2.19*01
00:01:25 $GPGSV,3,1,11,03,03,207,,06,00,197,,09,38,058,,11,37,297,19*78
00:01:25 $GPGSV,3,2,11,12,00,051,,14,51,040,30,19,19,229,28,20,09,293,222,29,092,25,31,49,146,26,32,38,301,20*4C
00:01:25 Temperature:  board 81F (240 raw), int 75F (230 raw), ext 73F (227 raw)
00:01:25 Accelerometer X=558 Y=506 Z=338    X=0 Y=0 Z=0
00:01:26 $GPRMC,200510.00,A,3743.22370,N,12132.01668,W,0.698,,070410,,,A*6C
00:01:26 $GPVTG,,T,,M,0.698,N,1.293,K,A*2D
00:01:26 $GPGGA,200510.00,3743.22370,N,12132.01668,W,1,07,1.14,73.2,M,-28.9,M,,*5E
00:01:26 $GPGSA,A,3,14,31,32,11,22,19,20,,,,,,2.47,1.14,2.19*01
00:01:26 $GPGSV,3,1,11,03,03,207,,06,00,197,,09,38,058,,11,37,297,22*70
00:01:26 $GPGSV,3,2,11,12,00,051,,14,51,040,29,19,19,229,28,20,09,293,222,29,092,26,31,49,146,23,32,38,301,21*4B
00:01:26 Temperature:  board 81F (240 raw), int 74F (229 raw), ext 73F (227 raw)
00:01:26 Accelerometer X=554 Y=514 Z=338    X=0 Y=0 Z=0
00:01:27 $GPRMC,200511.00,A,3743.22355,N,12132.01729,W,1.719,,070410,,,A*67
00:01:27 $GPVTG,,T,,M,1.719,N,3.183,K,A*24
00:01:27 $GPGGA,200511.00,3743.22355,N,12132.01729,W,1,07,1.14,74.6,M,-28.9,M,,*5F
00:01:27 $GPGSA,A,3,14,31,32,11,22,19,20,,,,,,2.47,1.14,2.19*01
00:01:27 $GPGSV,3,1,11,03,03,207,,06,00,197,,09,38,058,,11,37,297,23*71
00:01:27 $GPGSV,3,2,11,12,00,051,,14,51,040,21,19,19,229,27,20,09,293,22,29,092,31,31,49,146,24,32,38,301,21*4A
00:01:27 Temperature:  board 81F (240 raw), int 75F (230 raw), ext 73F (227 raw)
00:01:27 Accelerometer X=558 Y=510 Z=338    X=0 Y=0 Z=0
00:01:28 $GPRMC,200512.00,A,3743.22372,N,12132.01773,W,1.251,,070410,,,A*67
00:01:28 $GPVTG,,T,,M,1.251,N,2.318,K,A*2C
00:01:28 $GPGGA,200512.00,3743.22372,N,12132.01773,W,1,07,1.14,75.2,M,-28.9,M,,*53
00:01:28 $GPGSA,A,3,14,31,32,11,22,19,20,,,,,,2.47,1.14,2.19*01
00:01:28 $GPGSV,3,1,11,03,03,207,,06,00,197,,09,38,058,,11,37,297,22*70
00:01:28 $GPGSV,3,2,11,12,00,051,,14,51,040,20,19,19,229,28,20,09,293,232,29,092,30,31,49,146,24,32,38,301,19*40
00:01:28 Temperature:  board 81F (240 raw), int 75F (230 raw), ext 73F (227 raw)
00:01:28 Accelerometer X=553 Y=512 Z=336    X=0 Y=0 Z=0
00:01:29 $GPRMC,200513.00,A,3743.22370,N,12132.01785,W,0.334,,070410,,,A*6E
00:01:29 $GPVTG,,T,,M,0.334,N,0.618,K,A*28
00:01:29 $GPGGA,200513.00,3743.22370,N,12132.01785,W,1,07,1.14,76.2,M,-28.9,M,,*5A
00:01:29 $GPGSA,A,3,14,31,32,11,22,19,20,,,,,,2.47,1.14,2.19*01
00:01:29 $GPGSV,3,1,11,03,03,207,,06,00,197,,09,38,058,,11,37,297,21*73
00:01:29 $GPGSV,3,2,11,12,00,051,,14,51,040,22,19,19,229,28,20,09,293,222,29,092,20,31,49,146,23,32,38,301,18*47
00:01:29 Temperature:  board 81F (240 raw), int 75F (230 raw), ext 73F (227 raw)
00:01:29 Accelerometer X=557 Y=508 Z=331    X=0 Y=0 Z=0
00:01:30 Sending Sensors packet: >ProjectBacchus.org Uptime=00:01:30 Temp=81F,75F,73F (240,230,227) Acc=557,508,331
Sleep... Sleep... Sleep... Sleep... 
00:01:31 $GPRMC,200514.00,A,3743.22343,N,12132.01792,W,0.561,,070410,,,A*69
00:01:31 $GPVTG,,T,,M,0.561,N,1.038,K,A*2B
00:01:31 $GPGGA,200514.00,3743.2251,040,20,19,19,229,28*71
00:01:31 $GPGSV,3,3,12,20,09,293,20,22,29,092,27,3,19*74
00:01:31 Temperature:  board 81F (240 raw), int 75F (230 raw), ext 73F (226 raw)
00:01:31 Accelerometer X=563 Y=505 Z=339    X=0 Y=0 Z=0
00:01:32 $GPRMC,200516.00,A,3743.22329,N,12132.01775,W,0.713,,070410,,,A*69
00:01:32 $GPVTG,,T,,M,0.713,N,1.321,K,A*27
00:01:32 $GPGGA,200516.00,3743.22329,N,12132.01775,W,1,07,1.14,78.9,M,-28.9,M,,*59
00:01:32 $GPGSA,A,3,14,31,32,11,22,19,20,,,,,,2.47,1.14,2.19*01
00:01:32 $GPGSV,3,1,12,01,00,119,,03,03,207,,06,00,197,,09,38,058,*73
00:01:32 $GPGSV,3,2,12,11,37,297,21,12,00,051,,14,51,040,20,19,19,229,27*709,293,19,22,29,092,26,31,49,146,25,32,38,301,21*75
00:01:32 Temperature:  board 81F (240 raw), int 75F (230 raw), ext 73F (227 raw)
00:01:32 Accelerometer X=559 Y=504 Z=335    X=0 Y=0 Z=0
00:01:33 $GPRMC,200517.00,A,3743.22331,N,12132.01779,W,0.546,,070410,,,A*6F
00:01:33 $GPVTG,,T,,M,0.546,N,1.011,K,A*25
00:01:33 $GPGGA,200517.00,3743.22331,N,12132.01779,W,1,07,1.14,79.4,M,-28.9,M,,*51
00:01:33 $GPGSA,A,3,14,31,32,11,22,19,20,,,,,,2.47,1.14,2.19*01
00:01:33 $GPGSV,3,1,12,01,00,119,,03,03,207,,06,00,197,,09,38,058,*73
00:01:33 $GPGSV,3,2,12,11,37,297,20,12,00,051,,14,51,040,22,19,19,229,27*709,293,18,22,29,092,26,31,49,146,27,32,38,301,22*75
00:01:33 Temperature:  board 81F (240 raw), int 74F (229 raw), ext 73F (227 raw)
00:01:33 Accelerometer X=556 Y=512 Z=336    X=0 Y=0 Z=0
00:01:34 $GPRMC,200518.00,A,3743.22332,N,12132.01795,W,0.828,,070410,,,A*64
00:01:34 $GPVTG,,T,,M,0.828,N,1.533,K,A*25
00:01:34 $GPGGA,200518.00,3743.22332,N,12132.01795,W,1,07,1.14,79.2,M,-28.9,M,,*59
00:01:34 $GPGSA,A,3,14,31,32,11,22,19,20,,,,,,2.47,1.14,2.19*01
00:01:34 $GPGSV,3,1,12,01,00,119,,03,03,207,,06,00,197,,09,38,058,*73
00:01:34 $GPGSV,3,2,12,11,37,297,20,12,00,051,,14,51,040,23,19,19,229,28*709,293,19,22,29,092,25,31,49,145,27,32,38,301,22*74
00:01:34 Temperature:  board 81F (240 raw), int 74F (229 raw), ext 73F (227 raw)
00:01:34 Accelerometer X=556 Y=514 Z=336    X=0 Y=0 Z=0
00:01:35 $GPRMC,200519.00,A,3743.22319,N,12132.01812,W,0.352,,070410,,,A*6A
00:01:35 $GPVTG,,T,,M,0.352,N,0.651,K,A*25
00:01:35 $GPGGA,200519.00,3743.22319,N,12132.01812,W,1,07,1.14,80.2,M,-28.9,M,,*57
00:01:35 $GPGSA,A,3,14,31,32,11,22,19,20,,,,,,2.47,1.14,2.19*01
00:01:35 $GPGSV,3,1,12,01,00,119,,03,03,207,,06,00,197,,09,38,058,*73
00:01:35 $GPGSV,3,2,12,11,37,297,21,12,00,051,,14,51,040,23,19,19,229,28*79,293,20,22,29,092,25,31,49,145,28,32,38,301,20*73
00:01:35 Temperature:  board 81F (240 raw), int 75F (230 raw), ext 73F (227 raw)
00:01:35 Accelerometer X=559 Y=508 Z=337    X=0 Y=0 Z=0
00:01:36 $GPRMC,200520.00,A,3743.22311,N,12132.01825,W,0.815,,070410,,,A*64
00:01:36 $GPVTG,,T,,M,0.815,N,1.509,K,A*22
00:01:36 $GPGGA,200520.00,3743.22311,N,12132.01825,W,1,07,1.14,81.2,M,-28.9,M,,*50
00:01:36 $GPGSA,A,3,14,31,32,11,22,19,20,,,,,,2.47,1.14,2.19*01
00:01:36 $GPGSV,3,1,12,01,00,119,,03,03,207,,06,00,197,,09,38,058,*73
00:01:36 $GPGSV,3,2,12,11,37,297,20,12,00,051,,14,51,040,26,19,19,229,28*709,293,20,22,29,092,31,31,49,145,29,32,38,301,18*7C
00:01:36 Temperature:  board 81F (240 raw), int 75F (230 raw), ext 73F (227 raw)
00:01:36 Accelerometer X=555 Y=508 Z=345    X=0 Y=0 Z=0
00:01:37 $GPRMC,200521.00,A,3743.22317,N,12132.01815,W,0.300,,070410,,,A*6F
00:01:37 $GPVTG,,T,,M,0.300,N,0.556,K,A*26
00:01:37 $GPGGA,200521.00,3743.22317,N,12132.01815,W,1,07,1.14,80.3,M,-28.9,M,,*54
00:01:37 $GPGSA,A,3,14,31,32,11,22,19,20,,,,,,2.47,1.14,2.19*01
00:01:37 $GPGSV,3,1,12,01,00,119,,03,03,207,,06,00,197,,09,38,058,*73
00:01:37 $GPGSV,3,2,12,11,37,297,20,12,00,051,,14,51,040,31,19,19,229,28*709,293,21,22,29,092,24,31,49,145,28,32,38,301,17*77
00:01:37 Temperature:  board 81F (240 raw), int 75F (230 raw), ext 73F (227 raw)
00:01:37 Accelerometer X=564 Y=518 Z=341    X=0 Y=0 Z=0
00:01:38 $GPRMC,200522.00,A,3743.22322,N,12132.01854,W,2.359,,070410,,,A*61
00:01:38 $GPVTG,,T,,M,2.359,N,4.369,K,A*26
00:01:38 $GPGGA,200522.00,3743.22322,N,12132.01854,W,1,07,1.14,81.2,M,-28.9,M,,*54
00:01:38 $GPGSA,A,3,14,31,32,11,22,19,20,,,,,,2.47,1.14,2.19*01
00:01:38 $GPGSV,3,1,12,01,00,119,,03,03,207,,06,00,197,,09,38,058,*73
00:01:38 $GPGSV,3,2,12,11,37,297,17,12,00,051,,14,51,040,30,19,19,229,27*79,293,20,22,29,092,22,31,49,145,16,32,38,301,16*7C
00:01:38 Temperature:  board 81F (240 raw), int 75F (230 raw), ext 73F (227 raw)
00:01:38 Accelerometer X=559 Y=508 Z=337    X=0 Y=0 Z=0
00:01:39 $GPRMC,200523.00,A,3743.22342,N,12132.01886,W,0.614,,070410,,,A*67
00:01:39 $GPVTG,,T,,M,0.614,N,1.137,K,A*24
00:01:39 $GPGGA,200523.00,3743.22342,N,12132.01886,W,1,07,1.14,81.4,M,-28.9,M,,*5A
00:01:39 $GPGSA,A,3,14,31,32,11,22,19,20,,,,,,2.47,1.14,2.19*01
00:01:39 $GPGSV,3,1,12,01,00,119,,03,03,207,10,06,00,197,,09,38,058,*72
00:01:39 $GPGSV,3,2,12,11,37,297,16,12,00,051,,14,51,040,20,19,19,229,240,09,293,17,22,29,092,19,31,49,145,18,32,38,301,16*7E
00:01:39 Temperature:  board 81F (240 raw), int 75F (230 raw), ext 71F (224 raw)
00:01:39 Accelerometer X=563 Y=504 Z=338    X=0 Y=0 Z=0
00:01:40 $GPRMC,200524.00,A,3743.22419,N,12132.01883,W,4.373,,070410,,,A*6C
00:01:40 $GPVTG,,T,,M,4.373,N,8.099,K,A*28
00:01:40 $GPGGA,200524.00,3743.22419,N,12132.01883,W,1,07,1.14,83.0,M,-28.9,M,,*57
00:01:40 $GPGSA,A,3,14,31,32,11,22,19,20,,,,,,2.47,1.14,2.19*01
00:01:40 $GPGSV,3,1,12,01,00,119,,03,03,207,08,06,00,197,,09,38,058,*7B
00:01:40 $GPGSV,3,2,12,11,37,297,16,12,00,051,15,14,51,040,19,19,19,229,,20,09,293,15,22,29,092,20,31,49,145,21,32,38,301,17*7D
00:01:40 Temperature:  board 81F (240 raw), int 75F (230 raw), ext 73F (227 raw)
00:01:40 Accelerometer X=559 Y=520 Z=346    X=0 Y=0 Z=0
00:01:41 $GPRMC,200525.00,A,3743.22485,N,12132.01860,W,0.892,,070410,,,A*65
00:01:41 $GPVTG,,T,,M,0.892,N,1.653,K,A*21
00:01:41 $GPGGA,200525.00,3743.22485,N,12132.01860,W,1,07,1.14,83.3,M,-28.9,M,,*5D
00:01:41 $GPGSA,A,3,14,31,32,11,22,19,20,,,,,,2.47,1.14,2.19*01
00:01:41 $GPGSV,3,1,12,01,00,119,,03,03,207,09,06,00,197,,09,38,058,*7A
00:01:41 $GPGSV,3,2,12,11,37,297,15,12,00,051,13,14,51,040,19,19,19,229,20,09,293,14,22,29,092,21,31,49,145,23,32,38,301,16*7E
00:01:41 Temperature:  board 81F (240 raw), int 75F (231 raw), ext 74F (228 raw)
00:01:41 Accelerometer X=556 Y=505 Z=326    X=0 Y=0 Z=0
00:01:42 $GPRMC,200526.00,A,3743.22500,N,12132.01866,W,0.358,,070410,,,A*61
00:01:42 $GPVTG,,T,,M,0.358,N,0.663,K,A*2E
00:01:42 $GPGGA,200526.00,3743.22500,N,12132.01866,W,1,07,1.14,84.2,M,-28.9,M,,*52
00:01:42 $GPGSA,A,3,14,31,32,11,22,19,20,,,,,,2.47,1.14,2.19*01
00:01:42 $GPGSV,3,1,12,01,00,119,,03,03,207,09,06,00,197,,09,38,058,*7A
00:01:42 $GPGSV,3,2,12,11,37,297,15,12,00,051,09,14,51,040,20,19,19,229,,20,09,293,15,22,29,092,22,31,49,145,26,32,38,301,16*79
00:01:42 Temperature:  board 81F (241 raw), int 76F (232 raw), ext 73F (227 raw)
00:01:42 Accelerometer X=556 Y=502 Z=335    X=0 Y=0 Z=0
00:01:43 $GPRMC,200527.00,A,3743.22538,N,12132.01842,W,1.819,,070410,,,A*62
00:01:43 $GPVTG,,T,,M,1.819,N,3.369,K,A*2D
00:01:43 $GPGGA,200527.00,3743.22538,N,12132.01842,W,1,07,1.14,82.4,M,-28.9,M,,*5E
00:01:43 $GPGSA,A,3,14,31,32,11,22,19,20,,,,,,2.47,1.14,2.19*01
00:01:43 $GPGSV,3,1,12,01,00,119,,03,03,207,08,06,00,197,,09,38,058,*7B
00:01:43 $GPGSV,3,2,12,11,37,297,17,12,00,051,09,14,51,040,21,19,19,229,20,09,293,14,22,29,092,20,31,49,145,25,32,38,301,19*76
00:01:43 Temperature:  board 81F (240 raw), int 76F (232 raw), ext 73F (227 raw)
00:01:43 Accelerometer X=550 Y=517 Z=335    X=0 Y=0 Z=0
00:01:44 $GPRMC,200528.00,A,3743.22563,N,12132.01840,W,0.768,,070410,,,A*69
00:01:44 $GPVTG,,T,,M,0.768,N,1.423,K,A*2E
00:01:44 $GPGGA,200528.00,3743.22563,N,12132.01840,W,1,07,1.14,83.4,M,-28.9,M,,*5C
00:01:44 $GPGSA,A,3,14,31,32,11,22,19,20,,,,,,2.47,1.14,2.19*01
00:01:44 $GPGSV,3,1,12,01,00,119,,03,03,207,08,06,00,197,,09,38,058,*7B
00:01:44 $GPGSV,3,2,12,11,37,297,18,12,00,051,08,14,51,040,20,19,19,229,,20,09,293,15,22,29,092,20,31,49,145,23,32,38,301,20*7B
00:01:44 Temperature:  board 81F (240 raw), int 76F (232 raw), ext 73F (227 raw)
00:01:44 Accelerometer X=566 Y=535 Z=360    X=0 Y=0 Z=0
00:01:45 Sending GPS packet: $GPGGA,200528.00,3743.22563,N,12132.01840,W,1,07,1.14,83.4,M,-28.9,M,,*5C
Sleep... Sleep... Sleep... Sleep... 
00:01:46 $GPRMC,200529.00,A,3743.22632,N,12132.01801,W,3.904,,070410,,,A*6D
00:01:46 $GPVTG,,T,,M,3.904,N,7.230,K,A*2B
00:01:46 $GPGGA,200529.00,3743.22,119,,03,03,207,08,06,00,197,,09,38,058,*7B
00:01:46 $GPGSV,3,2,12,11,37,297040,17,19,19,229,24*7E
00:01:46 $GPGSV,3,3,29,092,23,31,49,145,25,32,38,301,22*7E
00:01:46 Temperature:  board 81F (241 raw), int 77F (234 raw), ext 74F (228 raw)
00:01:46 Accelerometer X=553 Y=514 Z=337    X=0 Y=0 Z=0
00:01:47 $GPRMC,200531.00,A,3743.22745,N,12132.01732,W,1.407,,070410,,,A*66
00:01:47 $GPVTG,,T,,M,1.407,N,2.607,K,A*22
00:01:47 $GPGGA,20053