Startup
Garbage
Garbage
Garbage
Garbage
Garbage
00:00:06 ~J~j~~~13 2009 17:35:46*49
00:00:06 $GPTXT,01,01,02,ROM BASE 5.00 (28483) Jun  6 2008 14:45:11*4E
00:00:06 $GPTXT,01,01,02,MOD LEA-5H-0*2E
00:00:06 Temperature:  board 98F (269 raw), int 62F (208 raw), ext 120F (308 raw)
00:00:06 Accelerometer X=408 Y=501 Z=352    X=0 Y=0 Z=0
00:00:06 $GP$GPRMC,230143.00,A,3741.17378,N,12115.49844,W,0.210,,070410,,,A*6C
00:00:06 $GPVTG,,T,,M,0.210,N,0.388,K,A*23
00:00:06 $GPGGA,230143.00,3741.17378,N,12115.49844,W,1,09,0.97,-14.2,M,-28.7,M,,*7C
00:00:06 $GPGSA,A,3,20,32,23,16,31,13,11,04,07,,,,1.66,0.97,1.34*0D
00:00:07 $GPGSV,3,1,10,01,17,046,20,04,11,316,25,07,05,227,26,11,13,214,32*7$GPGSV,3,2,10,13,26,286,36,16,39,113,27,20,79,276,16,23,50,310,31,27,045,31,32,67,137,18*70
00:00:07 Temperature:  board 98F (269 raw), int 62F (208 raw), ext 120F (308 raw)
00:00:07 Accelerometer X=406 Y=500 Z=347    X=0 Y=0 Z=0
00:00:07 $GPRMC,230144.00,A,3741.17379,N,12115.49884,W,0.349,,070410,,,A*6B
00:00:07 $GPVTG,,T,,M,0.349,N,0.647,K,A*28
00:00:07 $GPGGA,230144.00,3741.17379,N,12115.49884,W,1,09,0.92,-12.7,M,-28.7,M,,*70
00:00:07 $GPGSA,A,3,20,32,23,16,31,13,11,04,07,,,,1.53,0.92,1.23*08
00:00:07 $GPGSV,3,1,10,01,17,046,20,04,11,316,25,07,05,227,26,11,13,214,32*7F
00:00:07 $GPGSV,3,2,10,13,26,286,37,16,39,113,27,20,79,276,17,23,5,3,10,31,27,045,30,32,67,137,18*71
00:00:08 Temperature:  board 98F (269 raw), int 62F (208 raw), ext 120F (308 raw)
00:00:08 Accelerometer X=409 Y=502 Z=350    X=0 Y=0 Z=0
00:00:08 $GPRMC,230145.00,A,3741.17383,N,12115.49908,W,0.159,,070410,,,A*69
00:00:08 $GPVTG,,T,,M,0.159,N,0.295,K,A*20
00:00:08 $GPGGA,230145.00,3741.17383,N,12115.49908,W,1,09,0.92,-10.8,M,-28.7,M,,*7C
00:00:08 $GPGSA,A,3,20,32,23,16,31,13,11,04,07,,,,1.53,0.92,1.23*08
00:00:08 $GPGSV,3,1,10,01,17,046,20,04,11,316,26,07,05,227,26,11,13,214,32*7C
00:00:08 $GPGSV,3,2,10,13,27,286,36,16,39,113,27,20,79,276,18,23,5,3,10,31,27,045,30,32,67,137,19*70
00:00:09 Temperature:  board 98F (269 raw), int 62F (208 raw), ext 120F (308 raw)
00:00:09 Accelerometer X=407 Y=498 Z=351    X=0 Y=0 Z=0
00:00:09 $GPRMC,230146.00,A,3741.17384,N,12115.49917,W,0.075,,070410,,,A*6C
00:00:09 $GPVTG,,T,,M,0.075,N,0.140,K,A*24
00:00:09 $GPGGA,230146.00,3741.17384,N,12115.49917,W,1,09,0.92,-9.7,M,-28.7,M,,*41
00:00:09 $GPGSA,A,3,20,32,23,16,31,13,11,04,07,,,,1.53,0.92,1.23*08
00:00:09 $GPGSV,3,1,10,01,17,046,20,04,11,316,26,07,05,227,26,11,13,214,33*7D
00:00:09 $GPGSV,3,2,10,13,27,286,37,16,39,113,26,20,79,276,18,23,5,3,10,31,27,045,30,32,67,137,19*70
00:00:10 Temperature:  board 97F (268 raw), int 63F (209 raw), ext 120F (308 raw)
00:00:10 Accelerometer X=409 Y=500 Z=346    X=0 Y=0 Z=0
00:00:10 $GPRMC,230147.00,A,3741.17391,N,12115.49919,W,0.533,,070410,,,A*60
00:00:10 $GPVTG,,T,,M,0.533,N,0.988,K,A*2F
00:00:10 $GPGGA,230147.00,3741.17391,N,12115.49919,W,1,09,0.92,-9.1,M,-28.7,M,,*4C
00:00:10 $GPGSA,A,3,20,32,23,16,31,13,11,04,07,,,,1.53,0.92,1.23*08
00:00:10 $GPGSV,3,1,10,01,17,046,20,04,11,316,26,07,05,227,26,11,13,214,33*7D
00:00:10 $GPGSV,3,2,10,13,27,286,37,16,39,113,26,20,79,276,19,23,5,3,10,31,27,045,30,32,67,137,19*70
00:00:11 Temperature:  board 97F (268 raw), int 62F (208 raw), ext 120F (308 raw)
00:00:11 Accelerometer X=405 Y=500 Z=349    X=0 Y=0 Z=0
00:00:11 $GPRMC,230148.00,A,3741.17401,N,12115.49925,W,0.403,,070410,,,A*6C
00:00:11 $GPVTG,,T,,M,0.403,N,0.747,K,A*20
00:00:11 $GPGGA,230148.00,3741.17401,N,12115.49925,W,1,09,0.92,-8.9,M,-28.7,M,,*4B
00:00:11 $GPGSA,A,3,20,32,23,16,31,13,11,04,07,,,,1.53,0.92,1.23*08
00:00:11 $GPGSV,3,1,10,01,17,046,20,04,11,316,26,07,05,227,26,11,13,214,32*7C
00:00:11 $GPGSV,3,2,10,13,27,286,37,16,39,113,26,20,79,276,19,23,5,3,10,31,27,045,31,32,67,137,20*7B
00:00:12 Temperature:  board 97F (268 raw), int 62F (208 raw), ext 120F (308 raw)
00:00:12 Accelerometer X=405 Y=498 Z=347    X=0 Y=0 Z=0
00:00:12 $GPRMC,230149.00,A,3741.17403,N,12115.49941,W,0.362,,070410,,,A*6D
00:00:12 $GPVTG,,T,,M,0.362,N,0.670,K,A*25
00:00:12 $GPGGA,230149.00,3741.17403,N,12115.49941,W,1,09,0.92,-7.7,M,-28.7,M,,*4B
00:00:12 $GPGSA,A,3,20,32,23,16,31,13,11,04,07,,,,1.53,0.92,1.23*08
00:00:12 $GPGSV,3,1,10,01,17,046,21,04,11,316,26,07,05,227,26,11,13,214,32*7D
00:00:12 $GPGSV,3,2,10,13,27,286,37,16,39,113,26,20,79,276,19,23,5,3,10,31,27,045,30,32,67,137,20*7A
00:00:13 Temperature:  board 97F (268 raw), int 62F (208 raw), ext 120F (308 raw)
00:00:13 Accelerometer X=408 Y=501 Z=349    X=0 Y=0 Z=0
00:00:13 $GPRMC,230150.00,A,3741.17398,N,12115.49929,W,0.715,,070410,,,A*6A
00:00:13 $GPVTG,,T,,M,0.715,N,1.324,K,A*24
00:00:13 $GPGGA,230150.00,3741.17398,N,12115.49929,W,1,09,0.92,-8.2,M,-28.7,M,,*42
00:00:13 $GPGSA,A,3,20,32,23,16,31,13,11,04,07,,,,1.53,0.92,1.23*08
00:00:13 $GPGSV,3,1,10,01,17,046,21,04,11,316,26,07,05,227,26,11,13,214,33*7C
00:00:13 $GPGSV,3,2,10,13,27,286,37,16,39,113,26,20,79,276,20,23,5,3,10,31,27,045,30,32,67,137,19*70
00:00:14 Temperature:  board 97F (268 raw), int 62F (208 raw), ext 120F (308 raw)
00:00:14 Accelerometer X=407 Y=498 Z=347    X=0 Y=0 Z=0
00:00:14 $GPRMC,230151.00,A,3741.17390,N,12115.49931,W,0.334,,070410,,,A*6D
00:00:14 $GPVTG,,T,,M,0.334,N,0.618,K,A*28
00:00:14 $GPGGA,230151.00,3741.17390,N,12115.49931,W,1,09,0.92,-7.6,M,-28.7,M,,*49
00:00:14 $GPGSA,A,3,20,32,23,16,31,13,11,04,07,,,,1.53,0.92,1.23*08
00:00:14 $GPGSV,3,1,10,01,17,046,21,04,11,316,26,07,05,227,26,11,13,214,32*7D
00:00:14 $GPGSV,3,2,10,13,27,286,37,16,39,113,26,20,79,276,20,23,5,3,10,31,27,045,31,32,67,137,20*7B
00:00:15 Sending GPS packet: $GPGGA,230151.00,3741.17390,N,12115.49931,W,1,09,0.92,-7.6,M,-28.7,M,,*49
Sleep... Sleep... Sleep... Sleep... 
00:00:16 $GPRMC,230152.00,A,3741.17403,N,12115.49929,W,0.317,,070410,,,A*6B
00:00:16 $GPVTG,,T,,M,0.317,N,0.588,K,A*23
00:00:16 $GPGGA,230152.00,3741.17$GPRMC,230153.00,A,3741.17416,N,12115.49922,W,0.829,,070410,,,A*63
00:00:16 $GPVTG,,T,,M,0.829,N,1.535,K,A*22
00:00:16 $GPGGA,230153.00,3741.17416,N,12115.49922,W,1,09,0.92,-8.9,M,-28.7,M,,*40
00:00:16 $GPGSA,A,3,20,32,13,11,04,07,,,,1.53,0.92,1.23*08
00:00:16 $,046,22,04,11,316,26,07,05,227,25,11,13,214,33*7C
00:00:16 $GPGSV,3,2,10,13,27,286,276,20,23,50,305,18*7A
00:00:16 Temperature:  board 98F (269 raw), int 63F (209 raw), ext 120F (308 raw)
00:00:16 Accelerometer X=410 Y=500 Z=355    X=0 Y=0 Z=0
00:00:17 Temperature:  board 98F (269 raw), int 63F (209 raw), ext 120F (308 raw)
00:00:17 Accelerometer X=409 Y=501 Z=346    X=0 Y=0 Z=0
00:00:17 $GPGSV,3,3,10,31,27,045,31,$GPRMC,230154.00,A,3741.17421,N,12115.49911,W,0.844,,070410,,,A*6B
00:00:17 $GPVTG,,T,,M,0.844,N,1.562,K,A*2B
00:00:17 $GPGGA,230154.00,3741.17,10,01,17,046,22,04,11,316,26,07,05,227,25,11,13,214,33*7C
00:00:17 $GPGSV,3,305,18*71
00:00:17 $GPGSV,3,3,10,31,27,0451
00:00:18 Temperature:  board 97F (268 raw), int 62F (208 raw), ext 120F (308 raw)
00:00:18 Accelerometer X=407 Y=499 Z=349    X=0 Y=0 Z=0
00:00:18 $GPRMC,230155.00,A,3741.17431,N,12115.49900,W,0.543,,070410,,,A*61
00:00:18 $GPVTG,,T,,M,0.543,N,1.006,K,A*26
00:00:18 $GPGGA,230155.00,3741.1710,01,17,046,23,04,11,316,27,07,05,227,25,11,13,214,33*7C
00:00:18 $GPGSV,3,39,113,27,20,79,276,20,23,50,305,1831,27,045,31,32,67,137,19*71
00:00:19 Temperature:  board 98F (269 raw), int 63F (209 raw), ext 120F (308 raw)
00:00:19 Accelerometer X=406 Y=498 Z=347    X=0 Y=0 Z=0
00:00:19 $GPRMC,230156.00,A,3741.17445,N,12115.49903,W,0.120,,070410,,,A*63
00:00:19 $GPVTG,,T,,M,0.120,N,0.222,K,A*22
00:00:19 $GPGGA,230156.00,3741.17,01,17,046,23,04,11,316,27,07,05,227,26,11,13,214,33*7F
00:00:19 $GPGSV,3,2,113,27,20,79,276,20,23,50,305,18*7B,27,045,31,32,67,137,19*71
00:00:20 Temperature:  board 97F (268 raw), int 63F (209 raw), ext 120F (308 raw)
00:00:20 Accelerometer X=409 Y=502 Z=349    X=0 Y=0 Z=0
00:00:20 $GPRMC,230157.00,A,3741.17459,N,12115.49905,W,0.353,,070410,,,A*6F
00:00:20 $GPVTG,,T,,M,0.353,N,0.654,K,A*21
00:00:20 $GPGGA,230157.00,3741.17V,3,1,10,01,17,046,23,04,11,316,27,07,05,227,25,11,13,214,32*7D
00:00:20 $GP7,16,39,113,27,20,79,276,20,23,50,3,3,10,31,27,045,31,32,67,137,19*71
00:00:21 Temperature:  board 97F (268 raw), int 63F (209 raw), ext 120F (308 raw)
00:00:21 Accelerometer X=410 Y=498 Z=349    X=0 Y=0 Z=0
00:00:21 $GPRMC,230158.00,A,3741.17474,N,12115.49901,W,0.373,,070410,,,A*69
00:00:21 $GPVTG,,T,,M,0.373,N,0.691,K,A*2A
00:00:21 $GPGGA,230158.00,3741.1701,17,046,23,04,11,316,27,07,05,227,26,11,13,214,33*7F
00:00:21 $GPGSV,3,2,1113,27,20,79,276,19,23,50,305,18*7127,045,31,32,67,137,19*71
00:00:22 Temperature:  board 97F (268 raw), int 63F (209 raw), ext 120F (308 raw)
00:00:22 Accelerometer X=405 Y=500 Z=350    X=0 Y=0 Z=0
00:00:22 $GPRMC,230159.00,A,3741.17476,N,12115.49903,W,0.389,,070410,,,A*6D
00:00:22 $GPVTG,,T,,M,0.389,N,0.721,K,A*25
00:00:22 $GPGGA,230159.00,3741.173,1,10,01,17,046,23,04,11,316,27,07,05,227,26,11,13,214,32*7E
00:00:22 $GPGS,16,39,113,27,20,79,276,19,23,50,30,10,31,27,045,31,32,67,137,18*70
00:00:23 Temperature:  board 97F (268 raw), int 63F (209 raw), ext 120F (308 raw)
00:00:23 Accelerometer X=408 Y=500 Z=350    X=0 Y=0 Z=0
00:00:23 $GPRMC,230200.00,A,3741.17475,N,12115.49896,W,0.743,,070410,,,A*6E
00:00:23 $GPVTG,,T,,M,0.743,N,1.376,K,A*20
00:00:23 $GPGGA,230200.00,3741.17,10,01,17,046,23,04,11,316,27,07,05,227,26,11,13,214,33*7F
00:00:23 $GPGSV,339,113,27,20,79,276,19,23,50,305,18,31,27,045,32,32,67,137,18*73
00:00:24 Temperature:  board 98F (269 raw), int 63F (209 raw), ext 120F (308 raw)
00:00:24 Accelerometer X=409 Y=498 Z=351    X=0 Y=0 Z=0
00:00:24 $GPRMC,230201.00,A,3741.17483,N,12115.49883,W,0.502,,070410,,,A*65
00:00:24 $GPVTG,,T,,M,0.502,N,0.930,K,A*2E
00:00:24 $GPGGA,230201.00,3741.17,1,10,01,17,046,24,04,11,316,27,07,05,227,26,11,13,214,33*78
00:00:24 $GPGSV6,39,113,27,20,79,276,19,23,50,305,10,31,27,045,32,32,67,137,17*7C
00:00:25 Temperature:  board 97F (268 raw), int 63F (209 raw), ext 120F (308 raw)
00:00:25 Accelerometer X=406 Y=497 Z=348    X=0 Y=0 Z=0
00:00:25 $GPRMC,230202.00,A,3741.17485,N,12115.49886,W,0.455,,070410,,,A*66
00:00:25 $GPVTG,,T,,M,0.455,N,0.843,K,A*28
00:00:25 $GPGGA,230202.00,3741.1710,01,17,046,24,04,11,316,27,07,05,227,26,11,13,214,32*79
00:00:25 $GPGSV,3,39,113,27,20,79,276,19,23,50,305,1731,27,045,31,32,67,137,17*7F
00:00:26 Temperature:  board 97F (268 raw), int 63F (210 raw), ext 120F (308 raw)
00:00:26 Accelerometer X=406 Y=501 Z=349    X=0 Y=0 Z=0
00:00:26 $GPRMC,230203.00,A,3741.17484,N,12115.49890,W,0.355,,070410,,,A*66
00:00:26 $GPVTG,,T,,M,0.355,N,0.658,K,A*2B
00:00:26 $GPGGA,230203.00,3741.1708
00:00:26 $GPGSV,3,1,10,01,17,046,24,04,11,316,27,07,05,227,25,11,13,214,33,27,286,37,16,39,113,27,20,79,276,
00:00:27 Temperature:  board 97F (268 raw), int 63F (209 raw), ext 120F (308 raw)
00:00:27 Accelerometer X=407 Y=500 Z=350    X=0 Y=0 Z=0
00:00:27 $GPGSV,3,3,10,31,26,045,31,$GPRMC,230204.00,A,3741.17477,N,12115.49888,W,0.552,,070410,,,A*65
00:00:27 $GPVTG,,T,,M,0.552,N,1.023,K,A*21
00:00:27 $GPGGA,230204.00,3741.1710,01,17,046,23,04,11,316,27,07,05,227,25,11,13,214,32*7D
00:00:27 $GPGSV,3,,305,17*7E
00:00:27 $GPGSV,3,3,10,31,26,045
00:00:28 Temperature:  board 97F (268 raw), int 63F (209 raw), ext 120F (308 raw)
00:00:28 Accelerometer X=408 Y=498 Z=352    X=0 Y=0 Z=0
00:00:28 $GPRMC,230205.00,A,3741.17478,N,12115.49886,W,0.692,,070410,,,A*6A
00:00:28 $GPVTG,,T,,M,0.692,N,1.281,K,A*24
00:00:28 $GPGGA,230205.00,3741.17,1,10,01,17,046,23,04,11,316,27,07,05,227,26,11,13,214,32*7E
00:00:28 $GPGSV6,39,113,26,20,79,276,19,23,50,305,10,31,26,045,32,32,67,138,16*73
00:00:29 Temperature:  board 97F (268 raw), int 63F (210 raw), ext 120F (308 raw)
00:00:29 Accelerometer X=406 Y=499 Z=348    X=0 Y=0 Z=0
00:00:29 $GPRMC,230206.00,A,3741.17475,N,12115.49880,W,0.603,,070410,,,A*6A
00:00:29 $GPVTG,,T,,M,0.603,N,1.116,K,A*21
00:00:29 $GPGGA,230206.00,3741.17,17,046,23,04,11,316,27,07,05,227,26,11,13,214,32*7E
00:00:29 $GPGSV,3,2,10,3,26,20,79,276,18,23,50,305,18*71
00:00:29 ,045,31,32,67,138,15*73
00:00:30 Sending Sensors packet: >ProjectBacchus.org Uptime=00:00:30 Temp=97F,63F,120F (268,210,308) Acc=406,499,348
Sleep... Sleep... Sleep... Sleep... 
00:00:31 $GPRMC,230207.00,A,3741.17466,N,12115.49880,W,0.201,,070410,,,A*6F
00:00:31 $GPVTG,,T,,M,0.201,N,0.372,K,A*26
00:00:31 $GPGGA,230207.00,3741.17D
00:00:31 $GPVTG,,T,,M,0.330,N,0.611,K,A*25
00:00:31 $GPGGA,230208.00,3741.17458,N,92,-8.8,M,-28.7,M,,*4C
00:00:31 $GPGSA,A,3,11,04,07,,,,1.53,0.92,1.23*01,17,046,22,04,11,316,28,07,05,227
00:00:31 $GPGSV,3,2,10,13,27,286,37,16,39,113,26,20,79,276,18PGSV,3,3,10,31,26,045,31,32,67,138,13*75
00:00:31 Temperature:  board 97F (268 raw), int 63F (210 raw), ext 121F (309 raw)
00:00:31 Accelerometer X=406 Y=499 Z=348    X=0 Y=0 Z=0
00:00:32 Temperature:  board 97F (268 raw), int 63F (210 raw), ext 120F (308 raw)
00:00:32 Accelerometer X=403 Y=502 Z=352    X=0 Y=0 Z=0
00:00:32 $GPRMC,230209.00,A,3741.17463,N,12115.49885,W,0.283,,070410,,,A*6B
00:00:32 $GPVTG,,T,,M,0.283,N,0.523,K,A*2E
00:00:33 Temperature:  board 97F (268 raw), int 64F (211 raw), ext 120F (308 raw)
00:00:33 Accelerometer X=407 Y=498 Z=347    X=0 Y=0 Z=0
00:00:33 $GPGGA,230209.00,3741.17463,N,12115.49885,W,1,09,0.92,-7.9,M,-28.7,M,,*4D79,276,18,23,50,30$GPRMC,230210.00,A,3741.17462,N,12115.49881,W,0.669,,070410,,,A*66
00:00:33 $GPVTG,,T,,M,0.669,N,1.238,K,A*22
00:00:33 $GPGGA,230210.00,3741.17462,N,12115.49881,W,1,09,0.92,-7.1,M,-28.7,M,,*48
00:00:34 Temperature:  board 97F (268 raw), int 63F (210 raw), ext 120F (308 raw)
00:00:34 Accelerometer X=408 Y=496 Z=347    X=0 Y=0 Z=0
00:00:34 $GPGSA,A,3,3,50,3$GPRMC,230211.00,A,3741.17452,N,12115.49875,W,0.370,,070410,,,A*62
00:00:34 $GPVTG,,T,,M,0.370,N,0.685,K,A*2C
00:00:34 $GPGGA,230211.00,3741.17452,N,12115.49875,W,1,08,0.94,-6.2,M,-28.7,M,,*44
00:00:35 Temperature:  board 97F (268 raw), int 61F (206 raw), ext 120F (308 raw)
00:00:35 Accelerometer X=408 Y=500 Z=350    X=0 Y=0 Z=0
00:00:35 $GPGSA,A,350,305,$GPRMC,230212.00,A,3741.17447,N,12115.49873,W,0.241,,070410,,,A*60
00:00:35 $GPVTG,,T,,M,0.241,N,0.446,K,A*22
00:00:35 $GPGGA,230212.00,3741.17447,N,12115.49873,W,1,08,0.94,-6.0,M,-28.7,M,,*47
00:00:36 Temperature:  board 97F (268 raw), int 63F (210 raw), ext 120F (308 raw)
00:00:36 Accelerometer X=408 Y=500 Z=351    X=0 Y=0 Z=0
00:00:36 $GPGSA,A,3,20,205$GPRMC,230213.00,A,3741.17456,N,12115.49880,W,0.624,,070410,,,A*6A
00:00:36 $GPVTG,,T,,M,0.624,N,1.155,K,A*23
00:00:36 $GPGGA,230213.00,3741.17456,N,12115.49880,W,1,09,0.92,-6.5,M,-28.7,M,,*48
00:00:37 Temperature:  board 97F (268 raw), int 63F (210 raw), ext 120F (308 raw)
00:00:37 Accelerometer X=409 Y=499 Z=350    X=0 Y=0 Z=0
00:00:37 $GPGSA,7,23,50,30$GPRMC,230214.00,A,3741.17458,N,12115.49881,W,0.537,,070410,,,A*63
00:00:37 $GPVTG,,T,,M,0.537,N,0.994,K,A*26
00:00:37 $GPGGA,230214.00,3741.17458,N,12115.49881,W,1,09,0.92,-5.7,M,-28.7,M,,*41
00:00:38 Temperature:  board 97F (268 raw), int 64F (211 raw), ext 121F (309 raw)
00:00:38 Accelerometer X=404 Y=498 Z=350    X=0 Y=0 Z=0
00:00:38 $GPGSA,A,323,50,3$GPRMC,230215.00,A,3741.17445,N,12115.49863,W,0.864,,070410,,,A*69
00:00:38 $GPVTG,,T,,M,0.864,N,1.600,K,A*2E
00:00:38 $GPGGA,230215.00,3741.17445,N,12115.49863,W,1,09,0.92,-4.9,M,-28.7,M,,*4F
00:00:39 79,276,16,23,50,3$GPRMC,230216.00,A,3741.17443,N,12115.49858,W,0.288,,070410,,,A*6C
00:00:39 $GPVTG,,T,,M,0.288,N,0.534,K,A*23
00:00:39 $GPGGA,230216.00,3741.17443,N,12115.49858,W,1,08,0.94,-4.6,M,-28.7,M,,*4A
00:00:39 $GPGSA,A,3,20,23,16,31,13,11,04,07,,,,,1.65,0.94,1.35*0D
00:00:39 $GPGSV,3,1,10,01,17,046,22,04,11,316,28,07,05,227,27,11,13,214,32*7127,286,37,16,39,113,24,20,79,276,17,23,50,305,17*73
00:00:39 $GPGS2,32,67,138,09*7D
00:00:40 Temperature:  board 97F (268 raw), int 64F (211 raw), ext 121F (309 raw)
00:00:40 Accelerometer X=409 Y=500 Z=352    X=0 Y=0 Z=0
00:00:40 $GPRMC,230217.00,A,3741.17445,N,12115.49869,W,0.509,,070410,,,A*67
00:00:40 $GPVTG,,T,,M,0.509,N,0.943,K,A*21
00:00:40 $GPGGA,230217.00,3741.17445,N,12115.49869,W,1,09,0.92,-3.1,M,-28.7,M,,*48
00:00:40 $GPGSA,A,3,20,32,23,16,31,13,11,04,07,,,,1.53,0.92,1.23*08
00:00:40 $GPGSV,3,1,10,01,17,046,22,04,11,316,28,07,05,227,27,11,13,214,32*71
00:00:40 $GPGSV,3,2,10,13,27,286,37,16,39,113,23,20,79,276,17,23,5,3,10,31,26,045,32,32,67,138,10*75
00:00:41 Temperature:  board 97F (268 raw), int 64F (211 raw), ext 121F (309 raw)
00:00:41 Accelerometer X=407 Y=498 Z=351    X=0 Y=0 Z=0
00:00:41 $GPRMC,230218.00,A,3741.17448,N,12115.49874,W,0.282,,070410,,,A*6D
00:00:41 $GPVTG,,T,,M,0.282,N,0.522,K,A*2E
00:00:41 $GPGGA,230218.00,3741.17448,N,12115.49874,W,1,09,0.92,-2.5,M,-28.7,M,,*43
00:00:41 $GPGSA,A,3,20,32,23,16,31,13,11,04,07,,,,1.53,0.92,1.23*08
00:00:41 $GPGSV,3,1,10,01,17,046,23,04,11,316,28,07,05,227,27,11,13,214,33*71
00:00:41 $GPGSV,3,2,10,13,27,286,37,16,39,113,24,20,79,276,16,23,5,3,10,31,26,045,32,32,67,138,11*74
00:00:42 Temperature:  board 97F (268 raw), int 64F (211 raw), ext 121F (309 raw)
00:00:42 Accelerometer X=406 Y=500 Z=350    X=0 Y=0 Z=0
00:00:42 $GPRMC,230219.00,A,3741.17457,N,12115.49883,W,0.830,,070410,,,A*69
00:00:42 $GPVTG,,T,,M,0.830,N,1.538,K,A*27
00:00:42 $GPGGA,230219.00,3741.17457,N,12115.49883,W,1,09,0.92,-3.2,M,-28.7,M,,*42
00:00:42 $GPGSA,A,3,20,32,23,16,31,13,11,04,07,,,,1.53,0.92,1.23*08
00:00:42 $GPGSV,3,1,10,01,17,046,23,04,11,316,28,07,05,227,27,11,13,214,33*71
00:00:42 $GPGSV,3,2,10,13,27,286,37,16,39,113,24,20,79,276,16,23,5,3,10,31,26,045,32,32,67,138,12*77
00:00:43 Temperature:  board 97F (268 raw), int 64F (211 raw), ext 121F (309 raw)
00:00:43 Accelerometer X=408 Y=499 Z=348    X=0 Y=0 Z=0
00:00:43 $GPRMC,230220.00,A,3741.17458,N,12115.49891,W,0.349,,070410,,,A*6A
00:00:43 $GPVTG,,T,,M,0.349,N,0.647,K,A*28
00:00:43 $GPGGA,230220.00,3741.17458,N,12115.49891,W,1,08,0.94,-3.6,M,-28.7,M,,*47
00:00:43 $GPGSA,A,3,20,23,16,31,13,11,04,07,,,,,1.65,0.94,1.35*0D
00:00:43 $GPGSV,3,1,10,01,17,046,23,04,11,316,29,07,05,227,27,11,13,214,33*70
00:00:43 $GPGSV,3,2,10,13,27,286,37,16,39,113,24,20,79,276,15,23,5,3,10,31,26,045,32,32,67,138,09*7D
00:00:44 Temperature:  board 97F (268 raw), int 64F (211 raw), ext 121F (309 raw)
00:00:44 Accelerometer X=409 Y=497 Z=348    X=0 Y=0 Z=0
00:00:44 $GPRMC,230221.00,A,3741.17460,N,12115.49909,W,1.196,,070410,,,A*61
00:00:44 $GPVTG,,T,,M,1.196,N,2.216,K,A*2B
00:00:44 $GPGGA,230221.00,3741.17460,N,12115.49909,W,1,09,0.94,-3.5,M,-28.7,M,,*4F
00:00:44 $GPGSA,A,3,20,32,23,16,31,13,11,04,07,,,,1.65,0.94,1.35*0C
00:00:44 $GPGSV,3,1,10,01,17,046,23,04,11,316,29,07,05,227,27,11,13,214,33*70
00:00:44 $GPGSV,3,2,10,13,27,286,37,16,39,113,23,20,79,276,16,23,5,3,10,31,26,045,32,32,67,138,10*75
00:00:45 Temperature:  board 97F (268 raw), int 64F (212 raw), ext 121F (309 raw)
00:00:45 Accelerometer X=408 Y=501 Z=350    X=0 Y=0 Z=0
00:00:45 Sending GPS packet: $GPGGA,230221.00,3741.17460,N,12115.49909,W,1,09,0.94,-3.5,M,-28.7,M,,*4F
Sleep... Sleep... Sleep... Sleep... 
00:00:46 $GPRMC,230222.00,A,3741.17462,N,12115.49921,W,0.580,,070410,,,A*68
00:00:46 $GPVTG,,T,,M,0.580,N,1.075,K,A*2D
00:00:46 $GPGGA,230222.00,3741.1710,01,17,046,23,04,11,316,29,07,05,227,28,11,13,214,33*7F
00:00:46 $GPGSV,3,9,113,23,20,79,276,17,23,50,305,14*31,26,045,32,32,67,138,*74
00:00:46 Temperature:  board 97F (268 raw), int 64F (212 raw), ext 121F (309 raw)
00:00:46 Accelerometer X=408 Y=500 Z=348    X=0 Y=0 Z=0
00:00:47 $GPRMC,230224.00,A,3741.17456,N,12115.49907,W,0.387,,070410,,,A*6C
00:00:47 $GPVTG,,T,,M,0.387,N,0.716,K,A*2F
00:00:47 $GPGGA,230224.00,3741.17456,N,12115.49907,W,1,08,0.94,-2.0,M,-28.7,M,,*44
00:00:47 $GPGSA,A,3,20,23,16,31,13,11,04,07,,,,,1.65,0.94,1.35*0D
00:00:47 $GPGSV,3,1,10,01,17,046,22,04,11,316,29,07,05,227,28,11,13,214,33*7E
00:00:47 $GPGSV,3,2,10,13,27,286,37,16,39,113,23,20,79,276,17,23,5,3,10,31,26,045,32,32,67,138,*74
00:00:48 Temperature:  board 97F (268 raw), int 64F (212 raw), ext 121F (309 raw)
00:00:48 Accelerometer X=409 Y=497 Z=348    X=0 Y=0 Z=0
00:00:48 $GPRMC,230225.00,A,3741.17458,N,12115.49907,W,0.599,,070410,,,A*6A
00:00:48 $GPVTG,,T,,M,0.599,N,1.109,K,A*2F
00:00:48 $GPGGA,230225.00,3741.17458,N,12115.49907,W,1,08,0.99,-1.9,M,-28.7,M,,*4C
00:00:48 $GPGSA,A,3,20,23,16,31,13,11,04,07,,,,,1.81,0.99,1.52*0B
00:00:48 $GPGSV,3,1,10,01,17,046,22,04,11,316,29,07,05,227,28,11,13,214,33*7E
00:00:48 $GPGSV,3,2,10,13,27,286,37,16,39,113,23,20,79,276,17,23,53,3,10,31,26,045,32,32,67,138,*74
00:00:49 Temperature:  board 97F (268 raw), int 64F (212 raw), ext 121F (309 raw)
00:00:49 Accelerometer X=405 Y=499 Z=348    X=0 Y=0 Z=0
00:00:49 $GPRMC,230226.00,A,3741.17468,N,12115.49918,W,0.821,,070410,,,A*6A
00:00:49 $GPVTG,,T,,M,0.821,N,1.520,K,A*2E
00:00:49 $GPGGA,230226.00,3741.17468,N,12115.49918,W,1,08,0.99,-2.5,M,-28.7,M,,*4D
00:00:49 $GPGSA,A,3,20,32,16,31,13,11,04,07,,,,,1.81,0.99,1.52*0B
00:00:49 $GPGSV,3,1,10,01,17,046,23,04,11,316,29,07,05,227,28,11,13,214,32*7E
00:00:49 $GPGSV,3,2,10,13,27,286,37,16,39,113,23,20,79,276,16,23,5,3,10,31,26,045,32,32,67,138,19*7C
00:00:50 Temperature:  board 97F (268 raw), int 64F (212 raw), ext 121F (309 raw)
00:00:50 Accelerometer X=408 Y=499 Z=350    X=0 Y=0 Z=0
00:00:50 $GPRMC,230227.00,A,3741.17460,N,12115.49907,W,0.754,,070410,,,A*60
00:00:50 $GPVTG,,T,,M,0.754,N,1.397,K,A*29
00:00:50 $GPGGA,230227.00,3741.17460,N,12115.49907,W,1,08,0.99,-2.2,M,-28.7,M,,*4D
00:00:50 $GPGSA,A,3,20,32,16,31,13,11,04,07,,,,,1.81,0.99,1.52*0B
00:00:50 $GPGSV,3,1,10,01,17,046,23,04,11,316,29,07,05,227,28,11,13,214,32*7E
00:00:50 $GPGSV,3,2,10,13,27,286,37,16,39,113,23,20,79,276,15,23,53,3,10,31,26,045,32,32,67,138,17*72
00:00:51 Temperature:  board 97F (268 raw), int 64F (212 raw), ext 121F (309 raw)
00:00:51 Accelerometer X=409 Y=498 Z=347    X=0 Y=0 Z=0
00:00:51 $GPRMC,230228.00,A,3741.17449,N,12115.49893,W,0.571,,070410,,,A*6D
00:00:51 $GPVTG,,T,,M,0.571,N,1.057,K,A*23
00:00:51 $GPGGA,230228.00,3741.17449,N,12115.49893,W,1,09,0.94,-2.0,M,-28.7,M,,*4B
00:00:51 $GPGSA,A,3,20,32,23,16,31,13,11,04,07,,,,1.65,0.94,1.35*0C
00:00:51 $GPGSV,3,1,10,01,17,046,23,04,11,316,29,07,05,227,28,11,13,214,33*7F
00:00:51 $GPGSV,3,2,10,13,27,286,37,16,39,113,23,20,79,276,16,23,5,3,10,31,26,045,33,32,67,138,14*70
00:00:52 Temperature:  board 97F (268 raw), int 64F (212 raw), ext 121F (309 raw)
00:00:52 Accelerometer X=407 Y=500 Z=353    X=0 Y=0 Z=0
00:00:52 $GPRMC,230229.00,A,3741.17452,N,12115.49889,W,0.401,,070410,,,A*6B
00:00:52 $GPVTG,,T,,M,0.401,N,0.743,K,A*26
00:00:52 $GPGGA,230229.00,3741.17452,N,12115.49889,W,1,08,0.99,-2.5,M,-28.7,M,,*42
00:00:52 $GPGSA,A,3,20,32,16,31,13,11,04,07,,,,,1.81,0.99,1.52*0B
00:00:52 $GPGSV,3,1,10,01,17,046,23,04,11,316,29,07,05,227,28,11,13,214,33*7F
00:00:52 $GPGSV,3,2,10,13,27,286,37,16,39,113,23,20,79,276,17,23,53,3,10,31,26,045,32,32,67,138,13*76
00:00:53 Temperature:  board 97F (268 raw), int 64F (212 raw), ext 121F (310 raw)
00:00:53 Accelerometer X=408 Y=498 Z=349    X=0 Y=0 Z=0
00:00:53 $GPRMC,230230.00,A,3741.17444,N,12115.49879,W,0.959,,070410,,,A*6B
00:00:53 $GPVTG,,T,,M,0.959,N,1.777,K,A*20
00:00:53 $GPGGA,230230.00,3741.17444,N,12115.49879,W,1,08,0.99,-1.6,M,-28.7,M,,*42
00:00:53 $GPGSA,A,3,20,32,16,31,13,11,04,07,,,,,1.81,0.99,1.52*0B
00:00:53 $GPGSV,3,1,10,01,17,046,22,04,11,316,30,07,05,227,28,11,13,214,32*77
00:00:53 $GPGSV,3,2,10,13,27,286,37,16,39,113,23,20,79,276,16,23,5,3,10,31,26,045,32,32,67,138,12*77
00:00:54 Temperature:  board 97F (268 raw), int 64F (212 raw), ext 121F (309 raw)
00:00:54 Accelerometer X=410 Y=499 Z=350    X=0 Y=0 Z=0
00:00:54 $GPRMC,230231.00,A,3741.17441,N,12115.49871,W,0.236,,070410,,,A*65
00:00:54 $GPVTG,,T,,M,0.236,N,0.438,K,A*2B
00:00:54 $GPGGA,230231.00,3741.17441,N,12115.49871,W,1,08,0.97,-1.1,M,-28.7,M,,*47
00:00:54 $GPGSA,A,3,20,32,16,31,13,11,04,07,,,,,1.66,0.97,1.34*0C
00:00:54 $GPGSV,3,1,10,01,17,046,22,04,11,316,29,07,05,227,28,11,13,214,32*7F
00:00:54 $GPGSV,3,2,10,13,27,286,37,16,39,113,23,20,79,276,17,23,5,3,10,31,26,045,32,32,67,138,12*77
00:00:55 Temperature:  board 97F (268 raw), int 65F (213 raw), ext 121F (309 raw)
00:00:55 Accelerometer X=407 Y=500 Z=348    X=0 Y=0 Z=0
00:00:55 $GPRMC,230232.00,A,3741.17446,N,12115.49862,W,0.169,,070410,,,A*6A
00:00:55 $GPVTG,,T,,M,0.169,N,0.314,K,A*2B
00:00:55 $GPGGA,230232.00,3741.17446,N,12115.49862,W,1,08,0.97,-1.8,M,-28.7,M,,*48
00:00:55 $GPGSA,A,3,20,32,16,31,13,11,04,07,,,,,1.66,0.97,1.34*0C
00:00:55 $GPGSV,3,1,10,01,17,046,23,04,11,316,29,07,05,227,28,11,13,214,32*7E
00:00:55 $GPGSV,3,2,10,13,27,286,37,16,39,113,22,20,79,276,18,23,5,3,10,31,26,045,32,32,67,138,13*76
00:00:56 Temperature:  board 97F (268 raw), int 65F (213 raw), ext 121F (309 raw)
00:00:56 Accelerometer X=407 Y=497 Z=347    X=0 Y=0 Z=0
00:00:56 $GPRMC,230233.00,A,3741.17457,N,12115.49860,W,0.522,,070410,,,A*62
00:00:56 $GPVTG,,T,,M,0.522,N,0.967,K,A*2E
00:00:56 $GPGGA,230233.00,3741.17457,N,12115.49860,W,1,08,0.97,-2.1,M,-28.7,M,,*41
00:00:56 $GPGSA,A,3,20,32,16,31,13,11,04,07,,,,,1.66,0.97,1.34*0C
00:00:56 $GPGSV,3,1,10,01,17,046,23,04,11,316,30,07,05,227,28,11,13,214,32*76
00:00:56 $GPGSV,3,2,10,13,27,286,37,16,39,113,22,20,79,276,19,23,53,10,31,26,045,33,32,67,138,13*77
00:00:57 Temperature:  board 97F (268 raw), int 65F (213 raw), ext 121F (309 raw)
00:00:57 Accelerometer X=403 Y=498 Z=350    X=0 Y=0 Z=0
00:00:57 $GPRMC,230234.00,A,3741.17478,N,12115.49861,W,0.399,,070410,,,A*6F
00:00:57 $GPVTG,,T,,M,0.399,N,0.738,K,A*2C
00:00:57 $GPGGA,230234.00,3741.17478,N,12115.49861,W,1,08,0.97,-2.6,M,-28.7,M,,*4D
00:00:57 $GPGSA,A,3,20,32,16,31,13,11,04,07,,,,,1.66,0.97,1.34*0C
00:00:57 $GPGSV,3,1,10,01,17,046,23,04,11,316,30,07,05,227,28,11,13,214,32*76
00:00:57 $GPGSV,3,2,10,13,27,286,37,16,39,113,23,20,79,276,18,23,5,10,31,26,045,33,32,67,138,14*70
00:00:58 Temperature:  board 97F (268 raw), int 65F (213 raw), ext 121F (309 raw)
00:00:58 Accelerometer X=408 Y=498 Z=349    X=0 Y=0 Z=0
00:00:58 $GPRMC,230235.00,A,3741.17481,N,12115.49856,W,0.297,,070410,,,A*63
00:00:58 $GPVTG,,T,,M,0.297,N,0.550,K,A*2F
00:00:58 $GPGGA,230235.00,3741.17481,N,12115.49856,W,1,08,0.97,-2.1,M,-28.7,M,,*49
00:00:58 $GPGSA,A,3,20,32,16,31,13,11,04,07,,,,,1.66,0.97,1.34*0C
00:00:58 $GPGSV,3,1,10,01,17,046,23,04,11,316,29,07,05,227,28,11,13,214,32*7E
00:00:58 $GPGSV,3,2,10,13,27,286,37,16,39,113,23,20,79,276,17,23,5,10,31,26,045,33,32,67,138,14*70
00:00:59 Temperature:  board 96F (267 raw), int 66F (214 raw), ext 121F (309 raw)
00:00:59 Accelerometer X=407 Y=499 Z=348    X=0 Y=0 Z=0
00:00:59 $GPRMC,230236.00,A,3741.17480,N,12115.49858,W,0.166,,070410,,,A*62
00:00:59 $GPVTG,,T,,M,0.166,N,0.308,K,A*29
00:00:59 $GPGGA,230236.00,3741.17480,N,12115.49858,W,1,08,0.97,-1.0,M,-28.7,M,,*47
00:00:59 $GPGSA,A,3,20,32,16,31,13,11,04,07,,,,,1.66,0.97,1.34*0C
00:00:59 $GPGSV,3,1,10,01,17,046,23,04,11,316,29,07,05,227,28,11,13,214,32*7E
00:00:59 $GPGSV,3,2,10,13,27,286,37,16,39,113,23,20,79,276,18,23,53,10,31,26,045,33,32,67,138,14*70
00:01:00 Temperature:  board 97F (268 raw), int 66F (214 raw), ext 121F (310 raw)
00:01:00 Accelerometer X=407 Y=498 Z=346    X=0 Y=0 Z=0
00:01:00 Sending Sensors packet: >ProjectBacchus.org Uptime=00:01:00 Temp=97F,66F,121F (268,214,310) Acc=407,498,346
Sleep... Sleep... Sleep... Sleep... 
00:01:01 $GPRMC,230237.00,A,3741.17469,N,12115.49858,W,0.187,,070410,,,A*6B
00:01:01 $GPVTG,,T,,M,0.187,N,0.346,K,A*2C
00:01:01 $GPGGA,230237.00,3741.173,50,305,*7D
00:01:01 $GPGSV,3,3,10,31,26,045,33,32,67,138,14*70
00:01:01 Temperature:  board 97F (268 raw), int 66F (214 raw), ext 121F (309 raw)
00:01:01 Accelerometer X=408 Y=498 Z=350    X=0 Y=0 Z=0
00:01:02 $GPRMC,230239.00,A,3741.17467,N,12115.49870,W,0.310,,070410,,,A*6D
00:01:02 $GPVTG,,T,,M,0.310,N,0.575,K,A*26
00:01:02 $GPGGA,230239.00,3741.17467,N,12115.49870,W,1,08,0.97,1.3,M,-28.7,M,,*65
00:01:02 $GPGSA,A,3,20,32,16,31,13,11,04,07,,,,,1.66,0.97,1.34*0C
00:01:02 $GPGSV,3,1,10,01,17,046,23,04,11,316,30,07,05,227,27,11,13,214,32*79
00:01:02 $GPGSV,3,2,10,13,27,286,37,16,39,113,23,20,79,276,17,23,53,10,31,26,045,33,32,67,138,14*70
00:01:03 Temperature:  board 96F (267 raw), int 66F (214 raw), ext 121F (310 raw)
00:01:03 Accelerometer X=406 Y=500 Z=349    X=0 Y=0 Z=0
00:01:03 $GPRMC,230240.00,A,3741.17457,N,12115.49859,W,0.783,,070410,,,A*65
00:01:03 $GPVTG,,T,,M,0.783,N,1.451,K,A*2E
00:01:03 $GPGGA,230240.00,3741.17457,N,12115.49859,W,1,08,0.97,1.4,M,-28.7,M,,*64
00:01:03 $GPGSA,A,3,20,32,16,31,13,11,04,07,,,,,1.66,0.97,1.34*0C
00:01:03 $GPGSV,3,1,10,01,17,046,23,04,11,316,30,07,05,227,27,11,13,214,32*79
00:01:03 $GPGSV,3,2,10,13,27,286,36,16,39,113,22,20,79,276,18,23,5,10,31,26,045,33,32,67,138,14*70
00:01:04 Temperature:  board 96F (267 raw), int 66F (215 raw), ext 121F (309 raw)
00:01:04 Accelerometer X=408 Y=498 Z=351    X=0 Y=0 Z=0
00:01:04 $GPRMC,230241.00,A,3741.17452,N,12115.49850,W,0.092,,070410,,,A*6F
00:01:04 $GPVTG,,T,,M,0.092,N,0.170,K,A*2E
00:01:04 $GPGGA,230241.00,3741.17452,N,12115.49850,W,1,08,0.97,1.0,M,-28.7,M,,*6D
00:01:04 $GPGSA,A,3,20,32,16,31,13,11,04,07,,,,,1.66,0.97,1.34*0C
00:01:04 $GPGSV,3,1,10,01,17,046,23,04,11,316,29,07,05,227,27,11,13,214,32*71
00:01:04 $GPGSV,3,2,10,13,27,286,37,16,39,113,23,20,79,276,18,23,53,10,31,26,045,33,32,67,138,15*71
00:01:05 Temperature:  board 97F (268 raw), int 66F (214 raw), ext 121F (309 raw)
00:01:05 Accelerometer X=407 Y=497 Z=348    X=0 Y=0 Z=0
00:01:05 $GPRMC,230242.00,A,3741.17455,N,12115.49858,W,0.379,,070410,,,A*65
00:01:05 $GPVTG,,T,,M,0.379,N,0.702,K,A*2B
00:01:05 $GPGGA,230242.00,3741.17455,N,12115.49858,W,1,09,0.97,1.5,M,-28.7,M,,*65
00:01:05 $GPGSA,A,3,20,32,23,16,31,13,11,04,07,,,,1.66,0.97,1.34*0D
00:01:05 $GPGSV,3,1,10,01,17,046,23,04,11,316,30,07,05,227,27,11,13,214,32*79
00:01:05 $GPGSV,3,2,10,13,27,286,37,16,39,113,23,20,79,276,17,23,5,3,10,31,26,045,33,32,67,138,16*72
00:01:06 Temperature:  board 97F (268 raw), int 66F (215 raw), ext 121F (310 raw)
00:01:06 Accelerometer X=406 Y=498 Z=348    X=0 Y=0 Z=0
00:01:06 $GPRMC,230243.00,A,3741.17465,N,12115.49861,W,0.923,,070410,,,A*68
00:01:06 $GPVTG,,T,,M,0.923,N,1.709,K,A*24
00:01:06 $GPGGA,230243.00,3741.17465,N,12115.49861,W,1,09,0.97,0.9,M,-28.7,M,,*60
00:01:06 $GPGSA,A,3,20,32,23,16,31,13,11,04,07,,,,1.66,0.97,1.34*0D
00:01:06 $GPGSV,3,1,10,01,17,046,24,04,11,316,29,07,05,227,27,11,13,214,32*76
00:01:06 $GPGSV,3,2,10,13,27,286,37,16,39,113,23,20,79,276,17,23,5,3,10,31,26,045,33,32,67,138,17*73
00:01:07 Temperature:  board 97F (268 raw), int 66F (214 raw), ext 121F (310 raw)
00:01:07 Accelerometer X=407 Y=500 Z=349    X=0 Y=0 Z=0
00:01:07 $GPRMC,230244.00,A,3741.17474,N,12115.49871,W,0.318,,070410,,,A*6C
00:01:07 $GPVTG,,T,,M,0.318,N,0.589,K,A*2D
00:01:07 $GPGGA,230244.00,3741.17474,N,12115.49871,W,1,09,0.97,0.7,M,-28.7,M,,*68
00:01:07 $GPGSA,A,3,20,32,23,16,31,13,11,04,07,,,,1.66,0.97,1.34*0D
00:01:07 $GPGSV,3,1,10,01,17,045,23,04,11,316,29,07,05,227,26,11,13,214,32*73
00:01:07 $GPGSV,3,2,10,13,27,286,36,16,39,113,23,20,79,276,17,23,5,3,10,31,26,045,33,32,67,138,17*73
00:01:08 Temperature:  board 97F (268 raw), int 66F (215 raw), ext 121F (310 raw)
00:01:08 Accelerometer X=407 Y=499 Z=347    X=0 Y=0 Z=0
00:01:08 $GPRMC,230245.00,A,3741.17471,N,12115.49873,W,0.291,,070410,,,A*6A
00:01:08 $GPVTG,,T,,M,0.291,N,0.539,K,A*26
00:01:08 $GPGGA,230245.00,3741.17471,N,12115.49873,W,1,09,0.92,0.9,M,-28.7,M,,*65
00:01:08 $GPGSA,A,3,20,32,23,16,31,13,11,04,07,,,,1.53,0.92,1.23*08
00:01:08 $GPGSV,3,1,10,01,17,045,23,04,11,316,29,07,05,227,26,11,13,214,32*73
00:01:08 $GPGSV,3,2,10,13,27,286,36,16,39,113,23,20,79,276,17,23,5,3,10,31,26,045,32,32,67,138,16*73
00:01:09 Temperature:  board 96F (267 raw), int 66F (215 raw), ext 121F (309 raw)
00:01:09 Accelerometer X=406 Y=498 Z=348    X=0 Y=0 Z=0
00:01:09 $GPRMC,230246.00,A,3741.17458,N,12115.49878,W,0.522,,070410,,,A*66
00:01:09 $GPVTG,,T,,M,0.522,N,0.966,K,A*2F
00:01:09 $GPGGA,230246.00,3741.17458,N,12115.49878,W,1,09,0.92,1.1,M,-28.7,M,,*6F
00:01:09 $GPGSA,A,3,20,32,23,16,31,13,11,04,07,,,,1.53,0.92,1.23*08
00:01:09 $GPGSV,3,1,10,01,17,045,23,04,11,316,29,07,05,227,26,11,13,214,32*73
00:01:09 $GPGSV,3,2,10,13,27,286,37,16,39,113,23,20,79,276,17,23,5,3,10,31,26,045,33,32,67,138,16*72
00:01:10 Temperature:  board 97F (268 raw), int 66F (215 raw), ext 121F (310 raw)
00:01:10 Accelerometer X=408 Y=497 Z=349    X=0 Y=0 Z=0
00:01:10 $GPRMC,230247.00,A,3741.17452,N,12115.49884,W,0.424,,070410,,,A*69
00:01:10 $GPVTG,,T,,M,0.424,N,0.785,K,A*2B
00:01:10 $GPGGA,230247.00,3741.17452,N,12115.49884,W,1,09,0.92,1.7,M,-28.7,M,,*61
00:01:10 $GPGSA,A,3,20,32,23,16,31,13,11,04,07,,,,1.53,0.92,1.23*08
00:01:10 $GPGSV,3,1,10,01,17,045,23,04,11,315,29,07,05,227,26,11,13,214,31*73
00:01:10 $GPGSV,3,2,10,13,27,286,36,16,39,113,23,20,79,276,16,23,5,3,10,31,26,045,33,32,67,138,16*72
00:01:11 Temperature:  board 97F (268 raw), int 66F (215 raw), ext 121F (310 raw)
00:01:11 Accelerometer X=407 Y=499 Z=349    X=0 Y=0 Z=0
00:01:11 $GPRMC,230248.00,A,3741.17444,N,12115.49878,W,0.575,,070410,,,A*67
00:01:11 $GPVTG,,T,,M,0.575,N,1.065,K,A*26
00:01:11 $GPGGA,230248.00,3741.17444,N,12115.49878,W,1,09,0.92,1.9,M,-28.7,M,,*64
00:01:11 $GPGSA,A,3,20,32,23,16,31,13,11,04,07,,,,1.53,0.92,1.23*08
00:01:11 $GPGSV,3,1,10,01,17,045,22,04,11,315,29,07,05,227,26,11,13,214,32*71
00:01:11 $GPGSV,3,2,10,13,27,286,36,16,39,113,23,20,79,276,16,23,5,3,10,31,26,045,33,32,67,138,17*73
00:01:12 Temperature:  board 96F (267 raw), int 66F (215 raw), ext 121F (310 raw)
00:01:12 Accelerometer X=406 Y=498 Z=348    X=0 Y=0 Z=0
00:01:12 $GPRMC,230249.00,A,3741.17434,N,12115.49868,W,0.305,,070410,,,A*61
00:01:12 $GPVTG,,T,,M,0.305,N,0.565,K,A*23
00:01:12 $GPGGA,230249.00,3741.17434,N,12115.49868,W,1,09,0.92,1.8,M,-28.7,M,,*62
00:01:12 $GPGSA,A,3,20,32,23,16,31,13,11,04,07,,,,1.53,0.92,1.23*08
00:01:12 $GPGSV,3,1,10,01,17,045,22,04,11,315,29,07,05,227,26,11,13,214,31*72
00:01:12 $GPGSV,3,2,10,13,27,286,36,16,39,113,24,20,79,276,17,23,5,3,10,31,26,045,33,32,67,138,17*73
00:01:13 Temperature:  board 97F (268 raw), int 66F (215 raw), ext 121F (309 raw)
00:01:13 Accelerometer X=408 Y=496 Z=349    X=0 Y=0 Z=0
00:01:13 $GPRMC,230250.00,A,3741.17425,N,12115.49867,W,0.296,,070410,,,A*6D
00:01:13 $GPVTG,,T,,M,0.296,N,0.548,K,A*27
00:01:13 $GPGGA,230250.00,3741.17425,N,12115.49867,W,1,09,0.92,2.3,M,-28.7,M,,*6D
00:01:13 $GPGSA,A,3,20,32,23,16,31,13,11,04,07,,,,1.53,0.92,1.23*08
00:01:13 $GPGSV,3,1,10,01,17,045,22,04,11,315,29,07,06,227,26,11,13,214,32*72
00:01:13 $GPGSV,3,2,10,13,27,286,36,16,39,113,24,20,79,276,16,23,5,3,10,31,26,045,33,32,67,138,16*72
00:01:14 Temperature:  board 97F (268 raw), int 67F (216 raw), ext 121F (310 raw)
00:01:14 Accelerometer X=406 Y=500 Z=349    X=0 Y=0 Z=0
00:01:14 $GPRMC,230251.00,A,3741.17421,N,12115.49881,W,0.212,,070410,,,A*6C
00:01:14 $GPVTG,,T,,M,0.212,N,0.392,K,A*2A
00:01:14 $GPGGA,230251.00,3741.17421,N,12115.49881,W,1,09,0.92,2.7,M,-28.7,M,,*64
00:01:14 $GPGSA,A,3,20,32,23,16,31,13,11,04,07,,,,1.53,0.92,1.23*08
00:01:14 $GPGSV,3,1,10,01,17,045,22,04,11,315,29,07,06,227,26,11,13,214,32*72
00:01:14 $GPGSV,3,2,10,13,27,286,37,16,39,113,25,20,79,276,16,23,5,3,10,31,26,045,33,32,67,138,16*72
00:01:15 Temperature:  board 96F (267 raw), int 66F (215 raw), ext 121F (310 raw)
00:01:15 Accelerometer X=410 Y=499 Z=347    X=0 Y=0 Z=0
00:01:15 Sending GPS packet: $GPGGA,230251.00,3741.17421,N,12115.49881,W,1,09,0.92,2.7,M,-28.7,M,,*64
Sleep... Sleep... Sleep... Sleep... 
00:01:16 $GPRMC,230252.00,A,3741.17421,N,12115.49896,W,0.167,,070410,,,A*68
00:01:16 $GPVTG,,T,,M,0.167,N,0.309,K,A*29
00:01:16 $GPGGA,230252.00,3741.17PGSV,3,1,10,01,17,045,23,04,11,315,28,07,06,227,25,11,13,214,32*71
00:01:16 86,37,16,39,113,25,20,79,276,17,23,SV,3,3,10,31,26,045,33,32,67,138,14*70
00:01:16 Temperature:  board 96F (267 raw), int 67F (216 raw), ext 121F (310 raw)
00:01:16 Accelerometer X=410 Y=500 Z=347    X=0 Y=0 Z=0
00:01:17 $GPRMC,230254.00,A,3741.17446,N,12115.49933,W,0.619,,070410,,,A*6F
00:01:17 $GPVTG,,T,,M,0.619,N,1.146,K,A*2F
00:01:17 $GPGGA,230254.00,3741.17446,N,12115.49933,W,1,09,0.92,0.5,M,-28.7,M,,*68
00:01:17 $GPGSA,A,3,20,32,23,16,31,13,11,04,07,,,,1.53,0.92,1.23*08
00:01:17 $GPGSV,3,1,10,01,17,045,22,04,11,315,28,07,06,227,25,11,13,214,32*70
00:01:17 $GPGSV,3,2,10,13,27,286,37,16,39,113,26,20,79,276,16,23,5,3,10,31,26,045,33,32,67,138,14*70
00:01:18 Temperature:  board 96F (267 raw), int 67F (216 raw), ext 121F (310 raw)
00:01:18 Accelerometer X=406 Y=496 Z=347    X=0 Y=0 Z=0
00:01:18 $GPRMC,230255.00,A,3741.17453,N,12115.49950,W,0.131,,070410,,,A*62
00:01:18 $GPVTG,,T,,M,0.131,N,0.243,K,A*25
00:01:18 $GPGGA,230255.00,3741.17453,N,12115.49950,W,1,09,0.92,0.5,M,-28.7,M,,*68
00:01:18 $GPGSA,A,3,20,32,23,16,31,13,11,04,07,,,,1.53,0.92,1.23*08
00:01:18 $GPGSV,3,1,10,01,17,045,22,04,11,315,28,07,06,227,25,11,13,214,32*70
00:01:18 $GPGSV,3,2,10,13,27,286,37,16,39,113,26,20,79,276,16,23,5,3,10,31,26,045,33,32,67,138,13*77
00:01:19 Temperature:  board 96F (267 raw), int 67F (216 raw), ext 121F (310 raw)
00:01:19 Accelerometer X=406 Y=499 Z=348    X=0 Y=0 Z=0
00:01:19 $GPRMC,230256.00,A,3741.17458,N,12115.49960,W,0.303,,070410,,,A*6A
00:01:19 $GPVTG,,T,,M,0.303,N,0.560,K,A*20
00:01:19 $GPGGA,230256.00,3741.17458,N,12115.49960,W,1,09,0.92,-0.2,M,-28.7,M,,*49
00:01:19 $GPGSA,A,3,20,32,23,16,31,13,11,04,07,,,,1.53,0.92,1.23*08
00:01:19 $GPGSV,3,1,10,01,17,045,22,04,11,315,28,07,06,227,25,11,13,214,31*73
00:01:19 $GPGSV,3,2,10,13,27,287,36,16,39,113,26,20,79,276,17,23,5,3,10,31,26,045,33,32,67,138,15*71
00:01:20 Temperature:  board 96F (267 raw), int 67F (216 raw), ext 121F (310 raw)
00:01:20 Accelerometer X=408 Y=499 Z=349    X=0 Y=0 Z=0
00:01:20 $GPRMC,230257.00,A,3741.17466,N,12115.49969,W,0.292,,070410,,,A*66
00:01:20 $GPVTG,,T,,M,0.292,N,0.541,K,A*2A
00:01:20 $GPGGA,230257.00,3741.17466,N,12115.49969,W,1,09,0.92,-0.6,M,-28.7,M,,*48
00:01:20 $GPGSA,A,3,20,32,23,16,31,13,11,04,07,,,,1.53,0.92,1.23*08
00:01:20 $GPGSV,3,1,10,01,17,045,22,04,11,315,28,07,06,227,26,11,13,214,31*70
00:01:20 $GPGSV,3,2,10,13,27,287,37,16,39,113,26,20,79,276,17,23,5,3,10,31,26,045,33,32,67,138,16*72
00:01:21 Temperature:  board 96F (267 raw), int 67F (217 raw), ext 122F (311 raw)
00:01:21 Accelerometer X=409 Y=501 Z=351    X=0 Y=0 Z=0
00:01:21 $GPRMC,230258.00,A,3741.17469,N,12115.49973,W,0.358,,070410,,,A*6A
00:01:21 $GPVTG,,T,,M,0.358,N,0.663,K,A*2E
00:01:21 $GPGGA,230258.00,3741.17469,N,12115.49973,W,1,09,0.92,-0.5,M,-28.7,M,,*40
00:01:21 $GPGSA,A,3,20,32,23,16,31,13,11,04,07,,,,1.53,0.92,1.23*08
00:01:21 $GPGSV,3,1,10,01,17,045,21,04,11,315,28,07,06,227,26,11,13,214,31*73
00:01:21 $GPGSV,3,2,10,13,27,287,37,16,39,113,26,20,79,276,17,23,5,3,10,31,26,045,33,32,67,138,16*72
00:01:22 Temperature:  board 96F (267 raw), int 67F (217 raw), ext 121F (310 raw)
00:01:22 Accelerometer X=409 Y=500 Z=350    X=0 Y=0 Z=0
00:01:22 $GPRMC,230259.00,A,3741.17466,N,12115.49982,W,0.573,,070410,,,A*65
00:01:22 $GPVTG,,T,,M,0.573,N,1.060,K,A*25
00:01:22 $GPGGA,230259.00,3741.17466,N,12115.49982,W,1,09,0.92,0.4,M,-28.7,M,,*6C
00:01:22 $GPGSA,A,3,20,32,23,16,31,13,11,04,07,,,,1.53,0.92,1.23*08
00:01:22 $GPGSV,3,1,10,01,17,045,22,04,11,315,28,07,06,227,26,11,13,214,31*70
00:01:22 $GPGSV,3,2,10,13,27,287,37,16,39,113,26,20,79,276,17,23,5,3,10,31,26,045,33,32,67,138,15*71
00:01:23 Temperature:  board 96F (267 raw), int 67F (217 raw), ext 121F (310 raw)
00:01:23 Accelerometer X=409 Y=499 Z=351    X=0 Y=0 Z=0
00:01:23 $GPRMC,230300.00,A,3741.17472,N,12115.49983,W,0.270,,070410,,,A*68
00:01:23 $GPVTG,,T,,M,0.270,N,0.501,K,A*22
00:01:23 $GPGGA,230300.00,3741.17472,N,12115.49983,W,1,09,0.92,0.4,M,-28.7,M,,*65
00:01:23 $GPGSA,A,3,20,32,23,16,31,13,11,04,07,,,,1.53,0.92,1.23*08
00:01:23 $GPGSV,3,1,10,01,17,045,21,04,11,315,28,07,06,227,26,11,13,214,31*73
00:01:23 $GPGSV,3,2,10,13,27,287,37,16,39,113,26,20,79,276,17,23,5,3,10,31,26,045,32,32,67,138,13*76
00:01:24 Temperature:  board 97F (268 raw), int 68F (218 raw), ext 121F (310 raw)
00:01:24 Accelerometer X=404 Y=498 Z=350    X=0 Y=0 Z=0
00:01:24 $GPRMC,230301.00,A,3741.17480,N,12115.49986,W,0.226,,070410,,,A*62
00:01:24 $GPVTG,,T,,M,0.226,N,0.419,K,A*29
00:01:24 $GPGGA,230301.00,3741.17480,N,12115.49986,W,1,09,0.92,0.0,M,-28.7,M,,*68
00:01:24 $GPGSA,A,3,20,32,23,16,31,13,11,04,07,,,,1.53,0.92,1.23*08
00:01:24 $GPGSV,3,1,10,01,17,045,21,04,11,315,28,07,06,227,26,11,13,214,32*70
00:01:24 $GPGSV,3,2,10,13,27,287,37,16,39,113,26,20,79,276,17,23,5,3,10,31,26,045,32,32,67,138,11*74
00:01:25 Temperature:  board 96F (267 raw), int 67F (217 raw), ext 121F (310 raw)
00:01:25 Accelerometer X=408 Y=500 Z=350    X=0 Y=0 Z=0
00:01:25 $GPRMC,230302.00,A,3741.17476,N,12115.49998,W,0.373,,070410,,,A*66
00:01:25 $GPVTG,,T,,M,0.373,N,0.690,K,A*2B
00:01:25 $GPGGA,230302.00,3741.17476,N,12115.49998,W,1,09,0.92,0.3,M,-28.7,M,,*6E
00:01:25 $GPGSA,A,3,20,32,23,16,31,13,11,04,07,,,,1.53,0.92,1.23*08
00:01:25 $GPGSV,3,1,10,01,17,045,22,04,11,315,27,07,06,227,26,11,13,214,32*7C
00:01:25 $GPGSV,3,2,10,13,27,287,37,16,39,113,25,20,79,276,17,23,5,3,10,31,26,045,32,32,67,138,12*77
00:01:26 Temperature:  board 96F (267 raw), int 67F (217 raw), ext 121F (310 raw)
00:01:26 Accelerometer X=407 Y=500 Z=350    X=0 Y=0 Z=0
00:01:26 $GPRMC,230303.00,A,3741.17485,N,12115.50001,W,0.682,,070410,,,A*61
00:01:26 $GPVTG,,T,,M,0.682,N,1.263,K,A*29
00:01:26 $GPGGA,230303.00,3741.17485,N,12115.50001,W,1,09,0.92,0.0,M,-28.7,M,,*61
00:01:26 $GPGSA,A,3,20,32,23,16,31,13,11,04,07,,,,1.53,0.92,1.23*08
00:01:26 $GPGSV,3,1,10,01,17,045,22,04,11,315,27,07,06,227,26,11,13,214,32*7C
00:01:26 $GPGSV,3,2,10,13,27,287,37,16,39,113,25,20,79,273,17,23,5,3,10,31,26,045,33,32,67,138,14*70
00:01:27 Temperature:  board 96F (267 raw), int 67F (217 raw), ext 121F (310 raw)
00:01:27 Accelerometer X=406 Y=500 Z=351    X=0 Y=0 Z=0
00:01:27 $GPRMC,230304.00,A,3741.17492,N,12115.49997,W,0.292,,070410,,,A*6B
00:01:27 $GPVTG,,T,,M,0.292,N,0.540,K,A*2B
00:01:27 $GPGGA,230304.00,3741.17492,N,12115.49997,W,1,09,0.92,-0.3,M,-28.7,M,,*40
00:01:27 $GPGSA,A,3,20,32,23,16,31,13,11,04,07,,,,1.53,0.92,1.23*08
00:01:27 $GPGSV,3,1,10,01,17,045,22,04,11,315,27,07,06,227,26,11,13,214,32*7C
00:01:27 $GPGSV,3,2,10,13,27,287,37,16,39,113,25,20,79,273,18,23,5,3,10,31,26,045,33,32,67,138,15*71
00:01:28 Temperature:  board 96F (267 raw), int 67F (217 raw), ext 121F (310 raw)
00:01:28 Accelerometer X=408 Y=500 Z=352    X=0 Y=0 Z=0
00:01:28 $GPRMC,230305.00,A,3741.17484,N,12115.49987,W,0.444,,070410,,,A*61
00:01:28 $GPVTG,,T,,M,0.444,N,0.823,K,A*2E
00:01:28 $GPGGA,230305.00,3741.17484,N,12115.49987,W,1,09,0.92,-0.3,M,-28.7,M,,*47
00:01:28 $GPGSA,A,3,20,32,23,16,31,13,11,04,07,,,,1.53,0.92,1.23*08
00:01:28 $GPGSV,3,1,10,01,17,045,22,04,11,315,27,07,06,227,25,11,13,214,31*7C
00:01:28 $GPGSV,3,2,10,13,27,287,37,16,39,113,25,20,79,273,18,23,5,3,10,31,26,045,32,32,67,138,15*70
00:01:29 Temperature:  board 96F (267 raw), int 67F (217 raw), ext 121F (310 raw)
00:01:29 Accelerometer X=409 Y=500 Z=350    X=0 Y=0 Z=0
00:01:29 $GPRMC,230306.00,A,3741.17477,N,12115.49990,W,0.266,,070410,,,A*6E
00:01:29 $GPVTG,,T,,M,0.266,N,0.492,K,A*2E
00:01:29 $GPGGA,230306.00,3741.17477,N,12115.49990,W,1,09,0.92,0.0,M,-28.7,M,,*60
00:01:29 $GPGSA,A,3,20,32,23,16,31,13,11,04,07,,,,1.53,0.92,1.23*08
00:01:29 $GPGSV,3,1,10,01,17,045,22,04,11,315,27,07,06,227,25,11,13,214,31*7C
00:01:29 $GPGSV,3,2,10,13,27,287,37,16,39,113,25,20,79,273,17,23,5,3,10,31,26,045,32,32,67,138,15*70
00:01:30 Temperature:  board 96F (267 raw), int 68F (218 raw), ext 121F (310 raw)
00:01:30 Accelerometer X=407 Y=497 Z=349    X=0 Y=0 Z=0
00:01:30 Sending Sensors packet: >ProjectBacchus.org Uptime=00:01:30 Temp=96F,68F,121F (267,218,310) Acc=407,497,349
Sleep... Sleep... Sleep... Sleep... 
00:01:31 $GPRMC,230307.00,A,3741.17487,N,12115.49989,W,0.759,,070410,,,A*61
00:01:31 $GPVTG,,T,,M,0.759,N,1.405,K,A*28
00:01:31 $GPGGA,230307.00,3741.17,18,23,51,306,21*7D
00:01:31 $GPGSV,3,3,10,31,26,045,33,32,67,138,14*70
00:01:31 Temperature:  board 96F (267 raw), int 68F (218 raw), ext 122F (311 raw)
00:01:31 Accelerometer X=406 Y=500 Z=350    X=0 Y=0 Z=0
00:01:32 $GPRMC,230309.00,A,3741.17472,N,12115.49979,W,0.646,,070410,,,A*65
00:01:32 $GPVTG,,T,,M,0.646,N,1.196,K,A*28
00:01:32 $GPGGA,230309.00,3741.17472,N,12115.49979,W,1,09,0.92,-0.3,M,-28.7,M,,*43
00:01:32 $GPGSA,A,3,20,32,23,16,31,13,11,04,07,,,,1.53,0.92,1.23*08
00:01:32 $GPGSV,3,1,10,01,17,045,23,04,11,315,27,07,06,227,25,11,13,214,32*7E
00:01:32 $GPGSV,3,2,10,13,27,287,37,16,39,113,26,20,79,273,18,23,5,3,10,31,26,045,33,32,67,138,15*71
00:01:33 Temperature:  board 96F (267 raw), int 68F (218 raw), ext 122F (311 raw)
00:01:33 Accelerometer X=405 Y=498 Z=349    X=0 Y=0 Z=0
00:01:33 $GPRMC,230310.00,A,3741.17471,N,12115.49973,W,0.215,,070410,,,A*66
00:01:33 $GPVTG,,T,,M,0.215,N,0.398,K,A*27
00:01:33 $GPGGA,230310.00,3741.17471,N,12115.49973,W,1,09,0.92,-1.4,M,-28.7,M,,*44
00:01:33 $GPGSA,A,3,20,32,23,16,31,13,11,04,07,,,,1.53,0.92,1.23*08
00:01:33 $GPGSV,3,1,10,01,17,045,23,04,11,315,27,07,06,227,25,11,13,214,31*7D
00:01:33 $GPGSV,3,2,10,13,27,287,37,16,39,113,26,20,79,273,18,23,5,3,10,31,26,045,33,32,67,138,14*70
00:01:34 Temperature:  board 96F (267 raw), int 68F (218 raw), ext 121F (310 raw)
00:01:34 Accelerometer X=406 Y=499 Z=348    X=0 Y=0 Z=0
00:01:34 $GPRMC,230311.00,A,3741.17474,N,12115.49979,W,0.522,,070410,,,A*6B
00:01:34 $GPVTG,,T,,M,0.522,N,0.966,K,A*2F
00:01:34 $GPGGA,230311.00,3741.17474,N,12115.49979,W,1,09,0.92,-1.9,M,-28.7,M,,*47
00:01:34 $GPGSA,A,3,20,32,23,16,31,13,11,04,07,,,,1.53,0.92,1.23*08
00:01:34 $GPGSV,3,1,10,01,17,045,24,04,11,315,27,07,06,227,25,11,13,214,31*7A
00:01:34 $GPGSV,3,2,10,13,27,287,37,16,39,113,26,20,79,273,18,23,5,3,10,31,26,045,33,32,67,138,13*77
00:01:35 Temperature:  board 96F (267 raw), int 68F (218 raw), ext 122F (311 raw)
00:01:35 Accelerometer X=407 Y=499 Z=349    X=0 Y=0 Z=0
00:01:35 $GPRMC,230312.00,A,3741.17469,N,12115.49979,W,0.380,,070410,,,A*6A
00:01:35 $GPVTG,,T,,M,0.380,N,0.703,K,A*2C
00:01:35 $GPGGA,230312.00,3741.17469,N,12115.49979,W,1,09,0.92,-2.4,M,-28.7,M,,*46
00:01:35 $GPGSA,A,3,20,32,23,16,31,13,11,04,07,,,,1.53,0.92,1.23*08
00:01:35 $GPGSV,3,1,10,01,17,045,23,04,11,315,27,07,06,227,25,11,13,214,32*7E
00:01:35 $GPGSV,3,2,10,13,27,287,37,16,39,113,26,20,79,273,18,23,5,3,10,31,26,045,32,32,67,138,13*76
00:01:36 Temperature:  board 96F (267 raw), int 68F (218 raw), ext 121F (310 raw)
00:01:36 Accelerometer X=408 Y=499 Z=349    X=0 Y=0 Z=0
00:01:36 $GPRMC,230313.00,A,3741.17459,N,12115.49970,W,0.441,,070410,,,A*6B
00:01:36 $GPVTG,,T,,M,0.441,N,0.817,K,A*2C
00:01:36 $GPGGA,230313.00,3741.17459,N,12115.49970,W,1,09,0.92,-1.9,M,-28.7,M,,*43
00:01:36 $GPGSA,A,3,20,32,23,16,31,13,11,04,07,,,,1.53,0.92,1.23*08
00:01:36 $GPGSV,3,1,10,01,17,045,23,04,11,315,27,07,06,227,25,11,13,214,32*7E
00:01:36 $GPGSV,3,2,10,13,27,287,37,16,39,113,26,20,79,273,18,23,5,3,10,31,26,045,33,32,67,138,12*76
00:01:37 Temperature:  board 96F (267 raw), int 68F (218 raw), ext 122F (311 raw)
00:01:37 Accelerometer X=405 Y=497 Z=349    X=0 Y=0 Z=0
00:01:37 $GPRMC,230314.00,A,3741.17459,N,12115.49957,W,0.438,,070410,,,A*67
00:01:37 $GPVTG,,T,,M,0.438,N,0.811,K,A*24
00:01:37 $GPGGA,230314.00,3741.17459,N,12115.49957,W,1,09,0.92,-1.7,M,-28.7,M,,*4F
00:01:37 $GPGSA,A,3,20,32,23,16,31,13,11,04,07,,,,1.53,0.92,1.23*08
00:01:37 $GPGSV,3,1,10,01,17,045,23,04,11,315,27,07,06,227,25,11,13,214,31*7D
00:01:37 $GPGSV,3,2,10,13,27,287,37,16,39,113,25,20,79,273,17,23,5,3,10,31,26,045,33,32,67,138,11*75
00:01:38 Temperature:  board 96F (267 raw), int 69F (219 raw), ext 122F (311 raw)
00:01:38 Accelerometer X=407 Y=498 Z=348    X=0 Y=0 Z=0
00:01:38 $GPRMC,230315.00,A,3741.17463,N,12115.49943,W,0.301,,070410,,,A*67
00:01:38 $GPVTG,,T,,M,0.301,N,0.557,K,A*26
00:01:38 $GPGGA,230315.00,3741.17463,N,12115.49943,W,1,09,0.92,-2.7,M,-28.7,M,,*41
00:01:38 $GPGSA,A,3,20,32,23,16,31,13,11,04,07,,,,1.53,0.92,1.23*08
00:01:38 $GPGSV,3,1,10,01,17,045,24,04,11,315,27,07,06,227,25,11,13,214,32*79
00:01:38 $GPGSV,3,2,10,13,27,287,37,16,39,113,25,20,79,273,17,23,5,3,10,31,26,045,33,32,67,138,10*74
00:01:39 Temperature:  board 96F (267 raw), int 68F (218 raw), ext 122F (311 raw)
00:01:39 Accelerometer X=406 Y=500 Z=350    X=0 Y=0 Z=0
00:01:39 $GPRMC,230316.00,A,3741.17446,N,12115.49934,W,0.832,,070410,,,A*68
00:01:39 $GPVTG,,T,,M,0.832,N,1.541,K,A*2B
00:01:39 $GPGGA,230316.00,3741.17446,N,12115.49934,W,1,08,0.94,-3.3,M,-28.7,M,,*47
00:01:39 $GPGSA,A,3,20,23,16,31,13,11,04,07,,,,,1.65,0.94,1.35*0D
00:01:39 $GPGSV,3,1,10,01,17,045,25,04,11,315,27,07,06,227,25,11,13,214,32*78
00:01:39 $GPGSV,3,2,10,13,27,287,37,16,39,113,25,20,79,273,16,23,5,3,10,31,26,045,33,32,67,138,09*7C
00:01:40 Temperature:  board 96F (267 raw), int 69F (219 raw), ext 122F (311 raw)
00:01:40 Accelerometer X=407 Y=499 Z=347    X=0 Y=0 Z=0
00:01:40 $GPRMC,230317.00,A,3741.17432,N,12115.49930,W,0.063,,070410,,,A*62
00:01:40 $GPVTG,,T,,M,0.063,N,0.116,K,A*20
00:01:40 $GPGGA,230317.00,3741.17432,N,12115.49930,W,1,08,0.94,-2.9,M,-28.7,M,,*4A
00:01:40 $GPGSA,A,3,20,23,16,31,13,11,04,07,,,,,1.65,0.94,1.35*0D
00:01:40 $GPGSV,3,1,10,01,17,045,25,04,11,315,27,07,06,227,25,11,13,214,32*78
00:01:40 $GPGSV,3,2,10,13,27,287,37,16,39,113,24,20,79,273,16,23,53,3,10,31,26,045,33,32,67,138,08*7D
00:01:41 Temperature:  board 96F (267 raw), int 69F (219 raw), ext 122F (311 raw)
00:01:41 Accelerometer X=405 Y=500 Z=351    X=0 Y=0 Z=0
00:01:41 $GPRMC,230318.00,A,3741.17442,N,12115.49920,W,0.836,,070410,,,A*63
00:01:41 $GPVTG,,T,,M,0.836,N,1.548,K,A*26
00:01:41 $GPGGA,230318.00,3741.17442,N,12115.49920,W,1,08,0.94,-3.3,M,-28.7,M,,*48
00:01:41 $GPGSA,A,3,20,23,16,31,13,11,04,07,,,,,1.65,0.94,1.35*0D
00:01:41 $GPGSV,3,1,10,01,17,045,25,04,11,315,27,07,06,227,25,11,13,214,32*78
00:01:41 $GPGSV,3,2,10,13,27,287,37,16,39,113,24,20,79,273,16,23,53,3,10,31,26,045,32,32,67,138,08*7C
00:01:42 Temperature:  board 96F (267 raw), int 69F (219 raw), ext 122F (311 raw)
00:01:42 Accelerometer X=408 Y=497 Z=348    X=0 Y=0 Z=0
00:01:42 $GPRMC,230319.00,A,3741.17428,N,12115.49912,W,1.183,,070410,,,A*69
00:01:42 $GPVTG,,T,,M,1.183,N,2.191,K,A*23
00:01:42 $GPGGA,230319.00,3741.17428,N,12115.49912,W,1,08,0.94,-3.1,M,-28.7,M,,*46
00:01:42 $GPGSA,A,3,20,23,16,31,13,11,04,07,,,,,1.65,0.94,1.35*0D
00:01:42 $GPGSV,3,1,10,01,17,045,25,04,11,315,27,07,06,227,25,11,13,214,32*78
00:01:42 $GPGSV,3,2,10,13,27,287,37,16,39,113,23,20,79,273,16,23,5,3,10,31,26,045,33,32,67,138,*75
00:01:43 Temperature:  board 96F (267 raw), int 69F (219 raw), ext 122F (311 raw)
00:01:43 Accelerometer X=408 Y=500 Z=349    X=0 Y=0 Z=0
00:01:43 $GPRMC,230320.00,A,3741.17422,N,12115.49896,W,0.478,,070410,,,A*64
00:01:43 $GPVTG,,T,,M,0.478,N,0.885,K,A*2D
00:01:43 $GPGGA,230320.00,3741.17422,N,12115.49896,W,1,08,0.94,-3.7,M,-28.7,M,,*4D
00:01:43 $GPGSA,A,3,20,23,16,31,13,11,04,07,,,,,1.65,0.94,1.35*0D
00:01:43 $GPGSV,3,1,10,01,17,045,25,04,11,315,27,07,06,227,25,11,13,214,31*7B
00:01:43 $GPGSV,3,2,10,13,27,287,37,16,39,113,24,20,79,273,16,23,5,3,10,31,26,045,33,32,67,138,*75
00:01:44 Temperature:  board 96F (267 raw), int 69F (219 raw), ext 122F (311 raw)
00:01:44 Accelerometer X=408 Y=498 Z=349    X=0 Y=0 Z=0
00:01:44 $GPRMC,230321.00,A,3741.17426,N,12115.49875,W,0.336,,070410,,,A*61
00:01:44 $GPVTG,,T,,M,0.336,N,0.621,K,A*20
00:01:44 $GPGGA,230321.00,3741.17426,N,12115.49875,W,1,08,0.94,-4.0,M,-28.7,M,,*45
00:01:44 $GPGSA,A,3,20,23,16,31,13,11,04,07,,,,,1.65,0.94,1.35*0D
00:01:44 $GPGSV,3,1,10,01,17,045,25,04,11,315,27,07,06,227,25,11,13,214,32*78
00:01:44 $GPGSV,3,2,10,13,27,287,37,16,39,113,25,20,79,273,15,23,53,3,10,31,26,045,33,32,67,138,*75
00:01:45 Temperature:  board 96F (267 raw), int 67F (217 raw), ext 122F (311 raw)
00:01:45 Accelerometer X=406 Y=501 Z=349    X=0 Y=0 Z=0
00:01:45 Sending GPS packet: $GPGGA,230321.00,3741.17426,N,12115.49875,W,1,08,0.94,-4.0,M,-28.7,M,,*45
Sleep... Sleep... Sleep... Sleep... 
00:01:46 $GPRMC,230322.00,A,3741.17427,N,12115.49864,W,0.149,,070410,,,A*69
00:01:46 $GPVTG,,T,,M,0.149,N,0.276,K,A*2C
00:01:46 $GPGGA,230322.00,3741.171,10,01,17,045,26,04,11,315,27,07,06,227,25,11,13,214,32*7B
00:01:46 $GPGSV,,39,113,25,20,79,273,15,23,51,306,10,31,26,045,33,32,67,138,*75
00:01:46 Temperature:  board 96F (267 raw), int 69F (219 raw), ext 122F (311 raw)
00:01:46 Accelerometer X=409 Y=496 Z=349    X=0 Y=0 Z=0
00:01:47 $GPRMC,230324.00,A,3741.17424,N,12115.49848,W,0.482,,070410,,,A*60
00:01:47 $GPVTG,,T,,M,0.482,N,0.894,K,A*28
00:01:47 $GPGGA,230324.00,3741.17424,N,12115.49848,W,1,08,0.94,-4.6,M,-28.7,M,,*4A
00:01:47 $GPGSA,A,3,20,23,16,31,13,11,04,07,,,,,1.65,0.94,1.35*0D
00:01:47 $GPGSV,3,1,10,01,17,045,26,04,11,315,27,07,06,227,24,11,13,214,32*7A
00:01:47 $GPGSV,3,2,10,13,27,287,38,16,39,113,25,20,79,273,15,23,5,3,10,31,26,045,32,32,67,138,*74
00:01:48 Temperature:  board 96F (267 raw), int 69F (220 raw), ext 122F (311 raw)
00:01:48 Accelerometer X=409 Y=496 Z=351    X=0 Y=0 Z=0
00:01:48 $GPRMC,230325.00,A,3741.17424,N,12115.49842,W,0.514,,070410,,,A*65
00:01:48 $GPVTG,,T,,M,0.514,N,0.952,K,A*2D
00:01:48 $GPGGA,230325.00,3741.17424,N,12115.49842,W,1,08,0.94,-4.2,M,-28.7,M,,*45
00:01:48 $GPGSA,A,3,20,23,16,31,13,11,04,07,,,,,1.65,0.94,1.35*0D
00:01:48 $GPGSV,3,1,10,01,17,045,27,04,11,315,27,07,06,227,25,11,13,214,32*7A
00:01:48 $GPGSV,3,2,10,13,27,287,38,16,39,113,25,20,79,273,16,23,5,3,10,31,26,045,32,32,67,138,*74
00:01:49 Temperature:  board 96F (267 raw), int 69F (219 raw), ext 122F (311 raw)
00:01:49 Accelerometer X=410 Y=498 Z=349    X=0 Y=0 Z=0
00:01:49 $GPRMC,230326.00,A,3741.17433,N,12115.49840,W,0.140,,070410,,,A*67
00:01:49 $GPVTG,,T,,M,0.140,N,0.259,K,A*28
00:01:49 $GPGGA,230326.00,3741.17433,N,12115.49840,W,1,08,0.94,-5.1,M,-28.7,M,,*40
00:01:49 $GPGSA,A,3,20,23,16,31,13,11,04,07,,,,,1.65,0.94,1.35*0D
00:01:49 $GPGSV,3,1,10,01,17,045,27,04,11,315,26,07,06,227,25,11,13,214,32*7B
00:01:49 $GPGSV,3,2,10,13,27,287,37,16,39,113,25,20,79,273,15,23,5,3,10,31,26,045,33,32,67,138,*75
00:01:50 Temperature:  board 96F (267 raw), int 69F (220 raw), ext 122F (311 raw)
00:01:50 Accelerometer X=410 Y=501 Z=351    X=0 Y=0 Z=0
00:01:50 $GPRMC,230327.00,A,3741.17434,N,12115.49840,W,0.692,,070410,,,A*69
00:01:50 $GPVTG,,T,,M,0.692,N,1.282,K,A*27
00:01:50 $GPGGA,230327.00,3741.17434,N,12115.49840,W,1,08,0.94,-5.2,M,-28.7,M,,*45
00:01:50 $GPGSA,A,3,20,23,16,31,13,11,04,07,,,,,1.65,0.94,1.35*0D
00:01:50 $GPGSV,3,1,10,01,17,045,27,04,11,315,26,07,06,227,25,11,13,214,32*7B
00:01:50 $GPGSV,3,2,10,13,27,287,37,16,39,113,24,20,79,273,14,23,5,3,10,31,26,045,33,32,67,138,*75
00:01:51 Temperature:  board 96F (267 raw), int 69F (220 raw), ext 122F (311 raw)
00:01:51 Accelerometer X=409 Y=498 Z=349    X=0 Y=0 Z=0
00:01:51 $GPRMC,230328.00,A,3741.17433,N,12115.49833,W,0.539,,070410,,,A*67
00:01:51 $GPVTG,,T,,M,0.539,N,0.998,K,A*24
00:01:51 $GPGGA,230328.00,3741.17433,N,12115.49833,W,1,08,0.94,-4.8,M,-28.7,M,,*42
00:01:51 $GPGSA,A,3,20,23,16,31,13,11,04,07,,,,,1.65,0.94,1.35*0D
00:01:51 $GPGSV,3,1,10,01,17,045,27,04,11,315,26,07,06,227,25,11,13,214,32*7B
00:01:51 $GPGSV,3,2,10,13,27,287,37,16,39,113,24,20,79,273,15,23,53,3,10,31,26,045,32,32,67,138,*74
00:01:52 Temperature:  board 96F (267 raw), int 69F (219 raw), ext 122F (311 raw)
00:01:52 Accelerometer X=409 Y=497 Z=348    X=0 Y=0 Z=0
00:01:52 $GPRMC,230329.00,A,3741.17428,N,12115.49820,W,1.055,,070410,,,A*60
00:01:52 $GPVTG,,T,,M,1.055,N,1.954,K,A*2B
00:01:52 $GPGGA,230329.00,3741.17428,N,12115.49820,W,1,08,0.94,-5.0,M,-28.7,M,,*42
00:01:52 $GPGSA,A,3,20,23,16,31,13,11,04,07,,,,,1.65,0.94,1.35*0D
00:01:52 $GPGSV,3,1,10,01,17,045,27,04,11,315,26,07,06,227,25,11,13,214,32*7B
00:01:52 $GPGSV,3,2,10,13,27,287,37,16,39,113,24,20,79,273,14,23,53,3,10,31,26,045,33,32,67,138,*75
00:01:53 Temperature:  board 96F (267 raw), int 69F (220 raw), ext 122F (311 raw)
00:01:53 Accelerometer X=407 Y=497 Z=349    X=0 Y=0 Z=0
00:01:53 $GPRMC,230330.00,A,3741.17415,N,12115.49816,W,0.442,,070410,,,A*60
00:01:53 $GPVTG,,T,,M,0.442,N,0.819,K,A*21
00:01:53 $GPGGA,230330.00,3741.17415,N,12115.49816,W,1,08,0.94,-4.6,M,-28.7,M,,*46
00:01:53 $GPGSA,A,3,20,23,16,31,13,11,04,07,,,,,1.65,0.94,1.35*0D
00:01:53 $GPGSV,3,1,10,01,17,045,27,04,11,315,26,07,06,227,25,11,13,214,32*7B
00:01:53 $GPGSV,3,2,10,13,27,287,37,16,39,113,23,20,79,273,15,23,5,3,10,31,26,045,33,32,67,138,*75
00:01:54 Temperature:  board 96F (266 raw), int 69F (220 raw), ext 122F (311 raw)
00:01:54 Accelerometer X=407 Y=498 Z=349    X=0 Y=0 Z=0
00:01:54 $GPRMC,230331.00,A,3741.17407,N,12115.49807,W,0.838,,070410,,,A*63
00:01:54 $GPVTG,,T,,M,0.838,N,1.551,K,A*20
00:01:54 $GPGGA,230331.00,3741.17407,N,12115.49807,W,1,08,0.94,-4.3,M,-28.7,M,,*41
00:01:54 $GPGSA,A,3,20,23,16,31,13,11,04,07,,,,,1.65,0.94,1.35*0D
00:01:54 $GPGSV,3,1,10,01,17,045,27,04,11,315,26,07,06,227,25,11,13,214,32*7B
00:01:54 $GPGSV,3,2,10,13,27,287,38,16,39,113,23,20,79,273,14,23,5,3,10,31,26,045,33,32,67,138,*75
00:01:55 Temperature:  board 96F (267 raw), int 70F (221 raw), ext 121F (310 raw)
00:01:55 Accelerometer X=406 Y=500 Z=351    X=0 Y=0 Z=0
00:01:55 $GPRMC,230332.00,A,3741.17397,N,12115.49802,W,0.796,,070410,,,A*60
00:01:55 $GPVTG,,T,,M,0.796,N,1.474,K,A*2D
00:01:55 $GPGGA,230332.00,3741.17397,N,12115.49802,W,1,08,0.94,-4.8,M,-28.7,M,,*42
00:01:55 $GPGSA,A,3,20,23,16,31,13,11,04,07,,,,,1.65,0.94,1.35*0D
00:01:55 $GPGSV,3,1,10,01,17,045,27,04,11,315,26,07,06,227,24,11,13,214,32*7A
00:01:55 $GPGSV,3,2,10,13,27,287,37,16,39,113,23,20,79,273,14,23,53,3,10,31,26,045,33,32,67,138,*75
00:01:56 Temperature:  board 96F (267 raw), int 69F (220 raw), ext 121F (310 raw)
00:01:56 Accelerometer X=407 Y=500 Z=348    X=0 Y=0 Z=0
00:01:56 $GPRMC,230333.00,A,3741.17398,N,12115.49820,W,0.264,,070410,,,A*66
00:01:56 $GPVTG,,T,,M,0.264,N,0.489,K,A*26
00:01:56 $GPGGA,230333.00,3741.17398,N,12115.49820,W,1,09,0.94,-4.8,M,-28.7,M,,*4D
00:01:56 $GPGSA,A,3,20,32,23,16,31,13,11,04,07,,,,1.65,0.94,1.35*0C
00:01:56 $GPGSV,3,1,10,01,17,045,27,04,11,315,26,07,06,227,25,11,13,214,32*7B
00:01:56 $GPGSV,3,2,10,13,27,287,37,16,39,113,24,20,79,273,14,23,5,3,10,31,26,045,33,32,67,138,14*70
00:01:57 Temperature:  board 96F (267 raw), int 69F (220 raw), ext 122F (311 raw)
00:01:57 Accelerometer X=406 Y=498 Z=349    X=0 Y=0 Z=0
00:01:57 $GPRMC,230334.00,A,3741.17393,N,12115.49831,W,1.099,,070410,,,A*6B
00:01:57 $GPVTG,,T,,M,1.099,N,2.035,K,A*26
00:01:57 $GPGGA,230334.00,3741.17393,N,12115.49831,W,1,09,0.94,-5.3,M,-28.7,M,,*4B
00:01:57 $GPGSA,A,3,20,32,23,16,31,13,11,04,07,,,,1.65,0.94,1.35*0C
00:01:57 $GPGSV,3,1,10,01,17,045,27,04,11,315,26,07,06,227,25,11,13,214,32*7B
00:01:57 $GPGSV,3,2,10,13,27,287,37,16,39,113,24,20,79,273,14,23,5,3,10,31,26,045,32,32,67,138,14*71
00:01:58 Temperature:  board 96F (267 raw), int 69F (220 raw), ext 122F (311 raw)
00:01:58 Accelerometer X=410 Y=499 Z=349    X=0 Y=0 Z=0
00:01:58 $GPRMC,230335.00,A,3741.17379,N,12115.49837,W,0.426,,070410,,,A*69
00:01:58 $GPVTG,,T,,M,0.426,N,0.789,K,A*25
00:01:58 $GPGGA,230335.00,3741.17379,N,12115.49837,W,1,09,0.94,-4.8,M,-28.7,M,,*42
00:01:58 $GPGSA,A,3,20,32,23,16,31,13,11,04,07,,,,1.65,0.94,1.35*0C
00:01:58 $GPGSV,3,1,10,01,17,045,27,04,11,315,26,07,06,227,25,11,13,214,32*7B
00:01:58 $GPGSV,3,2,10,13,27,287,37,16,39,113,24,20,79,273,15,23,5,3,10,31,26,045,33,32,67,138,16*72
00:01:59 Temperature:  board 96F (267 raw), int 70F (221 raw), ext 122F (311 raw)
00:01:59 Accelerometer X=406 Y=498 Z=348    X=0 Y=0 Z=0
00:01:59 $GPRMC,230336.00,A,3741.17381,N,12115.49843,W,0.604,,070410,,,A*6C
00:01:59 $GPVTG,,T,,M,0.604,N,1.119,K,A*29
00:01:59 $GPGGA,230336.00,3741.17381,N,12115.49843,W,1,09,0.92,-5.9,M,-28.7,M,,*43
00:01:59 $GPGSA,A,3,20,32,23,16,31,13,11,04,07,,,,1.53,0.92,1.23*08
00:01:59 $GPGSV,3,1,10,01,17,045,27,04,11,315,26,07,06,227,25,11,13,214,32*7B
