Sat Feb 12 18:46:19 2011 :GPSD,R=1
Sat Feb 12 18:46:19 2011 :$PMGNST,02.17,3,T,000,00.0,+02988,00*4C
Sat Feb 12 18:46:19 2011 :$GPGLL,3749.1011,N,12220.7725,W,024619.122,A*23
Sat Feb 12 18:46:19 2011 :$GPGGA,024619.12,3749.1011,N,12220.7725,W,1,08,1.8,00047,M,,,,*36
Sat Feb 12 18:46:19 2011 :$GPRMC,024619.12,A,3749.1011,N,12220.7725,W,22.4,245.2,130211,15,E*52
Sat Feb 12 18:46:19 2011 :$GPGSA,A,3,32,31,10,23,30,07,13,16,,,,,03.6,01.8,03.2*0D
Sat Feb 12 18:46:19 2011 :$GPGSV,3,1,10,23,69,360,44,20,61,184,42,16,48,084,46,13,43,308,42*72
Sat Feb 12 18:46:19 2011 :$GPGSV,3,2,10,32,40,154,42,30,39,062,41,07,24,242,38,04,15,295,*72
Sat Feb 12 18:46:20 2011 :$GPGSV,3,3,10,10,07,319,43,31,06,053,39,122,08,104,,134,15,250,*73
Sat Feb 12 18:46:20 2011 :$GPGLL,3749.0986,N,12220.7798,W,024620.130,A*2A
Sat Feb 12 18:46:20 2011 :$GPGGA,024620.13,3749.0986,N,12220.7798,W,1,09,1.6,00047,M,,,,*32
Sat Feb 12 18:46:20 2011 :$GPRMC,024620.13,A,3749.0986,N,12220.7798,W,22.4,247.9,130211,15,E*50
Sat Feb 12 18:46:20 2011 :$GPGSA,A,3,32,31,20,10,23,30,07,13,16,,,,03.3,01.6,02.9*0E
Sat Feb 12 18:46:20 2011 :$PMGNST,02.17,3,T,000,00.0,+02989,00*4D
Sat Feb 12 18:46:21 2011 :$GPGLL,3749.0963,N,12220.7868,W,024621.124,A*25
Sat Feb 12 18:46:21 2011 :$GPGGA,024621.12,3749.0963,N,12220.7868,W,1,08,1.6,00047,M,,,,*38
Sat Feb 12 18:46:21 2011 :$GPRMC,024621.12,A,3749.0963,N,12220.7868,W,21.3,247.5,130211,15,E*53
Sat Feb 12 18:46:21 2011 :$GPGSA,A,3,32,31,20,10,23,07,13,16,,,,,03.4,01.6,03.0*02
Sat Feb 12 18:46:21 2011 :$GPGSV,3,1,10,23,69,360,44,20,61,184,41,16,48,084,45,13,43,308,40*70
Sat Feb 12 18:46:21 2011 :$GPGSV,3,2,10,32,40,154,42,30,39,062,39,07,24,242,36,04,15,295,*73
Sat Feb 12 18:46:22 2011 :$GPGSV,3,3,10,10,07,319,44,31,06,053,39,122,08,104,,134,15,250,*74
Sat Feb 12 18:46:22 2011 :$GPGLL,3749.0940,N,12220.7936,W,024622.118,A*22
Sat Feb 12 18:46:22 2011 :$GPGGA,024622.12,3749.0940,N,12220.7936,W,1,06,2.0,00048,M,,,,*34
Sat Feb 12 18:46:22 2011 :$GPRMC,024622.12,A,3749.0940,N,12220.7936,W,20.5,247.4,130211,15,E*5D
Sat Feb 12 18:46:22 2011 :$GPGSA,A,3,32,24,20,10,23,16,,,,,,,04.0,02.0,03.4*01
Sat Feb 12 18:46:23 2011 :$PMGNST,02.17,3,T,000,00.0,+02989,00*4D
Sat Feb 12 18:46:23 2011 :$GPGLL,3749.0918,N,12220.8002,W,024623.126,A*22
Sat Feb 12 18:46:23 2011 :$GPGGA,024623.13,3749.0918,N,12220.8002,W,1,08,1.7,00048,M,,,,*32
Sat Feb 12 18:46:23 2011 :$GPRMC,024623.13,A,3749.0918,N,12220.8002,W,20.5,248.0,130211,15,E*5A
Sat Feb 12 18:46:23 2011 :$GPGSA,A,3,32,31,24,20,10,23,13,16,,,,,03.3,01.7,02.9*0D
Sat Feb 12 18:46:23 2011 :$GPGSV,3,1,10,23,69,360,45,20,61,184,42,16,48,084,46,13,43,308,42*73
Sat Feb 12 18:46:24 2011 :$GPGSV,3,2,10,32,40,154,42,30,39,062,40,07,24,242,36,04,15,295,*7D
Sat Feb 12 18:46:24 2011 :$GPGSV,3,3,10,10,07,319,46,31,06,053,36,122,08,104,,134,15,250,*79
Sat Feb 12 18:46:24 2011 :$GPGLL,3749.0897,N,12220.8067,W,024624.134,A*23
Sat Feb 12 18:46:24 2011 :$GPGGA,024624.13,3749.0897,N,12220.8067,W,1,10,1.5,00048,M,,,,*3B
Sat Feb 12 18:46:24 2011 :$GPRMC,024624.13,A,3749.0897,N,12220.8067,W,19.1,247.5,130211,15,E*5C
Sat Feb 12 18:46:25 2011 :$GPGSA,A,3,32,31,24,20,10,23,07,03,13,16,,,03.1,01.5,02.7*07
Sat Feb 12 18:46:25 2011 :$PMGNST,02.17,3,T,000,00.0,+02987,00*43
Sat Feb 12 18:46:25 2011 :$GPGLL,3749.0877,N,12220.8127,W,024625.128,A*24
Sat Feb 12 18:46:25 2011 :$GPGGA,024625.13,3749.0877,N,12220.8127,W,1,06,2.6,00049,M,,,,*37
Sat Feb 12 18:46:25 2011 :$GPRMC,024625.13,A,3749.0877,N,12220.8127,W,18.5,247.8,130211,15,E*5E
Sat Feb 12 18:46:25 2011 :$GPGSA,A,3,32,31,24,20,10,16,,,,,,,04.4,02.6,03.5*01
Sat Feb 12 18:46:25 2011 :$GPGSV,3,1,10,23,69,360,42,20,61,184,44,16,48,084,45,13,43,308,41*72
Sat Feb 12 18:46:25 2011 :$GPGSV,3,2,10,32,40,154,44,30,39,062,,07,24,242,,04,15,295,*7A
Sat Feb 12 18:46:26 2011 :$GPGSV,3,3,10,10,07,319,44,31,06,053,39,122,08,104,,134,15,250,*74
Sat Feb 12 18:46:26 2011 :$GPGLL,3749.0857,N,12220.8188,W,024626.136,A*2F
Sat Feb 12 18:46:26 2011 :$GPGGA,024626.14,3749.0857,N,12220.8188,W,1,08,1.7,00049,M,,,,*38
Sat Feb 12 18:46:26 2011 :$GPRMC,024626.14,A,3749.0857,N,12220.8188,W,18.7,246.9,130211,15,E*5F
Sat Feb 12 18:46:26 2011 :$GPGSA,A,3,32,31,24,20,10,23,13,16,,,,,03.3,01.7,02.9*0D
Sat Feb 12 18:46:26 2011 :$PMGNST,02.17,3,T,000,00.0,+02989,00*4D
Sat Feb 12 18:46:27 2011 :$GPGLL,3749.0837,N,12220.8249,W,024627.130,A*20
Sat Feb 12 18:46:27 2011 :$GPGGA,024627.13,3749.0837,N,12220.8249,W,1,08,1.6,00049,M,,,,*37
Sat Feb 12 18:46:27 2011 :$GPRMC,024627.13,A,3749.0837,N,12220.8249,W,19.2,248.2,130211,15,E*50
Sat Feb 12 18:46:27 2011 :$GPGSA,A,3,32,31,24,20,10,23,13,16,,,,,03.3,01.6,02.9*0C
Sat Feb 12 18:46:27 2011 :$GPGSV,3,1,10,23,69,360,44,20,61,184,45,16,48,084,47,13,43,308,42*74
Sat Feb 12 18:46:28 2011 :$GPGSV,3,2,10,32,40,154,42,30,39,062,,07,24,242,39,04,15,295,*76
Sat Feb 12 18:46:28 2011 :$GPGSV,3,3,10,10,07,319,44,31,06,053,38,122,08,104,,134,15,250,*75
Sat Feb 12 18:46:28 2011 :$GPGLL,3749.0816,N,12220.8313,W,024628.138,A*2A
Sat Feb 12 18:46:28 2011 :$GPGGA,024628.14,3749.0816,N,12220.8313,W,1,09,1.5,00049,M,,,,*30
Sat Feb 12 18:46:28 2011 :$GPRMC,024628.14,A,3749.0816,N,12220.8313,W,19.8,247.4,130211,15,E*56
Sat Feb 12 18:46:29 2011 :$GPGSA,A,3,32,31,24,20,10,23,07,13,16,,,,03.0,01.5,02.6*04
Sat Feb 12 18:46:29 2011 :$PMGNST,02.17,3,T,000,00.0,+02988,00*4C
Sat Feb 12 18:46:29 2011 :$GPGLL,3749.0794,N,12220.8380,W,024629.132,A*2E
Sat Feb 12 18:46:29 2011 :$GPGGA,024629.13,3749.0794,N,12220.8380,W,1,08,1.8,00049,M,,,,*35
Sat Feb 12 18:46:29 2011 :$GPRMC,024629.13,A,3749.0794,N,12220.8380,W,21.4,247.9,130211,15,E*55
Sat Feb 12 18:46:29 2011 :$GPGSA,A,3,32,31,24,20,10,23,07,16,,,,,02.9,01.8,02.2*07
Sat Feb 12 18:46:29 2011 :$GPGSV,3,1,10,23,69,360,46,20,61,184,40,16,48,084,46,13,43,308,42*72
Sat Feb 12 18:46:30 2011 :$GPGSV,3,2,10,32,40,154,42,30,39,062,41,07,24,242,41,04,15,295,*7C
Sat Feb 12 18:46:30 2011 :$GPGSV,3,3,10,10,07,319,45,31,06,053,39,122,08,104,,134,15,250,*75
Sat Feb 12 18:46:30 2011 :$GPGLL,3749.0772,N,12220.8452,W,024630.126,A*23
Sat Feb 12 18:46:30 2011 :$GPGGA,024630.13,3749.0772,N,12220.8452,W,1,08,1.9,00050,M,,,,*34
Sat Feb 12 18:46:30 2011 :$GPRMC,024630.13,A,3749.0772,N,12220.8452,W,22.9,248.5,130211,15,E*50
Sat Feb 12 18:46:30 2011 :$GPGSA,A,3,32,31,20,10,23,30,07,16,,,,,03.6,01.9,03.0*0E
Sat Feb 12 18:46:31 2011 :$PMGNST,02.17,3,T,000,00.0,+02988,00*4C
Sat Feb 12 18:46:31 2011 :$GPGLL,3749.0748,N,12220.8529,W,024631.134,A*25
Sat Feb 12 18:46:31 2011 :$GPGGA,024631.13,3749.0748,N,12220.8529,W,1,10,1.8,00050,M,,,,*39
Sat Feb 12 18:46:31 2011 :$GPRMC,024631.13,A,3749.0748,N,12220.8529,W,24.1,247.7,130211,15,E*56
Sat Feb 12 18:46:31 2011 :$GPGSA,A,3,32,31,24,20,10,23,30,04,13,16,,,03.4,01.8,02.9*02
Sat Feb 12 18:46:32 2011 :$GPGSV,3,1,10,23,69,360,50,20,61,184,42,16,48,084,47,13,43,308,36*75
Sat Feb 12 18:46:32 2011 :$GPGSV,3,2,10,32,40,154,39,30,39,062,46,07,24,242,36,04,15,295,36*72
Sat Feb 12 18:46:32 2011 :$GPGSV,3,3,10,10,07,319,42,31,06,053,38,122,08,104,,134,15,250,*73
Sat Feb 12 18:46:32 2011 :$GPGLL,3749.0722,N,12220.8608,W,024632.128,A*27
Sat Feb 12 18:46:32 2011 :$GPGGA,024632.13,3749.0722,N,12220.8608,W,1,09,1.9,00051,M,,,,*3E
Sat Feb 12 18:46:33 2011 :$GPRMC,024632.13,A,3749.0722,N,12220.8608,W,24.9,247.7,130211,15,E*51
Sat Feb 12 18:46:33 2011 :$GPGSA,A,3,32,31,24,20,10,23,30,07,16,,,,03.9,01.9,03.4*03
Sat Feb 12 18:46:33 2011 :$PMGNST,02.17,3,T,000,00.0,+02988,00*4C
Sat Feb 12 18:46:33 2011 :$GPGLL,3749.0696,N,12220.8689,W,024633.123,A*2A
Sat Feb 12 18:46:33 2011 :$GPGGA,024633.12,3749.0696,N,12220.8689,W,1,06,2.6,00051,M,,,,*3A
Sat Feb 12 18:46:33 2011 :$GPRMC,024633.12,A,3749.0696,N,12220.8689,W,25.3,248.2,130211,15,E*57
Sat Feb 12 18:46:34 2011 :$GPGSA,A,3,31,20,10,23,30,16,,,,,,,04.1,02.6,03.1*05
Sat Feb 12 18:46:34 2011 :$GPGSV,3,1,10,23,69,360,46,20,61,184,41,16,48,084,45,13,43,308,*76
Sat Feb 12 18:46:34 2011 :$GPGSV,3,2,10,32,40,154,39,30,39,062,40,07,24,242,,04,15,295,*74
Sat Feb 12 18:46:34 2011 :$GPGSV,3,3,10,10,07,319,45,31,06,053,36,122,08,104,,134,15,250,*7A
Sat Feb 12 18:46:34 2011 :$GPGLL,3749.0669,N,12220.8773,W,024634.131,A*2A
Sat Feb 12 18:46:34 2011 :$GPGGA,024634.13,3749.0669,N,12220.8773,W,1,06,2.5,00051,M,,,,*3B
Sat Feb 12 18:46:35 2011 :$GPRMC,024634.13,A,3749.0669,N,12220.8773,W,26.0,247.7,130211,15,E*5F
Sat Feb 12 18:46:35 2011 :$GPGSA,A,3,31,20,10,23,30,16,,,,,,,03.7,02.5,02.8*0F
Sat Feb 12 18:46:35 2011 :$PMGNST,02.17,3,T,000,00.0,+02988,00*4C
Sat Feb 12 18:46:35 2011 :$GPGLL,3749.0641,N,12220.8859,W,024635.124,A*22
Sat Feb 12 18:46:35 2011 :$GPGGA,024635.12,3749.0641,N,12220.8859,W,1,08,1.9,00052,M,,,,*34
Sat Feb 12 18:46:36 2011 :$GPRMC,024635.12,A,3749.0641,N,12220.8859,W,27.1,247.5,130211,15,E*50
Sat Feb 12 18:46:36 2011 :$GPGSA,A,3,32,31,24,20,10,23,07,16,,,,,03.7,01.9,03.2*08
Sat Feb 12 18:46:36 2011 :$GPGSV,3,1,10,23,69,360,48,20,61,184,41,16,48,084,45,13,43,308,*78
Sat Feb 12 18:46:36 2011 :$GPGSV,3,2,10,32,40,154,36,30,39,062,40,07,24,242,36,04,15,295,*7E
Sat Feb 12 18:46:36 2011 :$GPGSV,3,3,10,10,07,319,45,31,06,053,36,122,08,104,,134,15,250,*7A
Sat Feb 12 18:46:37 2011 :$GPGLL,3749.0612,N,12220.8949,W,024636.118,A*28
Sat Feb 12 18:46:37 2011 :$GPGGA,024636.12,3749.0612,N,12220.8949,W,1,07,2.5,00052,M,,,,*31
Sat Feb 12 18:46:37 2011 :$GPRMC,024636.12,A,3749.0612,N,12220.8949,W,28.5,248.2,130211,15,E*56
Sat Feb 12 18:46:37 2011 :$GPGSA,A,3,32,31,24,20,10,23,16,,,,,,03.8,02.5,02.9*05
Sat Feb 12 18:46:38 2011 :$PMGNST,02.17,3,T,000,00.0,+02987,00*43
Sat Feb 12 18:46:38 2011 :$GPGLL,3749.0583,N,12220.9040,W,024637.126,A*2E
Sat Feb 12 18:46:38 2011 :$GPGGA,024637.13,3749.0583,N,12220.9040,W,1,07,2.0,00053,M,,,,*3F
Sat Feb 12 18:46:38 2011 :$GPRMC,024637.13,A,3749.0583,N,12220.9040,W,27.1,247.7,130211,15,E*5D
Sat Feb 12 18:46:38 2011 :$GPGSA,A,3,32,31,24,20,10,23,16,,,,,,03.9,02.0,03.4*0D
Sat Feb 12 18:46:39 2011 :$GPGSV,3,1,10,23,69,360,49,20,61,184,42,16,48,084,45,13,43,308,*7A
Sat Feb 12 18:46:39 2011 :$GPGSV,3,2,10,32,40,154,39,30,39,062,,07,24,242,38,04,15,295,*7B
Sat Feb 12 18:46:39 2011 :$GPGSV,3,3,10,10,07,319,44,31,06,053,36,122,08,104,,134,15,250,*7B
Sat Feb 12 18:46:39 2011 :$GPGLL,3749.0555,N,12220.9129,W,024638.120,A*22
Sat Feb 12 18:46:39 2011 :$GPGGA,024638.12,3749.0555,N,12220.9129,W,1,08,1.8,00053,M,,,,*30
Sat Feb 12 18:46:39 2011 :$GPRMC,024638.12,A,3749.0555,N,12220.9129,W,27.5,248.4,130211,15,E*5E
Sat Feb 12 18:46:40 2011 :$GPGSA,A,3,32,31,24,20,10,23,07,16,,,,,03.6,01.8,03.1*0B
Sat Feb 12 18:46:40 2011 :$PMGNST,02.17,3,T,000,00.0,+02987,00*43
Sat Feb 12 18:46:40 2011 :$GPGLL,3749.0527,N,12220.9215,W,024639.115,A*2C
Sat Feb 12 18:46:40 2011 :$GPGGA,024639.11,3749.0527,N,12220.9215,W,1,06,4.3,00053,M,,,,*3B
Sat Feb 12 18:46:40 2011 :$GPRMC,024639.11,A,3749.0527,N,12220.9215,W,26.0,247.8,130211,15,E*52
Sat Feb 12 18:46:41 2011 :$GPGSA,A,3,31,24,20,10,23,07,,,,,,,06.2,04.3,04.5*01
Sat Feb 12 18:46:41 2011 :$GPGSV,3,1,10,23,69,360,49,20,61,184,42,16,48,084,47,13,43,308,*78
Sat Feb 12 18:46:41 2011 :$GPGSV,3,2,10,32,40,154,40,30,39,062,,07,24,242,41,04,15,295,*7B
Sat Feb 12 18:46:41 2011 :$GPGSV,3,3,10,10,07,319,42,31,06,053,36,122,08,104,,134,15,250,*7D
Sat Feb 12 18:46:41 2011 :$GPGLL,3749.0500,N,12220.9302,W,024640.138,A*2F
Sat Feb 12 18:46:41 2011 :$GPGGA,024640.14,3749.0500,N,12220.9302,W,1,06,2.1,00053,M,,,,*36
Sat Feb 12 18:46:41 2011 :$GPRMC,024640.14,A,3749.0500,N,12220.9302,W,25.8,248.4,130211,15,E*53
Sat Feb 12 18:46:42 2011 :$GPGSA,A,3,24,20,10,23,07,16,,,,,,,03.9,02.1,03.2*0E
Sat Feb 12 18:46:42 2011 :$PMGNST,02.17,3,T,000,00.0,+02988,00*4C
Sat Feb 12 18:46:42 2011 :$GPGLL,3749.0473,N,12220.9380,W,024641.132,A*2B
Sat Feb 12 18:46:42 2011 :$GPGGA,024641.13,3749.0473,N,12220.9380,W,1,06,2.5,00054,M,,,,*3C
Sat Feb 12 18:46:42 2011 :$GPRMC,024641.13,A,3749.0473,N,12220.9380,W,22.8,245.9,130211,15,E*5D
Sat Feb 12 18:46:43 2011 :$GPGSA,A,3,24,20,10,23,07,16,,,,,,,04.9,02.5,04.2*0A
Sat Feb 12 18:46:43 2011 :$GPGSV,3,1,10,23,69,360,49,20,61,184,45,16,48,084,46,13,43,308,*7E
Sat Feb 12 18:46:43 2011 :$GPGSV,3,2,10,32,40,154,39,30,39,062,,07,24,242,41,04,15,295,*75
Sat Feb 12 18:46:43 2011 :$GPGSV,3,3,10,10,07,319,40,31,06,053,,122,08,104,,134,15,250,*7A
Sat Feb 12 18:46:43 2011 :$GPGLL,3749.0451,N,12220.9445,W,024642.124,A*21
Sat Feb 12 18:46:43 2011 :$GPGGA,024642.12,3749.0451,N,12220.9445,W,1,07,2.0,00054,M,,,,*34
Sat Feb 12 18:46:44 2011 :$GPRMC,024642.12,A,3749.0451,N,12220.9445,W,17.7,247.9,130211,15,E*5A
Sat Feb 12 18:46:44 2011 :$GPGSA,A,3,32,24,20,10,23,07,16,,,,,,03.5,02.0,02.9*08
Sat Feb 12 18:46:44 2011 :$PMGNST,02.17,3,T,000,00.0,+02988,00*4C
Sat Feb 12 18:46:44 2011 :$GPGLL,3749.0435,N,12220.9496,W,024643.118,A*23
Sat Feb 12 18:46:44 2011 :$GPGGA,024643.12,3749.0435,N,12220.9496,W,1,07,1.9,00054,M,,,,*33
Sat Feb 12 18:46:45 2011 :$GPRMC,024643.12,A,3749.0435,N,12220.9496,W,14.3,247.7,130211,15,E*5E
Sat Feb 12 18:46:45 2011 :$GPGSA,A,3,32,24,20,10,23,07,16,,,,,,03.8,01.9,03.3*04
Sat Feb 12 18:46:45 2011 :$GPGSV,3,1,10,23,69,360,50,20,61,184,44,16,48,084,47,13,43,308,*76
Sat Feb 12 18:46:45 2011 :$GPGSV,3,2,10,32,40,154,39,30,39,062,43,07,24,242,36,04,15,295,*72
Sat Feb 12 18:46:45 2011 :$GPGSV,3,3,10,10,07,319,41,31,06,053,36,122,08,104,,134,15,250,*7E
Sat Feb 12 18:46:46 2011 :$GPGLL,3749.0421,N,12220.9538,W,024644.126,A*29
Sat Feb 12 18:46:46 2011 :$GPGGA,024644.13,3749.0421,N,12220.9538,W,1,08,1.8,00055,M,,,,*3A
Sat Feb 12 18:46:46 2011 :$GPRMC,024644.13,A,3749.0421,N,12220.9538,W,11.4,247.1,130211,15,E*5C
Sat Feb 12 18:46:46 2011 :$GPGSA,A,3,32,24,20,10,23,30,07,16,,,,,03.6,01.8,03.2*09
Sat Feb 12 18:46:47 2011 :$PMGNST,02.17,3,T,000,00.0,+02988,00*4C
Sat Feb 12 18:46:47 2011 :$GPGLL,3749.0410,N,12220.9573,W,024645.120,A*23
Sat Feb 12 18:46:47 2011 :$GPGGA,024645.12,3749.0410,N,12220.9573,W,1,10,1.7,00055,M,,,,*31
Sat Feb 12 18:46:47 2011 :$GPRMC,024645.12,A,3749.0410,N,12220.9573,W,09.8,247.7,130211,15,E*52
Sat Feb 12 18:46:47 2011 :$GPGSA,A,3,32,31,24,20,10,23,30,07,04,16,,,03.1,01.7,02.6*02
Sat Feb 12 18:46:47 2011 :$GPGSV,3,1,10,23,69,360,51,20,61,184,42,16,48,084,46,13,43,308,*70
Sat Feb 12 18:46:47 2011 :$GPGSV,3,2,10,32,40,154,41,30,39,062,45,07,24,242,36,04,15,295,36*7E
Sat Feb 12 18:46:47 2011 :$GPGSV,3,3,10,10,07,319,42,31,06,053,36,122,08,104,,134,15,250,*7D
Sat Feb 12 18:46:48 2011 :$GPGLL,3749.0399,N,12220.9605,W,024646.128,A*2C
Sat Feb 12 18:46:48 2011 :$GPGGA,024646.13,3749.0399,N,12220.9605,W,1,10,1.6,00055,M,,,,*36
Sat Feb 12 18:46:48 2011 :$GPRMC,024646.13,A,3749.0399,N,12220.9605,W,09.8,247.0,130211,15,E*53
Sat Feb 12 18:46:48 2011 :$GPGSA,A,3,32,31,24,20,10,23,30,07,04,16,,,02.6,01.6,02.0*03
Sat Feb 12 18:46:48 2011 :$PMGNST,02.17,3,T,000,00.0,+02988,00*4C
Sat Feb 12 18:46:49 2011 :$GPGLL,3749.0380,N,12220.9663,W,024648.116,A*27
Sat Feb 12 18:46:49 2011 :$GPGGA,024648.12,3749.0380,N,12220.9663,W,1,07,1.9,00056,M,,,,*3B
Sat Feb 12 18:46:49 2011 :$GPRMC,024648.12,A,3749.0380,N,12220.9663,W,08.9,249.0,130211,15,E*5A
Sat Feb 12 18:46:49 2011 :$GPGSA,A,3,32,20,10,23,30,13,16,,,,,,03.2,01.9,02.6*0A
Sat Feb 12 18:46:50 2011 :$GPGSV,3,1,10,23,69,360,46,20,61,184,42,16,48,084,46,13,43,308,43*71
Sat Feb 12 18:46:50 2011 :$GPGSV,3,2,10,32,40,154,41,30,39,062,46,07,24,242,,04,15,295,*7D
Sat Feb 12 18:46:50 2011 :$GPGSV,3,3,10,10,07,319,40,31,06,053,,122,08,104,,134,15,250,*7A
Sat Feb 12 18:46:50 2011 :$GPGLL,3749.0371,N,12220.9694,W,024649.124,A*21
Sat Feb 12 18:46:51 2011 :$GPGGA,024649.12,3749.0371,N,12220.9694,W,1,08,2.1,00056,M,,,,*38
Sat Feb 12 18:46:51 2011 :$GPRMC,024649.12,A,3749.0371,N,12220.9694,W,09.9,248.4,130211,15,E*59
Sat Feb 12 18:46:51 2011 :$GPGSA,A,3,32,31,24,20,10,23,30,16,,,,,03.2,02.1,02.5*04
Sat Feb 12 18:46:52 2011 :$PMGNST,02.17,3,T,000,00.0,+02987,00*43
Sat Feb 12 18:46:52 2011 :$GPGLL,3749.0362,N,12220.9726,W,024650.118,A*2C
Sat Feb 12 18:46:52 2011 :$GPGGA,024650.12,3749.0362,N,12220.9726,W,1,08,1.9,00056,M,,,,*31
Sat Feb 12 18:46:52 2011 :$GPRMC,024650.12,A,3749.0362,N,12220.9726,W,09.7,248.7,130211,15,E*56
Sat Feb 12 18:46:52 2011 :$GPGSA,A,3,32,31,24,20,10,23,30,16,,,,,03.4,01.9,02.8*04
Sat Feb 12 18:46:53 2011 :$GPGSV,3,1,10,23,69,360,48,20,61,184,43,16,48,084,46,13,43,308,*79
Sat Feb 12 18:46:53 2011 :$GPGSV,3,2,10,32,40,154,44,30,39,062,42,07,24,242,,04,15,295,*7C
Sat Feb 12 18:46:53 2011 :$GPGSV,3,3,10,10,07,319,41,31,06,053,41,122,08,104,,134,15,250,*7E
Sat Feb 12 18:46:53 2011 :$GPGLL,3749.0352,N,12220.9758,W,024651.126,A*2A
Sat Feb 12 18:46:53 2011 :$GPGGA,024651.13,3749.0352,N,12220.9758,W,1,07,2.3,00056,M,,,,*3D
Sat Feb 12 18:46:54 2011 :$GPRMC,024651.13,A,3749.0352,N,12220.9758,W,10.0,248.8,130211,15,E*5C
Sat Feb 12 18:46:54 2011 :$GPGSA,A,3,32,31,24,10,23,30,16,,,,,,03.4,02.3,02.5*02
Sat Feb 12 18:46:54 2011 :$PMGNST,02.17,3,T,000,00.0,+02988,00*4C
Sat Feb 12 18:46:54 2011 :$GPGLL,3749.0343,N,12220.9790,W,024652.120,A*2B
Sat Feb 12 18:46:54 2011 :$GPGGA,024652.12,3749.0343,N,12220.9790,W,1,07,2.0,00056,M,,,,*38
Sat Feb 12 18:46:54 2011 :$GPRMC,024652.12,A,3749.0343,N,12220.9790,W,09.5,248.4,130211,15,E*5B
Sat Feb 12 18:46:54 2011 :$GPGSA,A,3,32,31,20,10,23,30,16,,,,,,03.7,02.0,03.2*00
Sat Feb 12 18:46:54 2011 :$GPGSV,3,1,10,23,69,360,50,20,61,184,44,16,48,084,48,13,43,308,*79
Sat Feb 12 18:46:55 2011 :$GPGSV,3,2,10,32,40,154,40,30,39,062,39,07,24,242,,04,15,295,*74
Sat Feb 12 18:46:55 2011 :$GPGSV,3,3,10,10,07,319,44,31,06,053,44,122,08,104,,134,15,250,*7E
Sat Feb 12 18:46:55 2011 :$GPGLL,3749.0333,N,12220.9820,W,024653.128,A*21
Sat Feb 12 18:46:55 2011 :$GPGGA,024653.13,3749.0333,N,12220.9820,W,1,06,2.1,00056,M,,,,*3B
Sat Feb 12 18:46:55 2011 :$GPRMC,024653.13,A,3749.0333,N,12220.9820,W,09.3,248.9,130211,15,E*53
Sat Feb 12 18:46:55 2011 :$GPGSA,A,3,32,10,23,30,07,16,,,,,,,03.3,02.1,02.6*07
Sat Feb 12 18:46:56 2011 :$PMGNST,02.17,3,T,000,00.0,+02988,00*4C
Sat Feb 12 18:46:56 2011 :$GPGLL,3749.0324,N,12220.9853,W,024654.122,A*2E
Sat Feb 12 18:46:56 2011 :$GPGGA,024654.12,3749.0324,N,12220.9853,W,1,08,1.7,00056,M,,,,*34
Sat Feb 12 18:46:56 2011 :$GPRMC,024654.12,A,3749.0324,N,12220.9853,W,10.3,249.5,130211,15,E*52
Sat Feb 12 18:46:56 2011 :$GPGSA,A,3,32,31,20,10,23,30,07,16,,,,,02.7,01.7,02.1*00
Sat Feb 12 18:46:57 2011 :$GPGSV,3,1,10,23,69,360,48,20,61,184,43,16,48,084,47,13,43,308,*78
Sat Feb 12 18:46:57 2011 :$GPGSV,3,2,10,32,40,154,39,30,39,062,41,07,24,242,41,04,15,295,*70
Sat Feb 12 18:46:57 2011 :$GPGSV,3,3,10,10,07,319,44,31,06,053,38,122,08,104,,134,15,250,*75
Sat Feb 12 18:46:57 2011 :$GPGLL,3749.0314,N,12220.9888,W,024655.117,A*2C
Sat Feb 12 18:46:57 2011 :$GPGGA,024655.12,3749.0314,N,12220.9888,W,1,06,2.4,00056,M,,,,*3E
Sat Feb 12 18:46:58 2011 :$GPRMC,024655.12,A,3749.0314,N,12220.9888,W,11.6,251.2,130211,15,E*5C
Sat Feb 12 18:46:58 2011 :$GPGSA,A,3,31,10,23,30,07,16,,,,,,,04.0,02.4,03.1*03
Sat Feb 12 18:46:58 2011 :$PMGNST,02.17,3,T,000,00.0,+02988,00*4C
Sat Feb 12 18:46:58 2011 :$GPGLL,3749.0302,N,12220.9930,W,024656.125,A*2B
Sat Feb 12 18:46:58 2011 :$GPGGA,024656.13,3749.0302,N,12220.9930,W,1,06,2.5,00056,M,,,,*38
Sat Feb 12 18:46:58 2011 :$GPRMC,024656.13,A,3749.0302,N,12220.9930,W,13.7,248.2,130211,15,E*50
Sat Feb 12 18:46:58 2011 :$GPGSA,A,3,31,10,23,30,07,16,,,,,,,04.0,02.5,03.1*02
Sat Feb 12 18:46:59 2011 :$GPGSV,3,1,10,23,69,360,50,20,61,184,,16,48,084,45,13,43,308,*74
Sat Feb 12 18:46:59 2011 :$GPGSV,3,2,10,32,40,154,,30,39,062,39,07,24,242,39,04,15,295,*7A
Sat Feb 12 18:46:59 2011 :$GPGSV,3,3,10,10,07,319,39,31,06,053,40,122,08,104,,134,15,250,*70
Sat Feb 12 18:46:59 2011 :$GPGLL,3749.0288,N,12220.9977,W,024657.119,A*25
Sat Feb 12 18:47:00 2011 :$GPGGA,024657.12,3749.0288,N,12220.9977,W,1,05,7.8,00057,M,,,,*32
Sat Feb 12 18:47:00 2011 :$GPRMC,024657.12,A,3749.0288,N,12220.9977,W,15.2,248.1,130211,15,E*50
Sat Feb 12 18:47:00 2011 :$GPGSA,A,3,31,10,23,30,16,,,,,,,,08.8,07.8,04.1*0E
Sat Feb 12 18:47:00 2011 :$PMGNST,02.17,3,T,000,00.0,+02988,00*4C
Sat Feb 12 18:47:00 2011 :$GPGLL,3749.0271,N,12221.0027,W,024658.113,A*22
Sat Feb 12 18:47:00 2011 :$GPGGA,024658.11,3749.0271,N,12221.0027,W,1,07,2.4,00057,M,,,,*37
Sat Feb 12 18:47:00 2011 :$GPRMC,024658.11,A,3749.0271,N,12221.0027,W,16.0,247.1,130211,15,E*50
Sat Feb 12 18:47:00 2011 :$GPGSA,A,3,31,24,20,10,23,30,16,,,,,,03.7,02.4,02.7*07
Sat Feb 12 18:47:01 2011 :$GPGSV,3,1,10,23,69,360,49,20,61,184,44,16,48,084,45,13,43,308,*7C
Sat Feb 12 18:47:01 2011 :$GPGSV,3,2,10,32,40,154,,30,39,062,41,07,24,242,,04,15,295,*7F
Sat Feb 12 18:47:01 2011 :$GPGSV,3,3,10,10,07,319,43,31,06,053,41,122,08,104,,134,15,250,*7C
Sat Feb 12 18:47:01 2011 :$GPGLL,3749.0254,N,12221.0081,W,024659.121,A*29
Sat Feb 12 18:47:01 2011 :$GPGGA,024659.12,3749.0254,N,12221.0081,W,1,06,2.7,00057,M,,,,*3C
Sat Feb 12 18:47:01 2011 :$GPRMC,024659.12,A,3749.0254,N,12221.0081,W,17.3,248.4,130211,15,E*51
Sat Feb 12 18:47:02 2011 :$GPGSA,A,3,31,20,10,23,30,16,,,,,,,03.9,02.7,02.9*02
Sat Feb 12 18:47:02 2011 :$PMGNST,02.17,3,T,000,00.0,+02987,00*43
Sat Feb 12 18:47:02 2011 :$GPGLL,3749.0235,N,12221.0141,W,024700.115,A*29
Sat Feb 12 18:47:02 2011 :$GPGGA,024700.12,3749.0235,N,12221.0141,W,1,05,8.1,00057,M,,,,*34
Sat Feb 12 18:47:02 2011 :$GPRMC,024700.12,A,3749.0235,N,12221.0141,W,19.6,247.6,130211,15,E*50
Sat Feb 12 18:47:02 2011 :$GPGSA,A,3,31,10,23,30,16,,,,,,,,09.1,08.1,04.2*03
Sat Feb 12 18:47:03 2011 :$GPGSV,3,1,10,23,69,360,48,20,61,184,40,16,48,084,44,13,43,308,*78
Sat Feb 12 18:47:03 2011 :$GPGSV,3,2,10,32,40,154,,30,39,062,42,07,24,242,,04,15,295,*7C
Sat Feb 12 18:47:03 2011 :$GPGSV,3,3,10,10,07,319,40,31,06,053,40,122,08,104,,134,15,250,*7E
Sat Feb 12 18:47:03 2011 :$GPGLL,3749.0216,N,12221.0205,W,024701.123,A*2F
Sat Feb 12 18:47:03 2011 :$GPGGA,024701.12,3749.0216,N,12221.0205,W,1,05,6.3,00057,M,,,,*3B
Sat Feb 12 18:47:03 2011 :$GPRMC,024701.12,A,3749.0216,N,12221.0205,W,19.3,250.8,130211,15,E*5E
Sat Feb 12 18:47:04 2011 :$GPGSA,A,3,31,10,23,30,16,,,,,,,,07.7,06.3,04.4*01
Sat Feb 12 18:47:04 2011 :$PMGNST,02.17,3,T,000,00.0,+02985,00*41
Sat Feb 12 18:47:04 2011 :$GPGLL,3749.0196,N,12221.0271,W,024702.118,A*2C
Sat Feb 12 18:47:04 2011 :$GPGGA,024702.12,3749.0196,N,12221.0271,W,1,07,2.0,00057,M,,,,*35
Sat Feb 12 18:47:04 2011 :$GPRMC,024702.12,A,3749.0196,N,12221.0271,W,20.9,247.6,130211,15,E*5D
Sat Feb 12 18:47:04 2011 :$GPGSA,A,3,31,20,10,23,30,07,16,,,,,,03.0,02.0,02.2*00
Sat Feb 12 18:47:05 2011 :$GPGSV,3,1,10,23,69,360,49,20,61,184,40,16,48,084,46,13,43,308,*7B
Sat Feb 12 18:47:05 2011 :$GPGSV,3,2,10,32,40,154,,30,39,062,42,07,24,242,39,04,15,295,*76
Sat Feb 12 18:47:05 2011 :$GPGSV,3,3,10,10,07,319,43,31,06,053,40,122,08,104,,134,15,250,*7D
Sat Feb 12 18:47:05 2011 :$GPGLL,3749.0175,N,12221.0339,W,024703.126,A*20
Sat Feb 12 18:47:05 2011 :$GPGGA,024703.13,3749.0175,N,12221.0339,W,1,07,2.0,00057,M,,,,*35
Sat Feb 12 18:47:05 2011 :$GPRMC,024703.13,A,3749.0175,N,12221.0339,W,20.7,249.3,130211,15,E*58
Sat Feb 12 18:47:06 2011 :$GPGSA,A,3,31,20,10,23,30,07,16,,,,,,03.0,02.0,02.2*00
Sat Feb 12 18:47:06 2011 :$PMGNST,02.17,3,T,000,00.0,+02988,00*4C
Sat Feb 12 18:47:06 2011 :$GPGLL,3749.0175,N,12221.0339,W,024703.126,A*20
Sat Feb 12 18:47:06 2011 :$GPGGA,024703.13,3749.0175,N,12221.0339,W,1,07,2.0,00057,M,,,,*35
Sat Feb 12 18:47:06 2011 :$GPRMC,024703.13,A,3749.0175,N,12221.0339,W,20.7,249.3,130211,15,E*58
Sat Feb 12 18:47:06 2011 :$GPGSA,A,3,31,20,10,23,30,07,16,,,,,,03.0,02.0,02.2*00
Sat Feb 12 18:47:07 2011 :$GPGSV,3,1,10,23,69,360,48,20,61,184,40,16,48,084,44,13,43,308,*78
Sat Feb 12 18:47:07 2011 :$GPGSV,3,2,10,32,40,154,38,30,39,062,40,07,24,242,39,04,15,295,*7F
Sat Feb 12 18:47:07 2011 :$GPGSV,3,3,10,10,07,319,39,31,06,053,41,122,08,104,,134,15,250,*71
Sat Feb 12 18:47:07 2011 :$GPGLL,3749.0131,N,12221.0481,W,024705.127,A*23
Sat Feb 12 18:47:07 2011 :$GPGGA,024705.13,3749.0131,N,12221.0481,W,1,08,1.9,00057,M,,,,*32
Sat Feb 12 18:47:08 2011 :$GPRMC,024705.13,A,3749.0131,N,12221.0481,W,22.6,247.9,130211,15,E*5D
Sat Feb 12 18:47:08 2011 :$GPGSA,A,3,32,31,20,10,23,30,07,16,,,,,02.9,01.9,02.3*02
Sat Feb 12 18:47:08 2011 :$PMGNST,02.17,3,T,000,00.0,+02989,00*4D
Sat Feb 12 18:47:08 2011 :$GPGLL,3749.0107,N,12221.0555,W,024706.121,A*2B
Sat Feb 12 18:47:08 2011 :$GPGGA,024706.12,3749.0107,N,12221.0555,W,1,08,1.8,00057,M,,,,*3C
Sat Feb 12 18:47:08 2011 :$GPRMC,024706.12,A,3749.0107,N,12221.0555,W,23.2,247.7,130211,15,E*59
Sat Feb 12 18:47:08 2011 :$GPGSA,A,3,32,31,20,10,23,30,07,16,,,,,02.8,01.8,02.2*03
Sat Feb 12 18:47:09 2011 :$GPGSV,3,1,10,23,69,360,49,20,61,184,41,16,48,084,44,13,43,308,*78
Sat Feb 12 18:47:09 2011 :$GPGSV,3,2,10,32,40,154,39,30,39,062,44,07,24,242,38,04,15,295,*7B
Sat Feb 12 18:47:09 2011 :$GPGSV,3,3,10,10,07,319,41,31,06,053,38,122,08,104,,134,15,250,*70
Sat Feb 12 18:47:09 2011 :$GPGLL,3749.0083,N,12221.0631,W,024707.129,A*2E
Sat Feb 12 18:47:09 2011 :$GPGGA,024707.13,3749.0083,N,12221.0631,W,1,07,2.0,00057,M,,,,*34
Sat Feb 12 18:47:10 2011 :$GPRMC,024707.13,A,3749.0083,N,12221.0631,W,23.2,248.0,130211,15,E*5D
Sat Feb 12 18:47:10 2011 :$GPGSA,A,3,32,31,20,10,23,30,16,,,,,,03.8,02.0,03.3*0E
Sat Feb 12 18:47:10 2011 :$PMGNST,02.17,3,T,000,00.0,+02987,00*43
Sat Feb 12 18:47:10 2011 :$GPGLL,3749.0057,N,12221.0708,W,024708.137,A*2C
Sat Feb 12 18:47:10 2011 :$GPGGA,024708.14,3749.0057,N,12221.0708,W,1,09,1.7,00057,M,,,,*34
Sat Feb 12 18:47:10 2011 :$GPRMC,024708.14,A,3749.0057,N,12221.0708,W,23.9,246.9,130211,15,E*5B
Sat Feb 12 18:47:10 2011 :$GPGSA,A,3,32,31,24,20,10,23,30,07,16,,,,02.7,01.7,02.1*06
Sat Feb 12 18:47:10 2011 :$GPGSV,3,1,10,23,69,360,49,20,61,184,42,16,48,084,45,13,43,308,*7A
Sat Feb 12 18:47:11 2011 :$GPGSV,3,2,10,32,40,154,41,30,39,062,42,07,24,242,39,04,15,295,*73
Sat Feb 12 18:47:11 2011 :$GPGSV,3,3,10,10,07,319,42,31,06,053,39,122,08,104,,134,15,250,*72
Sat Feb 12 18:47:11 2011 :$GPGLL,3749.0032,N,12221.0784,W,024709.131,A*2C
Sat Feb 12 18:47:11 2011 :$GPGGA,024709.13,3749.0032,N,12221.0784,W,1,09,1.9,00057,M,,,,*3B
Sat Feb 12 18:47:11 2011 :$GPRMC,024709.13,A,3749.0032,N,12221.0784,W,23.6,247.3,130211,15,E*5E
Sat Feb 12 18:47:11 2011 :$GPGSA,A,3,32,31,24,20,10,23,30,07,16,,,,03.2,01.9,02.6*0B
Sat Feb 12 18:47:12 2011 :$PMGNST,02.17,3,T,000,00.0,+02988,00*4C
Sat Feb 12 18:47:12 2011 :$GPGLL,3749.0007,N,12221.0860,W,024710.125,A*22
Sat Feb 12 18:47:12 2011 :$GPGGA,024710.12,3749.0007,N,12221.0860,W,1,07,2.3,00058,M,,,,*39
Sat Feb 12 18:47:12 2011 :$GPRMC,024710.12,A,3749.0007,N,12221.0860,W,23.2,247.8,130211,15,E*5B
Sat Feb 12 18:47:12 2011 :$GPGSA,A,3,32,31,24,20,10,23,16,,,,,,03.6,02.3,02.7*03
Sat Feb 12 18:47:12 2011 :$GPGSV,3,1,10,23,69,360,48,20,61,184,44,16,48,084,46,13,43,308,*7E
Sat Feb 12 18:47:13 2011 :$GPGSV,3,2,10,32,40,154,,30,39,062,39,07,24,242,38,04,15,295,*7B
Sat Feb 12 18:47:13 2011 :$GPGSV,3,3,10,10,07,319,42,31,06,053,38,122,08,104,,134,15,250,*73
Sat Feb 12 18:47:13 2011 :$GPGLL,3748.9983,N,12221.0933,W,024711.134,A*29
Sat Feb 12 18:47:13 2011 :$GPGGA,024711.13,3748.9983,N,12221.0933,W,1,07,2.4,00058,M,,,,*34
Sat Feb 12 18:47:14 2011 :$GPRMC,024711.13,A,3748.9983,N,12221.0933,W,21.7,246.7,130211,15,E*58
Sat Feb 12 18:47:14 2011 :$GPGSA,A,3,31,20,10,23,30,07,16,,,,,,04.1,02.4,03.3*02
Sat Feb 12 18:47:14 2011 :$PMGNST,02.17,3,T,000,00.0,+02987,00*43
Sat Feb 12 18:47:14 2011 :$GPGLL,3748.9960,N,12221.1002,W,024712.128,A*20
Sat Feb 12 18:47:14 2011 :$GPGGA,024712.13,3748.9960,N,12221.1002,W,1,07,2.0,00058,M,,,,*34
Sat Feb 12 18:47:14 2011 :$GPRMC,024712.13,A,3748.9960,N,12221.1002,W,21.4,246.7,130211,15,E*5F
Sat Feb 12 18:47:14 2011 :$GPGSA,A,3,31,20,10,23,30,07,16,,,,,,02.9,02.0,02.2*08
Sat Feb 12 18:47:15 2011 :$GPGSV,3,1,10,23,69,002,48,20,60,184,43,16,48,083,46,13,44,309,*7E
Sat Feb 12 18:47:15 2011 :$GPGSV,3,2,10,32,39,154,,30,38,061,40,07,25,243,39,04,15,294,*79
Sat Feb 12 18:47:15 2011 :$GPGSV,3,3,10,10,08,319,41,31,06,053,41,122,08,104,,134,15,250,*71
Sat Feb 12 18:47:15 2011 :$GPGLL,3748.9936,N,12221.1072,W,024713.122,A*2F
Sat Feb 12 18:47:15 2011 :$GPGGA,024713.12,3748.9936,N,12221.1072,W,1,06,2.2,00058,M,,,,*33
Sat Feb 12 18:47:15 2011 :$GPRMC,024713.12,A,3748.9936,N,12221.1072,W,22.0,247.1,130211,15,E*5B
Sat Feb 12 18:47:16 2011 :$GPGSA,A,3,31,20,10,23,07,16,,,,,,,03.2,02.2,02.4*05
Sat Feb 12 18:47:16 2011 :$PMGNST,02.17,3,T,000,00.0,+02988,00*4C
Sat Feb 12 18:47:16 2011 :$GPGLL,3748.9912,N,12221.1142,W,024714.130,A*2F
Sat Feb 12 18:47:16 2011 :$GPGGA,024714.13,3748.9912,N,12221.1142,W,1,08,2.0,00058,M,,,,*3D
Sat Feb 12 18:47:16 2011 :$GPRMC,024714.13,A,3748.9912,N,12221.1142,W,21.0,246.6,130211,15,E*5C
Sat Feb 12 18:47:16 2011 :$GPGSA,A,3,31,20,10,23,30,07,03,16,,,,,02.9,02.0,02.1*08
Sat Feb 12 18:47:17 2011 :$GPGSV,3,1,10,23,69,002,49,20,60,184,42,16,48,083,46,13,44,309,*7E
Sat Feb 12 18:47:17 2011 :$GPGSV,3,2,10,32,39,154,41,30,38,061,41,07,25,243,40,04,15,294,*73
Sat Feb 12 18:47:17 2011 :$GPGSV,3,3,10,10,08,319,41,31,06,053,41,122,08,104,,134,15,250,*71
Sat Feb 12 18:47:17 2011 :$GPGLL,3748.9889,N,12221.1212,W,024715.137,A*2C
Sat Feb 12 18:47:17 2011 :$GPGGA,024715.14,3748.9889,N,12221.1212,W,1,09,1.8,00058,M,,,,*34
Sat Feb 12 18:47:18 2011 :$GPRMC,024715.14,A,3748.9889,N,12221.1212,W,21.2,248.6,130211,15,E*53
Sat Feb 12 18:47:18 2011 :$GPGSA,A,3,32,31,20,10,23,30,07,03,16,,,,03.4,01.8,02.9*06
Sat Feb 12 18:47:18 2011 :$PMGNST,02.17,3,T,000,00.0,+02987,00*43
Sat Feb 12 18:47:18 2011 :$GPGLL,3748.9868,N,12221.1280,W,024716.131,A*2D
Sat Feb 12 18:47:18 2011 :$GPGGA,024716.13,3748.9868,N,12221.1280,W,1,09,1.8,00058,M,,,,*34
Sat Feb 12 18:47:18 2011 :$GPRMC,024716.13,A,3748.9868,N,12221.1280,W,20.5,248.0,130211,15,E*53
Sat Feb 12 18:47:18 2011 :$GPGSA,A,3,32,31,20,10,23,30,07,03,16,,,,03.4,01.8,02.9*06
Sat Feb 12 18:47:19 2011 :$GPGSV,3,1,10,23,69,002,48,20,60,184,41,16,48,083,46,13,44,309,*7C
Sat Feb 12 18:47:19 2011 :$GPGSV,3,2,10,32,39,154,41,30,38,061,43,07,25,243,39,04,15,294,*7F
Sat Feb 12 18:47:19 2011 :$GPGSV,3,3,10,10,08,319,41,31,06,053,39,122,08,104,,134,15,250,*7E
Sat Feb 12 18:47:19 2011 :$GPGLL,3748.9847,N,12221.1347,W,024717.125,A*2E
Sat Feb 12 18:47:19 2011 :$GPGGA,024717.12,3748.9847,N,12221.1347,W,1,08,1.8,00059,M,,,,*33
Sat Feb 12 18:47:20 2011 :$GPRMC,024717.12,A,3748.9847,N,12221.1347,W,20.4,248.3,130211,15,E*56
Sat Feb 12 18:47:20 2011 :$GPGSA,A,3,32,31,20,10,23,30,07,16,,,,,03.4,01.8,02.9*05
Sat Feb 12 18:47:20 2011 :$PMGNST,02.17,3,T,000,00.0,+02988,00*4C
Sat Feb 12 18:47:20 2011 :$GPGLL,3748.9826,N,12221.1414,W,024718.119,A*28
Sat Feb 12 18:47:20 2011 :$GPGGA,024718.12,3748.9826,N,12221.1414,W,1,08,1.9,00059,M,,,,*3B
Sat Feb 12 18:47:20 2011 :$GPRMC,024718.12,A,3748.9826,N,12221.1414,W,20.7,248.0,130211,15,E*5F
Sat Feb 12 18:47:20 2011 :$GPGSA,A,3,32,31,20,10,23,30,07,16,,,,,03.0,01.9,02.3*0A
Sat Feb 12 18:47:21 2011 :$GPGSV,3,1,10,23,69,002,50,20,60,184,44,16,48,083,47,13,44,309,*71
Sat Feb 12 18:47:21 2011 :$GPGSV,3,2,10,32,39,154,39,30,38,061,44,07,25,243,38,04,15,294,*76
Sat Feb 12 18:47:21 2011 :$GPGSV,3,3,10,10,08,319,41,31,06,053,39,122,08,104,,134,15,250,*7E
Sat Feb 12 18:47:21 2011 :$GPGLL,3748.9804,N,12221.1483,W,024719.127,A*2A
Sat Feb 12 18:47:21 2011 :$GPGGA,024719.13,3748.9804,N,12221.1483,W,1,08,1.7,00059,M,,,,*3B
Sat Feb 12 18:47:22 2011 :$GPRMC,024719.13,A,3748.9804,N,12221.1483,W,21.5,247.8,130211,15,E*55
Sat Feb 12 18:47:22 2011 :$GPGSA,A,3,32,31,20,10,23,30,07,16,,,,,02.7,01.7,02.1*00
Sat Feb 12 18:47:22 2011 :$PMGNST,02.17,3,T,000,00.0,+02987,00*43
Sat Feb 12 18:47:22 2011 :$GPGLL,3748.9781,N,12221.1554,W,024720.121,A*2F
Sat Feb 12 18:47:22 2011 :$GPGGA,024720.12,3748.9781,N,12221.1554,W,1,08,1.9,00059,M,,,,*37
Sat Feb 12 18:47:22 2011 :$GPRMC,024720.12,A,3748.9781,N,12221.1554,W,22.3,247.6,130211,15,E*5C
Sat Feb 12 18:47:22 2011 :$GPGSA,A,3,32,31,20,10,23,30,07,16,,,,,03.6,01.9,03.0*0E
Sat Feb 12 18:47:22 2011 :$GPGSV,3,1,10,23,69,002,48,20,60,184,39,16,48,083,46,13,44,309,*73
Sat Feb 12 18:47:23 2011 :$GPGSV,3,2,10,32,39,154,40,30,38,061,44,07,25,243,,04,15,294,*73
Sat Feb 12 18:47:23 2011 :$GPGSV,3,3,10,10,08,319,40,31,06,053,42,122,08,104,,134,15,250,*73
Sat Feb 12 18:47:23 2011 :$GPGLL,3748.9733,N,12221.1703,W,024722.123,A*26
Sat Feb 12 18:47:23 2011 :$GPGGA,024722.12,3748.9733,N,12221.1703,W,1,06,2.5,00059,M,,,,*3D
Sat Feb 12 18:47:23 2011 :$GPRMC,024722.12,A,3748.9733,N,12221.1703,W,23.3,247.6,130211,15,E*56
Sat Feb 12 18:47:23 2011 :$GPGSA,A,3,32,31,10,23,30,16,,,,,,,03.7,02.5,02.7*03
Sat Feb 12 18:47:24 2011 :$PMGNST,02.17,3,T,000,00.0,+02989,00*4D
Sat Feb 12 18:47:24 2011 :$GPGLL,3748.9709,N,12221.1778,W,024723.117,A*25
Sat Feb 12 18:47:24 2011 :$GPGGA,024723.12,3748.9709,N,12221.1778,W,1,06,2.4,00059,M,,,,*38
Sat Feb 12 18:47:24 2011 :$GPRMC,024723.12,A,3748.9709,N,12221.1778,W,23.5,248.1,130211,15,E*5C
Sat Feb 12 18:47:25 2011 :$GPGSA,A,3,32,31,10,23,30,16,,,,,,,04.6,02.4,04.0*05
Sat Feb 12 18:47:25 2011 :$GPGSV,3,1,10,23,69,002,49,20,60,184,,16,48,083,46,13,44,309,*78
Sat Feb 12 18:47:25 2011 :$GPGSV,3,2,10,32,39,154,41,30,38,061,42,07,25,243,,04,15,294,*74
Sat Feb 12 18:47:25 2011 :$GPGSV,3,3,10,10,08,319,41,31,06,053,36,122,08,104,,134,15,250,*71
Sat Feb 12 18:47:25 2011 :$GPGLL,3748.9685,N,12221.1855,W,024724.125,A*26
Sat Feb 12 18:47:26 2011 :$GPGGA,024724.12,3748.9685,N,12221.1855,W,1,06,2.6,00060,M,,,,*32
Sat Feb 12 18:47:26 2011 :$GPRMC,024724.12,A,3748.9685,N,12221.1855,W,23.7,248.0,130211,15,E*5D
Sat Feb 12 18:47:27 2011 :$GPGSA,A,3,32,31,10,23,30,16,,,,,,,03.8,02.6,02.7*0F
Sat Feb 12 18:47:27 2011 :$PMGNST,02.17,3,T,000,00.0,+02987,00*43
Sat Feb 12 18:47:27 2011 :$GPGLL,3748.9659,N,12221.1930,W,024725.119,A*2B
Sat Feb 12 18:47:27 2011 :$GPGGA,024725.12,3748.9659,N,12221.1930,W,1,06,2.6,00060,M,,,,*30
Sat Feb 12 18:47:27 2011 :$GPRMC,024725.12,A,3748.9659,N,12221.1930,W,23.2,244.8,130211,15,E*5E
Sat Feb 12 18:47:27 2011 :$GPGSA,A,3,32,31,10,23,30,16,,,,,,,03.8,02.6,02.7*0F
Sat Feb 12 18:47:27 2011 :$GPGSV,3,1,10,23,69,002,46,20,60,184,,16,48,083,44,13,44,309,*75
Sat Feb 12 18:47:28 2011 :$GPGSV,3,2,10,32,39,154,39,30,38,061,43,07,25,243,36,04,15,294,*7F
Sat Feb 12 18:47:28 2011 :$GPGSV,3,3,10,10,08,319,41,31,06,053,39,122,08,104,,134,15,250,*7E
Sat Feb 12 18:47:28 2011 :$GPGLL,3748.9632,N,12221.2003,W,024726.114,A*22
Sat Feb 12 18:47:28 2011 :$GPGGA,024726.11,3748.9632,N,12221.2003,W,1,06,2.5,00060,M,,,,*34
Sat Feb 12 18:47:28 2011 :$GPRMC,024726.11,A,3748.9632,N,12221.2003,W,23.2,245.8,130211,15,E*58
Sat Feb 12 18:47:29 2011 :$GPGSA,A,3,31,10,23,30,07,16,,,,,,,04.1,02.5,03.2*00
Sat Feb 12 18:47:29 2011 :$PMGNST,02.17,3,T,000,00.0,+02988,00*4C
Sat Feb 12 18:47:29 2011 :$GPGLL,3748.9612,N,12221.2076,W,024727.122,A*26
Sat Feb 12 18:47:29 2011 :$GPGGA,024727.12,3748.9612,N,12221.2076,W,1,05,6.7,00060,M,,,,*33
Sat Feb 12 18:47:29 2011 :$GPRMC,024727.12,A,3748.9612,N,12221.2076,W,20.5,255.0,130211,15,E*57
Sat Feb 12 18:47:29 2011 :$GPGSA,A,3,31,10,23,30,16,,,,,,,,08.4,06.7,05.0*0C
Sat Feb 12 18:47:29 2011 :$GPGSV,3,1,10,23,69,002,42,20,60,184,41,16,48,083,44,13,44,309,*74
Sat Feb 12 18:47:29 2011 :$GPGSV,3,2,10,32,39,154,,30,38,061,42,07,25,243,36,04,15,294,*74
Sat Feb 12 18:47:30 2011 :$GPGSV,3,3,10,10,08,319,38,31,06,053,39,122,08,104,,134,15,250,*70
Sat Feb 12 18:47:30 2011 :$GPGLL,3748.9595,N,12221.2148,W,024728.115,A*2D
Sat Feb 12 18:47:30 2011 :$GPGGA,024728.12,3748.9595,N,12221.2148,W,1,07,2.3,00062,M,,,,*3C
Sat Feb 12 18:47:30 2011 :$GPRMC,024728.12,A,3748.9595,N,12221.2148,W,22.7,250.9,130211,15,E*54
Sat Feb 12 18:47:30 2011 :$GPGSA,A,3,32,31,20,10,23,07,16,,,,,,04.9,02.3,04.3*08
Sat Feb 12 18:47:30 2011 :$PMGNST,02.17,3,T,000,00.0,+02986,00*42
Sat Feb 12 18:47:31 2011 :$GPGLL,3748.9572,N,12221.2224,W,024729.124,A*2E
Sat Feb 12 18:47:31 2011 :$GPGGA,024729.12,3748.9572,N,12221.2224,W,1,06,5.3,00063,M,,,,*3A
Sat Feb 12 18:47:31 2011 :$GPRMC,024729.12,A,3748.9572,N,12221.2224,W,23.3,249.3,130211,15,E*52
Sat Feb 12 18:47:31 2011 :$GPGSA,A,3,31,20,10,30,07,16,,,,,,,09.1,05.3,07.4*0D
Sat Feb 12 18:47:31 2011 :$GPGSV,3,1,10,23,69,002,40,20,60,184,41,16,48,083,44,13,44,309,*76
Sat Feb 12 18:47:31 2011 :$GPGSV,3,2,10,32,39,154,36,30,38,061,41,07,25,243,36,04,15,294,*72
Sat Feb 12 18:47:32 2011 :$GPGSV,3,3,10,10,08,319,41,31,06,053,40,122,08,104,,134,15,250,*70
Sat Feb 12 18:47:32 2011 :$GPGLL,3748.9549,N,12221.2299,W,024730.118,A*27
Sat Feb 12 18:47:32 2011 :$GPGGA,024730.12,3748.9549,N,12221.2299,W,1,05,6.1,00063,M,,,,*3E
Sat Feb 12 18:47:32 2011 :$GPRMC,024730.12,A,3748.9549,N,12221.2299,W,23.2,247.2,130211,15,E*5A
Sat Feb 12 18:47:33 2011 :$GPGSA,A,3,31,20,10,30,16,,,,,,,,10.7,06.1,08.8*06
Sat Feb 12 18:47:33 2011 :$PMGNST,02.17,3,T,000,00.0,+02988,00*4C
Sat Feb 12 18:47:33 2011 :$GPGLL,3748.9524,N,12221.2373,W,024731.114,A*24
Sat Feb 12 18:47:33 2011 :$GPGGA,024731.11,3748.9524,N,12221.2373,W,1,04,2.8,00063,M,,,,*3E
Sat Feb 12 18:47:33 2011 :$GPRMC,024731.11,A,3748.9524,N,12221.2373,W,22.4,247.0,130211,15,E*53
Sat Feb 12 18:47:33 2011 :$GPGSA,A,3,20,10,23,16,,,,,,,,,05.2,02.8,04.4*0A
Sat Feb 12 18:47:34 2011 :$GPGSV,3,1,10,23,69,002,48,20,60,184,40,16,48,083,47,13,44,309,*7C
Sat Feb 12 18:47:34 2011 :$GPGSV,3,2,10,32,39,154,,30,38,061,39,07,25,243,,04,15,294,*7D
Sat Feb 12 18:47:34 2011 :$GPGSV,3,3,10,10,08,319,42,31,06,053,36,122,08,104,,134,15,250,*72
Sat Feb 12 18:47:34 2011 :$GPGLL,3748.9500,N,12221.2445,W,024732.120,A*24
Sat Feb 12 18:47:34 2011 :$GPGGA,024732.12,3748.9500,N,12221.2445,W,1,05,2.7,00063,M,,,,*34
Sat Feb 12 18:47:35 2011 :$GPRMC,024732.12,A,3748.9500,N,12221.2445,W,21.7,247.6,130211,15,E*51
Sat Feb 12 18:47:35 2011 :$GPGSA,A,3,31,20,10,23,16,,,,,,,,04.6,02.7,03.7*06
Sat Feb 12 18:47:35 2011 :$PMGNST,02.17,3,T,000,00.0,+02988,00*4C
Sat Feb 12 18:47:35 2011 :$GPGLL,3748.9477,N,12221.2514,W,024733.114,A*26
Sat Feb 12 18:47:35 2011 :$GPGGA,024733.11,3748.9477,N,12221.2514,W,1,05,3.0,00063,M,,,,*34
Sat Feb 12 18:47:35 2011 :$GPRMC,024733.11,A,3748.9477,N,12221.2514,W,21.7,247.0,130211,15,E*51
Sat Feb 12 18:47:35 2011 :$GPGSA,A,3,31,20,10,23,16,,,,,,,,04.2,03.0,02.9*0B
Sat Feb 12 18:47:36 2011 :$GPGSV,3,1,10,23,69,002,50,20,60,184,41,16,48,083,42,13,44,309,*71
Sat Feb 12 18:47:36 2011 :$GPGSV,3,2,10,32,39,154,,30,38,061,,07,25,243,,04,15,294,*77
Sat Feb 12 18:47:36 2011 :$GPGSV,3,3,10,10,08,319,41,31,06,053,41,122,08,104,,134,15,250,*71
Sat Feb 12 18:47:36 2011 :$GPGLL,3748.9453,N,12221.2585,W,024734.122,A*2A
Sat Feb 12 18:47:36 2011 :$GPGGA,024734.12,3748.9453,N,12221.2585,W,1,04,11.3,00064,M,,,,*08
Sat Feb 12 18:47:37 2011 :$GPRMC,024734.12,A,3748.9453,N,12221.2585,W,22.0,246.5,130211,15,E*5B
Sat Feb 12 18:47:37 2011 :$GPGSA,A,3,31,10,23,16,,,,,,,,,12.2,11.3,04.7*06
Sat Feb 12 18:47:37 2011 :$PMGNST,02.17,3,T,000,00.0,+02989,00*4D
Sat Feb 12 18:47:37 2011 :$GPGLL,3748.9428,N,12221.2657,W,024735.116,A*2C
Sat Feb 12 18:47:37 2011 :$GPGGA,024735.12,3748.9428,N,12221.2657,W,1,04,11.4,00064,M,,,,*0E
Sat Feb 12 18:47:37 2011 :$GPRMC,024735.12,A,3748.9428,N,12221.2657,W,22.8,245.3,130211,15,E*57
Sat Feb 12 18:47:37 2011 :$GPGSA,A,3,31,10,23,16,,,,,,,,,12.4,11.4,04.8*08
Sat Feb 12 18:47:38 2011 :$GPGSV,3,1,10,23,69,002,47,20,60,184,42,16,48,083,41,13,44,309,*77
Sat Feb 12 18:47:38 2011 :$GPGSV,3,2,10,32,39,154,,30,38,061,,07,25,243,,04,15,294,*77
Sat Feb 12 18:47:38 2011 :$GPGSV,3,3,10,10,08,319,39,31,06,053,36,122,08,104,,134,15,250,*7E
Sat Feb 12 18:47:38 2011 :$GPGLL,3748.9386,N,12221.2772,W,024736.705,A*2E
Sat Feb 12 18:47:38 2011 :$GPGGA,024736.70,3748.9386,N,12221.2772,W,1,04,11.4,00064,M,,,,*0C
Sat Feb 12 18:47:39 2011 :$GPRMC,024736.70,A,3748.9386,N,12221.2772,W,22.8,245.3,130211,15,E*55
Sat Feb 12 18:47:39 2011 :$GPGSA,A,3,31,10,23,16,,,,,,,,,12.4,11.4,04.8*08
Sat Feb 12 18:47:39 2011 :$PMGNST,02.17,3,T,000,00.0,+02990,10*44
Sat Feb 12 18:47:39 2011 :$GPGLL,3748.9376,N,12221.2795,W,024737.120,A*28
Sat Feb 12 18:47:39 2011 :$GPGGA,024737.12,3748.9376,N,12221.2795,W,1,04,3.1,00062,M,,,,*3F
Sat Feb 12 18:47:39 2011 :$GPRMC,024737.12,A,3748.9376,N,12221.2795,W,20.9,243.7,130211,15,E*57
Sat Feb 12 18:47:39 2011 :$GPGSA,A,3,20,10,23,16,,,,,,,,,05.8,03.1,04.9*05
Sat Feb 12 18:47:40 2011 :$GPGSV,3,1,10,23,69,002,44,20,60,184,41,16,48,083,44,13,44,309,*72
Sat Feb 12 18:47:40 2011 :$GPGSV,3,2,10,32,39,154,,30,38,061,,07,25,243,,04,15,294,*77
Sat Feb 12 18:47:40 2011 :$GPGSV,3,3,10,10,08,319,44,31,06,053,39,122,08,104,,134,15,250,*7B
Sat Feb 12 18:47:40 2011 :$GPGLL,3748.9351,N,12221.2864,W,024738.126,A*25
Sat Feb 12 18:47:40 2011 :$GPGGA,024738.13,3748.9351,N,12221.2864,W,1,05,2.9,00061,M,,,,*3E
Sat Feb 12 18:47:40 2011 :$GPRMC,024738.13,A,3748.9351,N,12221.2864,W,21.8,248.5,130211,15,E*54
Sat Feb 12 18:47:41 2011 :$GPGSA,A,3,31,20,10,23,16,,,,,,,,05.0,02.9,04.0*0F
Sat Feb 12 18:47:41 2011 :$PMGNST,02.17,3,T,000,00.0,+02988,00*4C
Sat Feb 12 18:47:41 2011 :$GPGLL,3748.9328,N,12221.2934,W,024739.120,A*28
Sat Feb 12 18:47:41 2011 :$GPGGA,024739.12,3748.9328,N,12221.2934,W,1,05,3.8,00061,M,,,,*34
Sat Feb 12 18:47:41 2011 :$GPRMC,024739.12,A,3748.9328,N,12221.2934,W,21.7,246.3,130211,15,E*59
Sat Feb 12 18:47:41 2011 :$GPGSA,A,3,31,24,10,23,16,,,,,,,,04.5,03.8,02.5*0C
Sat Feb 12 18:47:42 2011 :$GPGSV,3,1,10,23,69,002,46,20,60,184,,16,48,083,43,13,44,309,*72
Sat Feb 12 18:47:42 2011 :$GPGSV,3,2,10,32,39,154,,30,38,061,,07,25,243,,04,15,294,*77
Sat Feb 12 18:47:42 2011 :$GPGSV,3,3,10,10,08,319,42,31,06,053,39,122,08,104,,134,15,250,*7D
Sat Feb 12 18:47:42 2011 :$GPGLL,3748.9304,N,12221.3004,W,024740.114,A*24
Sat Feb 12 18:47:42 2011 :$GPGGA,024740.11,3748.9304,N,12221.3004,W,1,05,3.7,00061,M,,,,*33
Sat Feb 12 18:47:43 2011 :$GPRMC,024740.11,A,3748.9304,N,12221.3004,W,22.1,246.0,130211,15,E*57
Sat Feb 12 18:47:43 2011 :$GPGSA,A,3,31,24,10,23,16,,,,,,,,04.5,03.7,02.6*00
Sat Feb 12 18:47:43 2011 :$PMGNST,02.17,3,T,000,00.0,+02989,00*4D
Sat Feb 12 18:47:43 2011 :$GPGLL,3748.9278,N,12221.3079,W,024741.122,A*20
Sat Feb 12 18:47:43 2011 :$GPGGA,024741.12,3748.9278,N,12221.3079,W,1,04,4.7,00060,M,,,,*36
Sat Feb 12 18:47:43 2011 :$GPRMC,024741.12,A,3748.9278,N,12221.3079,W,24.0,246.6,130211,15,E*54
Sat Feb 12 18:47:44 2011 :$GPGSA,A,3,31,24,10,23,,,,,,,,,05.3,04.7,02.6*07
Sat Feb 12 18:47:44 2011 :$GPGSV,3,1,10,23,69,002,49,20,60,184,,16,48,083,44,13,44,309,*7A
Sat Feb 12 18:47:44 2011 :$GPGSV,3,2,10,32,39,154,,30,38,061,,07,25,243,,04,15,294,*77
Sat Feb 12 18:47:44 2011 :$GPGSV,3,3,10,10,08,319,42,31,06,053,39,122,08,104,,134,15,250,*7D
Sat Feb 12 18:47:44 2011 :$GPGLL,3748.9252,N,12221.3157,W,024742.116,A*21
Sat Feb 12 18:47:45 2011 :$GPGGA,024742.12,3748.9252,N,12221.3157,W,1,04,4.6,00060,M,,,,*31
Sat Feb 12 18:47:45 2011 :$GPRMC,024742.12,A,3748.9252,N,12221.3157,W,25.0,247.9,130211,15,E*5D
Sat Feb 12 18:47:45 2011 :$GPGSA,A,3,31,24,10,23,,,,,,,,,05.3,04.6,02.6*06
Sat Feb 12 18:47:45 2011 :$PMGNST,02.17,3,T,000,00.0,+02988,00*4C
Sat Feb 12 18:47:45 2011 :$GPGLL,3748.9226,N,12221.3240,W,024743.124,A*27
Sat Feb 12 18:47:45 2011 :$GPGGA,024743.12,3748.9226,N,12221.3240,W,1,05,3.7,00060,M,,,,*31
Sat Feb 12 18:47:45 2011 :$GPRMC,024743.12,A,3748.9226,N,12221.3240,W,25.5,248.4,130211,15,E*5D
Sat Feb 12 18:47:45 2011 :$GPGSA,A,3,31,24,10,23,16,,,,,,,,04.5,03.7,02.6*00
Sat Feb 12 18:47:46 2011 :$GPGSV,3,1,10,23,69,002,49,20,60,184,,16,48,083,44,13,44,309,*7A
Sat Feb 12 18:47:46 2011 :$GPGSV,3,2,10,32,39,154,,30,38,061,,07,25,243,,04,15,294,*77
Sat Feb 12 18:47:46 2011 :$GPGSV,3,3,10,10,08,319,41,31,06,053,39,122,08,104,,134,15,250,*7E
Sat Feb 12 18:47:46 2011 :$GPGLL,3748.9199,N,12221.3324,W,024744.118,A*2B
Sat Feb 12 18:47:46 2011 :$GPGGA,024744.12,3748.9199,N,12221.3324,W,1,05,3.5,00060,M,,,,*30
Sat Feb 12 18:47:47 2011 :$GPRMC,024744.12,A,3748.9199,N,12221.3324,W,26.0,248.2,130211,15,E*5E
Sat Feb 12 18:47:47 2011 :$GPGSA,A,3,31,24,10,23,16,,,,,,,,04.7,03.5,03.1*06
Sat Feb 12 18:47:47 2011 :$PMGNST,02.17,3,T,000,00.0,+02988,00*4C
Sat Feb 12 18:47:47 2011 :$GPGLL,3748.9173,N,12221.3408,W,024745.126,A*2A
Sat Feb 12 18:47:47 2011 :$GPGGA,024745.13,3748.9173,N,12221.3408,W,1,05,3.5,00060,M,,,,*3D
Sat Feb 12 18:47:47 2011 :$GPRMC,024745.13,A,3748.9173,N,12221.3408,W,25.4,248.0,130211,15,E*56
Sat Feb 12 18:47:47 2011 :$GPGSA,A,3,31,24,10,23,16,,,,,,,,04.6,03.5,03.0*06
Sat Feb 12 18:47:48 2011 :$GPGSV,3,1,10,23,69,002,47,20,60,184,,16,48,083,45,13,44,309,*75
Sat Feb 12 18:47:48 2011 :$GPGSV,3,2,10,32,39,154,,30,38,061,,07,25,243,,04,15,294,*77
Sat Feb 12 18:47:48 2011 :$GPGSV,3,3,10,10,08,319,44,31,06,053,38,122,08,104,,134,15,250,*7A
Sat Feb 12 18:47:48 2011 :$GPGLL,3748.9146,N,12221.3490,W,024746.120,A*28
Sat Feb 12 18:47:48 2011 :$GPGGA,024746.12,3748.9146,N,12221.3490,W,1,05,3.6,00060,M,,,,*3B
Sat Feb 12 18:47:49 2011 :$GPRMC,024746.12,A,3748.9146,N,12221.3490,W,25.6,248.1,130211,15,E*50
Sat Feb 12 18:47:49 2011 :$GPGSA,A,3,31,24,10,23,16,,,,,,,,04.7,03.6,03.1*05
Sat Feb 12 18:47:49 2011 :$PMGNST,02.17,3,T,000,00.0,+02988,00*4C
Sat Feb 12 18:47:49 2011 :$GPGLL,3748.9119,N,12221.3574,W,024747.127,A*2F
Sat Feb 12 18:47:49 2011 :$GPGGA,024747.13,3748.9119,N,12221.3574,W,1,07,2.0,00060,M,,,,*3F
Sat Feb 12 18:47:49 2011 :$GPRMC,024747.13,A,3748.9119,N,12221.3574,W,25.8,248.0,130211,15,E*5E
Sat Feb 12 18:47:49 2011 :$GPGSA,A,3,32,31,24,20,10,23,16,,,,,,03.6,02.0,02.9*0E
Sat Feb 12 18:47:50 2011 :$GPGSV,3,1,10,23,69,002,49,20,60,184,41,16,48,083,46,13,44,309,*7D
Sat Feb 12 18:47:50 2011 :$GPGSV,3,2,10,32,39,154,39,30,38,061,,07,25,243,,04,15,294,*7D
Sat Feb 12 18:47:50 2011 :$GPGSV,3,3,10,10,08,319,44,31,06,053,36,122,08,104,,134,15,250,*74
Sat Feb 12 18:47:50 2011 :$GPGLL,3748.9093,N,12221.3658,W,024748.122,A*2B
Sat Feb 12 18:47:50 2011 :$GPGGA,024748.12,3748.9093,N,12221.3658,W,1,06,2.7,00060,M,,,,*39
Sat Feb 12 18:47:51 2011 :$GPRMC,024748.12,A,3748.9093,N,12221.3658,W,26.2,247.5,130211,15,E*5D
Sat Feb 12 18:47:51 2011 :$GPGSA,A,3,32,31,24,10,23,16,,,,,,,03.7,02.7,02.5*06
Sat Feb 12 18:47:51 2011 :$PMGNST,02.17,3,T,000,00.0,+02988,00*4C
Sat Feb 12 18:47:51 2011 :$GPGLL,3748.9065,N,12221.3744,W,024749.116,A*28
Sat Feb 12 18:47:51 2011 :$GPGGA,024749.12,3748.9065,N,12221.3744,W,1,06,2.4,00060,M,,,,*3E
Sat Feb 12 18:47:51 2011 :$GPRMC,024749.12,A,3748.9065,N,12221.3744,W,26.5,248.2,130211,15,E*56
Sat Feb 12 18:47:51 2011 :$GPGSA,A,3,32,31,24,10,23,16,,,,,,,03.9,02.4,03.1*0E
Sat Feb 12 18:47:51 2011 :$GPGSV,3,1,10,23,69,002,48,20,60,184,41,16,48,083,46,13,44,309,41*79
Sat Feb 12 18:47:52 2011 :$GPGSV,3,2,10,32,39,154,39,30,38,061,,07,25,243,,04,15,294,*7D
Sat Feb 12 18:47:52 2011 :$GPGSV,3,3,10,10,08,319,41,31,06,053,38,122,08,104,,134,15,250,*7F
Sat Feb 12 18:47:52 2011 :$GPGLL,3748.9037,N,12221.3831,W,024750.124,A*2B
Sat Feb 12 18:47:52 2011 :$GPGGA,024750.12,3748.9037,N,12221.3831,W,1,08,2.1,00061,M,,,,*36
Sat Feb 12 18:47:52 2011 :$GPRMC,024750.12,A,3748.9037,N,12221.3831,W,26.7,247.0,130211,15,E*5B
Sat Feb 12 18:47:53 2011 :$GPGSA,A,3,32,31,24,20,10,23,13,16,,,,,03.1,02.1,02.3*00
Sat Feb 12 18:47:53 2011 :$PMGNST,02.17,3,T,000,00.0,+02988,00*4C
Sat Feb 12 18:47:53 2011 :$GPGLL,3748.9009,N,12221.3917,W,024751.118,A*2D
Sat Feb 12 18:47:53 2011 :$GPGGA,024751.12,3748.9009,N,12221.3917,W,1,07,2.5,00061,M,,,,*34
Sat Feb 12 18:47:53 2011 :$GPRMC,024751.12,A,3748.9009,N,12221.3917,W,27.1,247.6,130211,15,E*53
Sat Feb 12 18:47:53 2011 :$GPGSA,A,3,32,31,24,10,23,13,16,,,,,,03.4,02.5,02.3*03
Sat Feb 12 18:47:54 2011 :$GPGSV,3,1,10,23,69,002,51,20,60,184,,16,48,083,45,13,44,309,42*74
Sat Feb 12 18:47:54 2011 :$GPGSV,3,2,10,32,39,154,36,30,38,061,,07,25,243,,04,15,294,*72
Sat Feb 12 18:47:54 2011 :$GPGSV,3,3,10,10,08,319,42,31,06,053,40,122,08,104,,134,15,250,*73
Sat Feb 12 18:47:54 2011 :$GPGLL,3748.8980,N,12221.4004,W,024752.126,A*26
Sat Feb 12 18:47:54 2011 :$GPGGA,024752.13,3748.8980,N,12221.4004,W,1,07,2.5,00061,M,,,,*33
Sat Feb 12 18:47:55 2011 :$GPRMC,024752.13,A,3748.8980,N,12221.4004,W,26.2,247.7,130211,15,E*57
Sat Feb 12 18:47:55 2011 :$GPGSA,A,3,32,31,24,10,23,13,16,,,,,,03.4,02.5,02.3*03
Sat Feb 12 18:47:55 2011 :$PMGNST,02.17,3,T,000,00.0,+02988,00*4C
Sat Feb 12 18:47:55 2011 :$GPGLL,3748.8954,N,12221.4088,W,024753.120,A*2C
Sat Feb 12 18:47:55 2011 :$GPGGA,024753.12,3748.8954,N,12221.4088,W,1,07,2.1,00061,M,,,,*3A
Sat Feb 12 18:47:55 2011 :$GPRMC,024753.12,A,3748.8954,N,12221.4088,W,25.8,248.2,130211,15,E*59
Sat Feb 12 18:47:55 2011 :$GPGSA,A,3,32,31,24,10,23,13,16,,,,,,03.7,02.1,03.1*07
Sat Feb 12 18:47:55 2011 :$GPGSV,3,1,10,23,69,002,46,20,60,184,,16,48,083,46,13,44,309,39*7D
Sat Feb 12 18:47:56 2011 :$GPGSV,3,2,10,32,39,154,38,30,38,061,,07,25,243,,04,15,294,*7C
Sat Feb 12 18:47:56 2011 :$GPGSV,3,3,10,10,08,319,39,31,06,053,38,122,08,104,,134,15,250,*70
Sat Feb 12 18:47:56 2011 :$GPGLL,3748.8928,N,12221.4174,W,024754.129,A*2B
Sat Feb 12 18:47:56 2011 :$GPGGA,024754.13,3748.8928,N,12221.4174,W,1,04,10.7,00061,M,,,,*03
Sat Feb 12 18:47:56 2011 :$GPRMC,024754.13,A,3748.8928,N,12221.4174,W,26.6,249.4,130211,15,E*5C
Sat Feb 12 18:47:57 2011 :$GPGSA,A,3,31,10,23,16,,,,,,,,,11.7,10.7,04.5*07
Sat Feb 12 18:47:57 2011 :$PMGNST,02.17,3,T,000,00.0,+02986,00*42
Sat Feb 12 18:47:57 2011 :$GPGLL,3748.8900,N,12221.4262,W,024755.123,A*2E
Sat Feb 12 18:47:57 2011 :$GPGGA,024755.12,3748.8900,N,12221.4262,W,1,06,4.1,00061,M,,,,*3C
Sat Feb 12 18:47:57 2011 :$GPRMC,024755.12,A,3748.8900,N,12221.4262,W,27.4,247.5,130211,15,E*5E
Sat Feb 12 18:47:57 2011 :$GPGSA,A,3,31,24,10,23,13,16,,,,,,,05.7,04.1,04.0*00
Sat Feb 12 18:47:57 2011 :$GPGSV,3,1,10,23,69,002,48,20,60,184,,16,48,083,44,13,44,309,42*7D
Sat Feb 12 18:47:57 2011 :$GPGSV,3,2,10,32,39,154,,30,38,061,,07,25,243,,04,15,294,*77
Sat Feb 12 18:47:57 2011 :$GPGSV,3,3,10,10,08,319,42,31,06,053,36,122,08,104,,134,15,250,*72
Sat Feb 12 18:47:58 2011 :$GPGLL,3748.8841,N,12221.4443,W,024757.126,A*28
Sat Feb 12 18:47:58 2011 :$GPGGA,024757.13,3748.8841,N,12221.4443,W,1,05,4.1,00061,M,,,,*3D
Sat Feb 12 18:47:58 2011 :$GPRMC,024757.13,A,3748.8841,N,12221.4443,W,28.6,247.8,130211,15,E*5C
Sat Feb 12 18:47:58 2011 :$GPGSA,A,3,24,10,23,13,16,,,,,,,,05.8,04.1,04.1*0C
Sat Feb 12 18:47:59 2011 :$PMGNST,02.17,3,T,000,00.0,+02988,00*4C
Sat Feb 12 18:47:59 2011 :$GPGLL,3748.8811,N,12221.4539,W,024758.148,A*26
Sat Feb 12 18:47:59 2011 :$GPGGA,024758.15,3748.8811,N,12221.4539,W,1,04,4.3,00061,M,,,,*3E
Sat Feb 12 18:47:59 2011 :$GPRMC,024758.15,A,3748.8811,N,12221.4539,W,29.1,248.1,130211,15,E*5C
Sat Feb 12 18:47:59 2011 :$GPGSA,A,3,24,10,23,16,,,,,,,,,05.8,04.3,04.0*0D
Sat Feb 12 18:47:59 2011 :$GPGSV,3,1,10,23,69,002,46,20,60,184,,16,48,083,45,13,44,309,39*7E
Sat Feb 12 18:47:59 2011 :$GPGSV,3,2,10,32,39,154,,30,38,061,,07,25,243,,04,15,294,*77
Sat Feb 12 18:48:00 2011 :$GPGSV,3,3,10,10,08,319,45,31,06,053,36,122,08,104,,134,15,250,*75
Sat Feb 12 18:48:00 2011 :$GPGLL,3748.8781,N,12221.4633,W,024759.127,A*21
Sat Feb 12 18:48:00 2011 :$GPGGA,024759.13,3748.8781,N,12221.4633,W,1,04,4.0,00060,M,,,,*34
Sat Feb 12 18:48:00 2011 :$GPRMC,024759.13,A,3748.8781,N,12221.4633,W,29.8,248.2,130211,15,E*5E
Sat Feb 12 18:48:00 2011 :$GPGSA,A,3,31,24,23,16,,,,,,,,,05.7,04.0,04.1*03
Sat Feb 12 18:48:01 2011 :$PMGNST,02.17,3,T,000,00.0,+02988,00*4C
Sat Feb 12 18:48:01 2011 :$GPGLL,3748.8750,N,12221.4729,W,024800.121,A*22
Sat Feb 12 18:48:02 2011 :$GPGGA,024800.12,3748.8750,N,12221.4729,W,1,05,3.6,00061,M,,,,*31
Sat Feb 12 18:48:02 2011 :$GPRMC,024800.12,A,3748.8750,N,12221.4729,W,29.3,247.5,130211,15,E*59
Sat Feb 12 18:48:02 2011 :$GPGSA,A,3,31,24,10,23,16,,,,,,,,04.7,03.6,03.1*05
Sat Feb 12 18:48:02 2011 :$GPGSV,3,1,10,23,69,002,45,20,60,184,,16,48,083,46,13,44,309,40*70
Sat Feb 12 18:48:03 2011 :$GPGSV,3,2,10,32,39,154,,30,38,061,,07,25,243,,04,15,294,*77
Sat Feb 12 18:48:03 2011 :$GPGSV,3,3,10,10,08,319,42,31,06,053,40,122,08,104,,134,15,250,*73
Sat Feb 12 18:48:03 2011 :$GPGLL,3748.8718,N,12221.4825,W,024801.129,A*24
Sat Feb 12 18:48:03 2011 :$GPGGA,024801.13,3748.8718,N,12221.4825,W,1,04,10.1,00061,M,,,,*0A
Sat Feb 12 18:48:04 2011 :$GPRMC,024801.13,A,3748.8718,N,12221.4825,W,30.2,246.7,130211,15,E*5C
Sat Feb 12 18:48:04 2011 :$GPGSA,A,3,31,10,23,16,,,,,,,,,11.2,10.1,04.9*08
Sat Feb 12 18:48:04 2011 :$PMGNST,02.17,3,T,000,00.0,+02990,00*45
Sat Feb 12 18:48:04 2011 :$GPGLL,3748.8686,N,12221.4921,W,024802.123,A*2E
Sat Feb 12 18:48:04 2011 :$GPGGA,024802.12,3748.8686,N,12221.4921,W,1,05,2.8,00060,M,,,,*31
Sat Feb 12 18:48:04 2011 :$GPRMC,024802.12,A,3748.8686,N,12221.4921,W,29.7,247.1,130211,15,E*57
Sat Feb 12 18:48:04 2011 :$GPGSA,A,3,31,20,10,23,16,,,,,,,,04.6,02.8,03.7*09
Sat Feb 12 18:48:05 2011 :$GPGSV,3,1,10,23,69,002,46,20,60,184,41,16,48,083,48,13,44,309,*7C
Sat Feb 12 18:48:05 2011 :$GPGSV,3,2,10,32,39,154,,30,38,061,,07,25,243,,04,15,294,*77
Sat Feb 12 18:48:05 2011 :$GPGSV,3,3,10,10,08,319,44,31,06,053,36,122,08,104,,134,15,250,*74
Sat Feb 12 18:48:05 2011 :$GPGLL,3748.8653,N,12221.5017,W,024803.131,A*29
Sat Feb 12 18:48:05 2011 :$GPGGA,024803.13,3748.8653,N,12221.5017,W,1,05,2.7,00060,M,,,,*3B
Sat Feb 12 18:48:06 2011 :$GPRMC,024803.13,A,3748.8653,N,12221.5017,W,29.0,245.3,130211,15,E*55
Sat Feb 12 18:48:06 2011 :$GPGSA,A,3,31,20,10,23,16,,,,,,,,03.9,02.7,02.9*01
Sat Feb 12 18:48:06 2011 :$PMGNST,02.17,3,T,000,00.0,+02991,00*44
Sat Feb 12 18:48:06 2011 :$GPGLL,3748.8621,N,12221.5111,W,024804.125,A*29
Sat Feb 12 18:48:06 2011 :$GPGGA,024804.12,3748.8621,N,12221.5111,W,1,05,2.7,00059,M,,,,*35
Sat Feb 12 18:48:06 2011 :$GPRMC,024804.12,A,3748.8621,N,12221.5111,W,29.5,248.7,130211,15,E*5D
Sat Feb 12 18:48:06 2011 :$GPGSA,A,3,31,20,10,23,16,,,,,,,,03.9,02.7,02.8*00
Sat Feb 12 18:48:07 2011 :$GPGSV,3,1,10,23,69,002,48,20,60,184,42,16,48,083,45,13,44,309,*7C
Sat Feb 12 18:48:07 2011 :$GPGSV,3,2,10,32,39,154,,30,38,061,,07,25,243,,04,15,294,*77
Sat Feb 12 18:48:07 2011 :$GPGSV,3,3,10,10,08,319,44,31,06,053,36,122,08,104,,134,15,250,*74
Sat Feb 12 18:48:07 2011 :$GPGLL,3748.8621,N,12221.5111,W,024804.125,A*29
Sat Feb 12 18:48:07 2011 :$GPGGA,024804.12,3748.8621,N,12221.5111,W,1,05,2.7,00059,M,,,,*35
Sat Feb 12 18:48:08 2011 :$GPRMC,024804.12,A,3748.8621,N,12221.5111,W,29.5,248.7,130211,15,E*5D
Sat Feb 12 18:48:08 2011 :$GPGSA,A,3,31,20,10,23,16,,,,,,,,03.9,02.7,02.8*00
Sat Feb 12 18:48:08 2011 :$PMGNST,02.17,3,T,000,00.0,+02988,00*4C
Sat Feb 12 18:48:08 2011 :$GPGLL,3748.8562,N,12221.5296,W,024806.127,A*21
Sat Feb 12 18:48:08 2011 :$GPGGA,024806.13,3748.8562,N,12221.5296,W,1,04,4.7,00059,M,,,,*39
Sat Feb 12 18:48:08 2011 :$GPRMC,024806.13,A,3748.8562,N,12221.5296,W,27.3,247.5,130211,15,E*53
Sat Feb 12 18:48:08 2011 :$GPGSA,A,3,31,24,20,10,,,,,,,,,06.5,04.7,04.4*05
Sat Feb 12 18:48:09 2011 :$GPGSV,3,1,10,23,69,002,45,20,60,184,42,16,48,083,40,13,44,309,*74
Sat Feb 12 18:48:09 2011 :$GPGSV,3,2,10,32,39,154,,30,38,061,,07,25,243,,04,15,294,*77
Sat Feb 12 18:48:09 2011 :$GPGSV,3,3,10,10,08,319,42,31,06,053,36,122,08,104,,134,15,250,*72
Sat Feb 12 18:48:09 2011 :$GPGLL,3748.8534,N,12221.5381,W,024807.121,A*22
Sat Feb 12 18:48:09 2011 :$GPGGA,024807.12,3748.8534,N,12221.5381,W,1,05,3.2,00059,M,,,,*3E
Sat Feb 12 18:48:10 2011 :$GPRMC,024807.12,A,3748.8534,N,12221.5381,W,25.6,248.0,130211,15,E*5A
Sat Feb 12 18:48:10 2011 :$GPGSA,A,3,31,20,10,23,13,,,,,,,,04.3,03.2,02.9*0D
Sat Feb 12 18:48:10 2011 :$PMGNST,02.17,3,T,000,00.0,+02988,00*4C
Sat Feb 12 18:48:10 2011 :$GPGLL,3748.8507,N,12221.5461,W,024808.130,A*24
Sat Feb 12 18:48:10 2011 :$GPGGA,024808.13,3748.8507,N,12221.5461,W,1,06,2.6,00058,M,,,,*3E
Sat Feb 12 18:48:10 2011 :$GPRMC,024808.13,A,3748.8507,N,12221.5461,W,23.5,245.2,130211,15,E*57
Sat Feb 12 18:48:10 2011 :$GPGSA,A,3,24,20,10,23,13,16,,,,,,,04.0,02.6,03.1*01
Sat Feb 12 18:48:11 2011 :$GPGSV,3,1,10,23,69,002,46,20,60,184,44,16,48,083,42,13,44,309,42*75
Sat Feb 12 18:48:11 2011 :$GPGSV,3,2,10,32,39,154,,30,38,061,,07,25,243,,04,15,294,*77
Sat Feb 12 18:48:11 2011 :$GPGSV,3,3,10,10,08,319,42,31,06,053,,122,08,104,,134,15,250,*77
Sat Feb 12 18:48:11 2011 :$GPGLL,3748.8482,N,12221.5533,W,024809.123,A*2D
Sat Feb 12 18:48:11 2011 :$GPGGA,024809.12,3748.8482,N,12221.5533,W,1,05,3.9,00057,M,,,,*36
Sat Feb 12 18:48:12 2011 :$GPRMC,024809.12,A,3748.8482,N,12221.5533,W,21.6,247.4,130211,15,E*58
Sat Feb 12 18:48:12 2011 :$GPGSA,A,3,31,24,20,10,23,,,,,,,,04.8,03.9,02.7*07
Sat Feb 12 18:48:12 2011 :$PMGNST,02.17,3,T,000,00.0,+02988,00*4C
Sat Feb 12 18:48:12 2011 :$GPGLL,3748.8460,N,12221.5599,W,024810.117,A*2E
Sat Feb 12 18:48:12 2011 :$GPGGA,024810.12,3748.8460,N,12221.5599,W,1,04,4.0,00057,M,,,,*3D
Sat Feb 12 18:48:12 2011 :$GPRMC,024810.12,A,3748.8460,N,12221.5599,W,19.3,248.5,130211,15,E*5C
Sat Feb 12 18:48:12 2011 :$GPGSA,A,3,31,20,10,23,,,,,,,,,05.1,04.0,03.1*00
Sat Feb 12 18:48:13 2011 :$GPGSV,3,1,10,23,69,002,44,20,60,184,41,16,48,083,,13,44,309,*72
Sat Feb 12 18:48:13 2011 :$GPGSV,3,2,10,32,39,154,,30,38,061,,07,25,243,,04,15,294,*77
Sat Feb 12 18:48:13 2011 :$GPGSV,3,3,10,10,08,319,39,31,06,053,36,122,08,104,,134,15,250,*7E
Sat Feb 12 18:48:13 2011 :$GPGLL,3748.8440,N,12221.5658,W,024811.125,A*22
Sat Feb 12 18:48:13 2011 :$GPGGA,024811.13,3748.8440,N,12221.5658,W,1,04,4.3,00056,M,,,,*33
Sat Feb 12 18:48:14 2011 :$GPRMC,024811.13,A,3748.8440,N,12221.5658,W,17.6,244.5,130211,15,E*57
Sat Feb 12 18:48:14 2011 :$GPGSA,A,3,31,20,10,23,,,,,,,,,05.3,04.3,03.1*01
Sat Feb 12 18:48:14 2011 :$PMGNST,02.17,3,T,000,00.0,+02992,00*47
Sat Feb 12 18:48:14 2011 :$GPGLL,3748.8424,N,12221.5711,W,024812.119,A*20
Sat Feb 12 18:48:14 2011 :$GPGGA,024812.12,3748.8424,N,12221.5711,W,1,03,10.8,00056,M,,,,*06
Sat Feb 12 18:48:14 2011 :$GPRMC,024812.12,A,3748.8424,N,12221.5711,W,14.6,253.8,130211,15,E*53
Sat Feb 12 18:48:15 2011 :$GPGSA,A,2,31,10,23,,,,,,,,,,10.8,10.8,*1F
Sat Feb 12 18:48:15 2011 :$GPGSV,3,1,10,23,69,002,47,20,60,184,,16,48,083,,13,44,309,*74
Sat Feb 12 18:48:15 2011 :$GPGSV,3,2,10,32,39,154,,30,38,061,,07,25,243,,04,15,294,*77
Sat Feb 12 18:48:15 2011 :$GPGSV,3,3,10,10,08,319,43,31,06,053,38,122,08,104,,134,15,250,*7D
Sat Feb 12 18:48:15 2011 :$GPGLL,3748.8411,N,12221.5758,W,024813.127,A*27
Sat Feb 12 18:48:15 2011 :$GPGGA,024813.13,3748.8411,N,12221.5758,W,1,03,11.0,00056,M,,,,*04
Sat Feb 12 18:48:16 2011 :$GPRMC,024813.13,A,3748.8411,N,12221.5758,W,13.7,250.1,130211,15,E*54
Sat Feb 12 18:48:16 2011 :$GPGSA,A,2,31,10,23,,,,,,,,,,11.0,11.0,*1F
Sat Feb 12 18:48:16 2011 :$PMGNST,02.17,2,T,000,00.0,+02987,00*42
Sat Feb 12 18:48:16 2011 :$GPGLL,3748.8397,N,12221.5802,W,024814.136,A*29
Sat Feb 12 18:48:16 2011 :$GPGGA,024814.14,3748.8397,N,12221.5802,W,1,04,4.5,00057,M,,,,*3A
Sat Feb 12 18:48:16 2011 :$GPRMC,024814.14,A,3748.8397,N,12221.5802,W,12.6,247.4,130211,15,E*5E
Sat Feb 12 18:48:16 2011 :$GPGSA,A,3,24,10,23,16,,,,,,,,,05.6,04.5,03.3*01
Sat Feb 12 18:48:17 2011 :$GPGSV,3,1,10,23,69,002,48,20,60,184,,16,48,083,46,13,44,309,*79
Sat Feb 12 18:48:17 2011 :$GPGSV,3,2,10,32,39,154,,30,38,061,,07,25,243,,04,15,294,*77
Sat Feb 12 18:48:17 2011 :$GPGSV,3,3,10,10,08,319,43,31,06,053,36,122,08,104,,134,15,250,*73
Sat Feb 12 18:48:17 2011 :$GPGLL,3748.8385,N,12221.5840,W,024815.115,A*2C
Sat Feb 12 18:48:17 2011 :$GPGGA,024815.12,3748.8385,N,12221.5840,W,1,05,3.7,00057,M,,,,*3C
Sat Feb 12 18:48:18 2011 :$GPRMC,024815.12,A,3748.8385,N,12221.5840,W,11.3,249.0,130211,15,E*50
Sat Feb 12 18:48:18 2011 :$GPGSA,A,3,31,24,10,23,16,,,,,,,,04.5,03.7,02.6*00
Sat Feb 12 18:48:18 2011 :$PMGNST,02.17,3,T,000,00.0,+02988,00*4C
Sat Feb 12 18:48:18 2011 :$GPGLL,3748.8374,N,12221.5877,W,024816.123,A*20
Sat Feb 12 18:48:18 2011 :$GPGGA,024816.12,3748.8374,N,12221.5877,W,1,06,3.6,00057,M,,,,*37
Sat Feb 12 18:48:18 2011 :$GPRMC,024816.12,A,3748.8374,N,12221.5877,W,11.1,247.7,130211,15,E*52
Sat Feb 12 18:48:18 2011 :$GPGSA,A,3,31,24,10,23,13,16,,,,,,,04.3,03.6,02.4*07
Sat Feb 12 18:48:19 2011 :$GPGSV,3,1,10,23,69,002,46,20,60,184,,16,48,083,44,13,44,309,41*70
Sat Feb 12 18:48:19 2011 :$GPGSV,3,2,10,32,39,154,,30,38,061,,07,25,243,,04,15,294,*77
Sat Feb 12 18:48:19 2011 :$GPGSV,3,3,10,10,08,319,40,31,06,053,38,122,08,104,,134,15,250,*7E
Sat Feb 12 18:48:19 2011 :$GPGLL,3748.8362,N,12221.5914,W,024817.117,A*25
