Sat Feb 12 16:32:54 2011 :GPSD,R=1
Sat Feb 12 16:32:55 2011 :$GPGSA,A,3,32,31,24,20,11,23,30,,,,,,03.4,02.1,02.7*06
Sat Feb 12 16:32:55 2011 :$PMGNST,02.17,3,T,000,00.0,+02902,00*4E
Sat Feb 12 16:32:55 2011 :$GPGLL,3843.8064,N,12047.9468,W,003255.971,A*2D
Sat Feb 12 16:32:55 2011 :$GPGGA,003255.97,3843.8064,N,12047.9468,W,1,07,1.6,00578,M,,,,*33
Sat Feb 12 16:32:55 2011 :$GPRMC,003255.97,A,3843.8064,N,12047.9468,W,00.0,000.0,130211,15,E*5A
Sat Feb 12 16:32:55 2011 :$GPGSA,A,3,32,31,24,20,11,23,30,,,,,,03.1,01.6,02.7*07
Sat Feb 12 16:32:55 2011 :$GPGSV,3,1,10,32,77,345,51,31,60,060,48,24,50,234,48,20,49,311,47*76
Sat Feb 12 16:32:55 2011 :$GPGSV,3,2,10,11,32,232,48,23,31,273,52,30,21,134,49,14,14,067,*7F
Sat Feb 12 16:32:56 2011 :$GPGSV,3,3,10,16,11,148,,25,10,044,,122,09,105,,134,13,251,*7A
Sat Feb 12 16:32:56 2011 :$GPGLL,3843.8066,N,12047.9468,W,003256.965,A*29
Sat Feb 12 16:32:56 2011 :$GPGGA,003256.96,3843.8066,N,12047.9468,W,1,07,1.6,00578,M,,,,*33
Sat Feb 12 16:32:56 2011 :$GPRMC,003256.96,A,3843.8066,N,12047.9468,W,00.0,000.0,130211,15,E*5A
Sat Feb 12 16:32:56 2011 :$GPGSA,A,3,32,31,24,20,11,23,30,,,,,,03.1,01.6,02.7*07
Sat Feb 12 16:32:56 2011 :$PMGNST,02.17,3,T,000,00.0,+02902,00*4E
Sat Feb 12 16:32:57 2011 :$GPGLL,3843.8066,N,12047.9468,W,003257.973,A*2F
Sat Feb 12 16:32:57 2011 :$GPGGA,003257.97,3843.8066,N,12047.9468,W,1,07,1.6,00577,M,,,,*3C
Sat Feb 12 16:32:57 2011 :$GPRMC,003257.97,A,3843.8066,N,12047.9468,W,00.0,000.0,130211,15,E*5A
Sat Feb 12 16:32:57 2011 :$GPGSA,A,3,32,31,24,20,11,23,30,,,,,,03.1,01.6,02.7*07
Sat Feb 12 16:32:57 2011 :$GPGSV,3,1,10,32,77,345,51,31,60,060,49,24,50,234,47,20,49,311,45*7A
Sat Feb 12 16:32:57 2011 :$GPGSV,3,2,10,11,32,232,46,23,31,273,52,30,21,134,50,14,14,067,*79
Sat Feb 12 16:32:58 2011 :$GPGSV,3,3,10,16,11,148,,25,10,044,,122,09,105,,134,13,251,*7A
Sat Feb 12 16:32:58 2011 :$GPGLL,3843.8067,N,12047.9468,W,003258.967,A*24
Sat Feb 12 16:32:58 2011 :$GPGGA,003258.97,3843.8067,N,12047.9468,W,1,07,2.1,00577,M,,,,*36
Sat Feb 12 16:32:58 2011 :$GPRMC,003258.97,A,3843.8067,N,12047.9468,W,00.0,000.0,130211,15,E*54
Sat Feb 12 16:32:58 2011 :$GPGSA,A,3,32,31,24,20,11,23,30,,,,,,03.4,02.1,02.7*06
Sat Feb 12 16:32:59 2011 :$PMGNST,02.17,3,T,000,00.0,+02902,00*4E
Sat Feb 12 16:32:59 2011 :$GPGLL,3843.8066,N,12047.9468,W,003259.961,A*22
Sat Feb 12 16:32:59 2011 :$GPGGA,003259.96,3843.8066,N,12047.9468,W,1,07,2.1,00578,M,,,,*38
Sat Feb 12 16:32:59 2011 :$GPRMC,003259.96,A,3843.8066,N,12047.9468,W,00.0,000.0,130211,15,E*55
Sat Feb 12 16:32:59 2011 :$GPGSA,A,3,32,31,24,20,11,23,30,,,,,,03.5,02.1,02.7*07
Sat Feb 12 16:32:59 2011 :$GPGSV,3,1,10,32,77,345,50,31,60,060,49,24,50,234,47,20,49,311,44*7A
Sat Feb 12 16:32:59 2011 :$GPGSV,3,2,10,11,32,232,48,23,31,273,52,30,21,134,50,14,14,067,*77
Sat Feb 12 16:33:00 2011 :$GPGSV,3,3,10,16,11,148,,25,10,044,,122,09,105,,134,13,251,*7A
Sat Feb 12 16:33:00 2011 :$GPGLL,3843.8066,N,12047.9469,W,003300.969,A*26
Sat Feb 12 16:33:00 2011 :$GPGGA,003300.97,3843.8066,N,12047.9469,W,1,07,2.0,00578,M,,,,*34
Sat Feb 12 16:33:00 2011 :$GPRMC,003300.97,A,3843.8066,N,12047.9469,W,00.0,000.0,130211,15,E*58
Sat Feb 12 16:33:00 2011 :$GPGSA,A,3,32,31,24,20,11,23,30,,,,,,04.2,02.0,03.7*07
Sat Feb 12 16:33:01 2011 :$PMGNST,02.17,3,T,000,00.0,+02902,00*4E
Sat Feb 12 16:33:01 2011 :$GPGLL,3843.8067,N,12047.9470,W,003301.963,A*24
Sat Feb 12 16:33:01 2011 :$GPGGA,003301.96,3843.8067,N,12047.9470,W,1,07,1.9,00578,M,,,,*37
Sat Feb 12 16:33:01 2011 :$GPRMC,003301.96,A,3843.8067,N,12047.9470,W,00.0,000.0,130211,15,E*51
Sat Feb 12 16:33:01 2011 :$GPGSA,A,3,32,31,24,20,11,23,30,,,,,,03.4,01.9,02.8*02
Sat Feb 12 16:33:01 2011 :$GPGSV,3,1,10,32,77,345,51,31,60,060,49,24,50,234,46,20,49,311,43*7D
Sat Feb 12 16:33:01 2011 :$GPGSV,3,2,10,11,32,232,47,23,31,273,51,30,21,134,50,14,14,067,*7B
Sat Feb 12 16:33:02 2011 :$GPGSV,3,3,10,16,11,148,,25,10,044,,122,09,105,,134,13,251,*7A
Sat Feb 12 16:33:02 2011 :$GPGLL,3843.8066,N,12047.9472,W,003302.971,A*27
Sat Feb 12 16:33:02 2011 :$GPGGA,003302.97,3843.8066,N,12047.9472,W,1,07,2.0,00579,M,,,,*3D
Sat Feb 12 16:33:02 2011 :$GPRMC,003302.97,A,3843.8066,N,12047.9472,W,00.0,000.0,130211,15,E*50
Sat Feb 12 16:33:02 2011 :$GPGSA,A,3,32,31,24,20,11,23,30,,,,,,04.2,02.0,03.7*07
Sat Feb 12 16:33:03 2011 :$PMGNST,02.17,3,T,000,00.0,+02902,00*4E
Sat Feb 12 16:33:03 2011 :$GPGLL,3843.8065,N,12047.9473,W,003303.965,A*21
Sat Feb 12 16:33:03 2011 :$GPGGA,003303.96,3843.8065,N,12047.9473,W,1,07,2.2,00579,M,,,,*3D
Sat Feb 12 16:33:03 2011 :$GPRMC,003303.96,A,3843.8065,N,12047.9473,W,00.0,000.0,130211,15,E*52
Sat Feb 12 16:33:03 2011 :$GPGSA,A,3,32,31,24,20,11,23,30,,,,,,03.5,02.2,02.7*04
Sat Feb 12 16:33:03 2011 :$GPGSV,3,1,10,32,77,345,50,31,60,060,49,24,50,234,46,20,49,311,44*7B
Sat Feb 12 16:33:03 2011 :$GPGSV,3,2,10,11,32,232,46,23,31,273,51,30,21,134,50,14,14,067,*7A
Sat Feb 12 16:33:04 2011 :$GPGSV,3,3,10,16,11,148,,25,10,044,,122,09,105,,134,13,251,*7A
Sat Feb 12 16:33:04 2011 :$GPGLL,3843.8062,N,12047.9474,W,003304.973,A*21
Sat Feb 12 16:33:04 2011 :$GPGGA,003304.97,3843.8062,N,12047.9474,W,1,07,2.0,00580,M,,,,*3F
Sat Feb 12 16:33:04 2011 :$GPRMC,003304.97,A,3843.8062,N,12047.9474,W,00.0,000.0,130211,15,E*54
Sat Feb 12 16:33:04 2011 :$GPGSA,A,3,32,31,24,20,11,23,30,,,,,,04.2,02.0,03.7*07
Sat Feb 12 16:33:05 2011 :$PMGNST,02.17,3,T,000,00.0,+02901,00*4D
Sat Feb 12 16:33:05 2011 :$GPGLL,3843.8064,N,12047.9472,W,003305.967,A*25
Sat Feb 12 16:33:05 2011 :$GPGGA,003305.97,3843.8064,N,12047.9472,W,1,07,1.6,00579,M,,,,*3D
Sat Feb 12 16:33:05 2011 :$GPRMC,003305.97,A,3843.8064,N,12047.9472,W,00.5,003.5,130211,15,E*56
Sat Feb 12 16:33:05 2011 :$GPGSA,A,3,32,31,24,20,11,23,30,,,,,,03.8,01.6,03.5*0D
Sat Feb 12 16:33:05 2011 :$GPGSV,3,1,10,32,77,345,51,31,60,060,48,24,50,234,48,20,49,311,48*79
Sat Feb 12 16:33:05 2011 :$GPGSV,3,2,10,11,32,232,44,23,31,273,52,30,21,134,50,14,14,067,*7B
Sat Feb 12 16:33:06 2011 :$GPGSV,3,3,10,16,11,148,,25,10,044,,122,09,105,,134,13,251,*7A
Sat Feb 12 16:33:06 2011 :$GPGLL,3843.8066,N,12047.9471,W,003306.961,A*21
Sat Feb 12 16:33:06 2011 :$GPGGA,003306.96,3843.8066,N,12047.9471,W,1,07,2.2,00579,M,,,,*39
Sat Feb 12 16:33:06 2011 :$GPRMC,003306.96,A,3843.8066,N,12047.9471,W,00.4,003.4,130211,15,E*55
Sat Feb 12 16:33:06 2011 :$GPGSA,A,3,32,31,24,20,11,23,30,,,,,,03.4,02.2,02.7*05
Sat Feb 12 16:33:06 2011 :$PMGNST,02.17,3,T,000,00.0,+02902,00*4E
Sat Feb 12 16:33:07 2011 :$GPGLL,3843.8065,N,12047.9472,W,003307.969,A*28
Sat Feb 12 16:33:07 2011 :$GPGGA,003307.97,3843.8065,N,12047.9472,W,1,07,1.7,00579,M,,,,*3F
Sat Feb 12 16:33:07 2011 :$GPRMC,003307.97,A,3843.8065,N,12047.9472,W,00.0,000.0,130211,15,E*56
Sat Feb 12 16:33:07 2011 :$GPGSA,A,3,32,31,24,20,11,23,30,,,,,,03.9,01.7,03.5*0D
Sat Feb 12 16:33:07 2011 :$GPGSV,3,1,10,32,77,345,51,31,60,060,49,24,50,234,48,20,49,311,51*70
Sat Feb 12 16:33:07 2011 :$GPGSV,3,2,10,11,32,232,42,23,31,273,53,30,21,134,51,14,14,067,*7D
Sat Feb 12 16:33:08 2011 :$GPGSV,3,3,10,16,11,148,,25,10,044,,122,09,105,,134,13,251,*7A
Sat Feb 12 16:33:08 2011 :$GPGLL,3843.8064,N,12047.9471,W,003308.963,A*2F
Sat Feb 12 16:33:08 2011 :$GPGGA,003308.96,3843.8064,N,12047.9471,W,1,07,1.5,00578,M,,,,*30
Sat Feb 12 16:33:08 2011 :$GPRMC,003308.96,A,3843.8064,N,12047.9471,W,00.0,000.0,130211,15,E*5A
Sat Feb 12 16:33:08 2011 :$GPGSA,A,3,32,31,24,20,11,23,30,,,,,,03.1,01.5,02.8*0B
Sat Feb 12 16:33:08 2011 :$PMGNST,02.17,3,T,000,00.0,+02902,00*4E
Sat Feb 12 16:33:09 2011 :$GPGLL,3843.8062,N,12047.9471,W,003309.957,A*2F
Sat Feb 12 16:33:09 2011 :$GPGGA,003309.96,3843.8062,N,12047.9471,W,1,07,2.0,00578,M,,,,*31
Sat Feb 12 16:33:09 2011 :$GPRMC,003309.96,A,3843.8062,N,12047.9471,W,00.0,000.0,130211,15,E*5D
Sat Feb 12 16:33:09 2011 :$GPGSA,A,3,32,31,24,20,11,23,30,,,,,,04.2,02.0,03.7*07
Sat Feb 12 16:33:10 2011 :$GPGSV,3,1,10,32,77,345,51,31,60,060,50,24,50,234,48,20,49,311,51*78
Sat Feb 12 16:33:10 2011 :$GPGSV,3,2,10,11,32,232,41,23,31,273,53,30,21,134,51,14,14,067,*7E
Sat Feb 12 16:33:10 2011 :$GPGSV,3,3,10,16,11,148,,25,10,044,,122,09,105,,134,13,251,*7A
Sat Feb 12 16:33:10 2011 :$GPGLL,3843.8061,N,12047.9472,W,003310.951,A*21
Sat Feb 12 16:33:10 2011 :$GPGGA,003310.95,3843.8061,N,12047.9472,W,1,07,1.5,00578,M,,,,*3C
Sat Feb 12 16:33:11 2011 :$GPRMC,003310.95,A,3843.8061,N,12047.9472,W,00.0,000.0,130211,15,E*56
Sat Feb 12 16:33:11 2011 :$GPGSA,A,3,32,31,24,20,11,23,30,,,,,,03.1,01.5,02.7*04
Sat Feb 12 16:33:11 2011 :$PMGNST,02.17,3,T,000,00.0,+02902,00*4E
Sat Feb 12 16:33:12 2011 :$GPGLL,3843.8059,N,12047.9473,W,003311.959,A*22
Sat Feb 12 16:33:12 2011 :$GPGGA,003311.96,3843.8059,N,12047.9473,W,1,07,1.5,00577,M,,,,*3B
Sat Feb 12 16:33:12 2011 :$GPRMC,003311.96,A,3843.8059,N,12047.9473,W,00.0,000.0,130211,15,E*5E
Sat Feb 12 16:33:12 2011 :$GPGSA,A,3,32,31,24,20,11,23,30,,,,,,03.1,01.5,02.7*04
Sat Feb 12 16:33:12 2011 :$GPGSV,3,1,10,32,77,345,51,31,60,060,50,24,50,234,49,20,49,311,51*79
Sat Feb 12 16:33:13 2011 :$GPGSV,3,2,10,11,32,232,42,23,31,273,53,30,21,134,50,14,14,067,*7C
Sat Feb 12 16:33:13 2011 :$GPGSV,3,3,10,16,11,148,,25,10,044,,122,09,105,,134,13,251,*7A
Sat Feb 12 16:33:13 2011 :$GPGLL,3843.8058,N,12047.9474,W,003312.953,A*2D
Sat Feb 12 16:33:13 2011 :$GPGGA,003312.95,3843.8058,N,12047.9474,W,1,07,1.6,00577,M,,,,*3E
Sat Feb 12 16:33:13 2011 :$GPRMC,003312.95,A,3843.8058,N,12047.9474,W,00.0,000.0,130211,15,E*58
Sat Feb 12 16:33:13 2011 :$GPGSA,A,3,32,31,24,20,11,23,30,,,,,,03.8,01.6,03.4*0C
Sat Feb 12 16:33:14 2011 :$PMGNST,02.17,3,T,000,00.0,+02902,00*4E
Sat Feb 12 16:33:14 2011 :$GPGLL,3843.8057,N,12047.9474,W,003313.961,A*22
Sat Feb 12 16:33:14 2011 :$GPGGA,003313.96,3843.8057,N,12047.9474,W,1,07,1.6,00578,M,,,,*3C
Sat Feb 12 16:33:14 2011 :$GPRMC,003313.96,A,3843.8057,N,12047.9474,W,00.0,000.0,130211,15,E*55
Sat Feb 12 16:33:14 2011 :$GPGSA,A,3,32,31,24,20,11,23,30,,,,,,03.8,01.6,03.5*0D
Sat Feb 12 16:33:14 2011 :$GPGSV,3,1,10,32,77,345,51,31,60,060,49,24,50,234,49,20,49,311,51*71
Sat Feb 12 16:33:14 2011 :$GPGSV,3,2,10,11,32,232,43,23,31,273,53,30,21,134,50,14,14,067,*7D
Sat Feb 12 16:33:15 2011 :$GPGSV,3,3,10,16,11,148,,25,10,044,,122,09,105,,134,13,251,*7A
Sat Feb 12 16:33:15 2011 :$GPGLL,3843.8056,N,12047.9474,W,003314.955,A*23
Sat Feb 12 16:33:15 2011 :$GPGGA,003314.96,3843.8056,N,12047.9474,W,1,07,2.1,00578,M,,,,*3E
Sat Feb 12 16:33:15 2011 :$GPRMC,003314.96,A,3843.8056,N,12047.9474,W,00.0,000.0,130211,15,E*53
Sat Feb 12 16:33:15 2011 :$GPGSA,A,3,32,31,24,20,11,23,30,,,,,,04.0,02.1,03.4*07
Sat Feb 12 16:33:15 2011 :$PMGNST,02.17,3,T,000,00.0,+02902,00*4E
Sat Feb 12 16:33:16 2011 :$GPGLL,3843.8059,N,12047.9473,W,003315.949,A*27
Sat Feb 12 16:33:16 2011 :$GPGGA,003315.95,3843.8059,N,12047.9473,W,1,07,2.1,00578,M,,,,*34
Sat Feb 12 16:33:16 2011 :$GPRMC,003315.95,A,3843.8059,N,12047.9473,W,01.0,003.4,130211,15,E*5F
Sat Feb 12 16:33:16 2011 :$GPGSA,A,3,32,31,24,20,11,23,30,,,,,,04.0,02.1,03.4*07
Sat Feb 12 16:33:16 2011 :$GPGSV,3,1,10,32,77,345,51,31,60,060,50,24,50,234,48,20,49,311,50*79
Sat Feb 12 16:33:16 2011 :$GPGSV,3,2,10,11,32,232,42,23,31,273,52,30,21,134,52,14,14,067,*7F
Sat Feb 12 16:33:17 2011 :$GPGSV,3,3,10,16,11,148,,25,10,044,,122,09,105,,134,13,251,*7A
Sat Feb 12 16:33:17 2011 :$GPGLL,3843.8066,N,12047.9473,W,003316.957,A*27
Sat Feb 12 16:33:17 2011 :$GPGGA,003316.96,3843.8066,N,12047.9473,W,1,07,2.1,00577,M,,,,*37
Sat Feb 12 16:33:17 2011 :$GPRMC,003316.96,A,3843.8066,N,12047.9473,W,03.9,003.0,130211,15,E*5C
Sat Feb 12 16:33:17 2011 :$GPGSA,A,3,32,31,24,20,11,23,30,,,,,,04.0,02.1,03.4*07
Sat Feb 12 16:33:17 2011 :$PMGNST,02.17,3,T,000,00.0,+02901,00*4D
Sat Feb 12 16:33:18 2011 :$GPGLL,3843.8081,N,12047.9472,W,003317.951,A*28
Sat Feb 12 16:33:18 2011 :$GPGGA,003317.95,3843.8081,N,12047.9472,W,1,06,1.7,00577,M,,,,*39
Sat Feb 12 16:33:18 2011 :$GPRMC,003317.95,A,3843.8081,N,12047.9472,W,06.4,002.2,130211,15,E*5D
Sat Feb 12 16:33:18 2011 :$GPGSA,A,3,32,31,24,20,23,30,,,,,,,03.2,01.7,02.7*05
Sat Feb 12 16:33:18 2011 :$GPGSV,3,1,10,32,77,345,52,31,60,060,50,24,50,234,48,20,49,311,48*73
Sat Feb 12 16:33:19 2011 :$GPGSV,3,2,10,11,32,232,43,23,31,273,52,30,21,134,50,14,14,067,*7C
Sat Feb 12 16:33:19 2011 :$GPGSV,3,3,10,16,11,148,,25,10,044,,122,09,105,,134,13,251,*7A
Sat Feb 12 16:33:19 2011 :$GPGLL,3843.8102,N,12047.9472,W,003318.959,A*25
Sat Feb 12 16:33:19 2011 :$GPGGA,003318.96,3843.8102,N,12047.9472,W,1,07,1.6,00576,M,,,,*3E
Sat Feb 12 16:33:19 2011 :$GPRMC,003318.96,A,3843.8102,N,12047.9472,W,07.7,000.5,130211,15,E*5C
Sat Feb 12 16:33:20 2011 :$GPGSA,A,3,32,31,24,20,11,23,30,,,,,,03.1,01.6,02.7*07
Sat Feb 12 16:33:20 2011 :$PMGNST,02.17,3,T,000,00.0,+02901,00*4D
Sat Feb 12 16:33:20 2011 :$GPGLL,3843.8128,N,12047.9472,W,003319.953,A*26
Sat Feb 12 16:33:20 2011 :$GPGGA,003319.95,3843.8128,N,12047.9472,W,1,07,1.5,00576,M,,,,*37
Sat Feb 12 16:33:20 2011 :$GPRMC,003319.95,A,3843.8128,N,12047.9472,W,10.3,359.4,130211,15,E*5A
Sat Feb 12 16:33:20 2011 :$GPGSA,A,3,32,31,24,20,11,23,30,,,,,,03.0,01.5,02.7*05
Sat Feb 12 16:33:20 2011 :$GPGSV,3,1,10,32,77,345,52,31,60,060,46,24,50,234,46,20,49,311,52*71
Sat Feb 12 16:33:21 2011 :$GPGSV,3,2,10,11,32,232,44,23,31,273,50,30,21,134,48,14,14,067,*70
Sat Feb 12 16:33:21 2011 :$GPGSV,3,3,10,16,11,148,,25,10,044,,122,09,105,,134,13,251,*7A
Sat Feb 12 16:33:21 2011 :$GPGLL,3843.8159,N,12047.9476,W,003320.961,A*2F
Sat Feb 12 16:33:21 2011 :$GPGGA,003320.96,3843.8159,N,12047.9476,W,1,07,2.0,00576,M,,,,*3A
Sat Feb 12 16:33:21 2011 :$GPRMC,003320.96,A,3843.8159,N,12047.9476,W,11.6,355.3,130211,15,E*5E
Sat Feb 12 16:33:21 2011 :$GPGSA,A,3,32,31,24,20,11,23,30,,,,,,04.2,02.0,03.7*07
Sat Feb 12 16:33:22 2011 :$PMGNST,02.17,3,T,000,00.0,+02902,00*4E
Sat Feb 12 16:33:22 2011 :$GPGLL,3843.8189,N,12047.9488,W,003321.955,A*25
Sat Feb 12 16:33:22 2011 :$GPGGA,003321.96,3843.8189,N,12047.9488,W,1,07,2.2,00577,M,,,,*34
Sat Feb 12 16:33:22 2011 :$GPRMC,003321.96,A,3843.8189,N,12047.9488,W,11.6,343.9,130211,15,E*5E
Sat Feb 12 16:33:22 2011 :$GPGSA,A,3,32,31,24,20,11,23,30,,,,,,03.6,02.2,02.8*08
Sat Feb 12 16:33:22 2011 :$GPGSV,3,1,10,32,77,345,51,31,60,060,51,24,50,234,52,20,49,311,46*74
Sat Feb 12 16:33:22 2011 :$GPGSV,3,2,10,11,32,232,50,23,31,273,49,30,21,134,40,14,14,067,*75
Sat Feb 12 16:33:23 2011 :$GPGSV,3,3,10,16,11,148,,25,10,044,,122,09,105,,134,13,251,*7A
Sat Feb 12 16:33:23 2011 :$GPGLL,3843.8216,N,12047.9512,W,003322.949,A*2C
Sat Feb 12 16:33:23 2011 :$GPGGA,003322.95,3843.8216,N,12047.9512,W,1,07,2.2,00577,M,,,,*33
Sat Feb 12 16:33:23 2011 :$GPRMC,003322.95,A,3843.8216,N,12047.9512,W,12.3,324.6,130211,15,E*51
Sat Feb 12 16:33:23 2011 :$GPGSA,A,3,32,31,24,20,11,23,30,,,,,,03.5,02.2,02.8*0B
Sat Feb 12 16:33:24 2011 :$PMGNST,02.17,3,T,000,00.0,+02903,00*4F
Sat Feb 12 16:33:24 2011 :$GPGLL,3843.8236,N,12047.9550,W,003323.957,A*26
Sat Feb 12 16:33:24 2011 :$GPGGA,003323.96,3843.8236,N,12047.9550,W,1,07,2.1,00576,M,,,,*37
Sat Feb 12 16:33:24 2011 :$GPRMC,003323.96,A,3843.8236,N,12047.9550,W,13.6,302.2,130211,15,E*53
Sat Feb 12 16:33:24 2011 :$GPGSA,A,3,32,31,24,20,11,23,30,,,,,,03.5,02.1,02.8*08
Sat Feb 12 16:33:24 2011 :$GPGSV,3,1,10,32,77,345,48,31,60,060,53,24,50,234,47,20,49,311,48*74
Sat Feb 12 16:33:24 2011 :$GPGSV,3,2,10,11,32,232,51,23,31,273,46,30,21,134,38,14,14,067,*74
Sat Feb 12 16:33:25 2011 :$GPGSV,3,3,10,16,11,148,,25,10,044,,122,09,105,,134,13,251,*7A
Sat Feb 12 16:33:25 2011 :$GPGLL,3843.8248,N,12047.9600,W,003324.951,A*28
Sat Feb 12 16:33:25 2011 :$GPGGA,003324.95,3843.8248,N,12047.9600,W,1,07,1.9,00576,M,,,,*37
Sat Feb 12 16:33:25 2011 :$GPRMC,003324.95,A,3843.8248,N,12047.9600,W,15.9,282.8,130211,15,E*52
Sat Feb 12 16:33:25 2011 :$GPGSA,A,3,32,31,24,20,11,23,30,,,,,,03.7,01.9,03.1*09
Sat Feb 12 16:33:25 2011 :$PMGNST,02.17,3,T,000,00.0,+02901,00*4D
Sat Feb 12 16:33:26 2011 :$GPGLL,3843.8253,N,12047.9660,W,003325.959,A*2D
Sat Feb 12 16:33:26 2011 :$GPGGA,003325.96,3843.8253,N,12047.9660,W,1,07,1.7,00576,M,,,,*37
Sat Feb 12 16:33:26 2011 :$GPRMC,003325.96,A,3843.8253,N,12047.9660,W,18.4,270.6,130211,15,E*5F
Sat Feb 12 16:33:26 2011 :$GPGSA,A,3,32,31,24,20,11,23,30,,,,,,04.1,01.7,03.7*00
Sat Feb 12 16:33:26 2011 :$GPGSV,3,1,10,32,77,345,44,31,60,060,52,24,50,234,49,20,49,311,49*76
Sat Feb 12 16:33:26 2011 :$GPGSV,3,2,10,11,32,232,48,23,31,273,43,30,21,134,44,14,14,067,*72
Sat Feb 12 16:33:27 2011 :$GPGSV,3,3,10,16,11,148,,25,10,044,,122,09,105,,134,13,251,*7A
Sat Feb 12 16:33:27 2011 :$GPGLL,3843.8251,N,12047.9728,W,003326.953,A*2B
Sat Feb 12 16:33:27 2011 :$GPGGA,003326.95,3843.8251,N,12047.9728,W,1,07,1.6,00576,M,,,,*39
Sat Feb 12 16:33:27 2011 :$GPRMC,003326.95,A,3843.8251,N,12047.9728,W,20.6,263.1,130211,15,E*5C
Sat Feb 12 16:33:27 2011 :$GPGSA,A,3,32,31,24,20,11,23,30,,,,,,03.3,01.6,02.9*0B
Sat Feb 12 16:33:28 2011 :$PMGNST,02.17,3,T,000,00.0,+02902,00*4E
Sat Feb 12 16:33:28 2011 :$GPGLL,3843.8243,N,12047.9804,W,003327.961,A*29
Sat Feb 12 16:33:28 2011 :$GPGGA,003327.96,3843.8243,N,12047.9804,W,1,07,1.7,00575,M,,,,*3B
Sat Feb 12 16:33:28 2011 :$GPRMC,003327.96,A,3843.8243,N,12047.9804,W,22.9,258.6,130211,15,E*5E
Sat Feb 12 16:33:28 2011 :$GPGSA,A,3,32,31,24,20,11,23,30,,,,,,04.2,01.7,03.9*0D
Sat Feb 12 16:33:28 2011 :$GPGSV,3,1,10,32,77,345,43,31,60,060,52,24,50,234,45,20,49,311,46*72
Sat Feb 12 16:33:29 2011 :$GPGSV,3,2,10,11,32,232,50,23,31,273,49,30,21,134,41,14,14,067,*74
Sat Feb 12 16:33:29 2011 :$GPGSV,3,3,10,16,11,148,,25,10,044,,122,09,105,,134,13,251,*7A
Sat Feb 12 16:33:29 2011 :$GPGLL,3843.8228,N,12047.9887,W,003328.955,A*27
Sat Feb 12 16:33:29 2011 :$GPGGA,003328.96,3843.8228,N,12047.9887,W,1,07,1.9,00575,M,,,,*3C
Sat Feb 12 16:33:29 2011 :$GPRMC,003328.96,A,3843.8228,N,12047.9887,W,25.4,255.4,130211,15,E*52
Sat Feb 12 16:33:30 2011 :$GPGSA,A,3,32,31,24,20,11,23,30,,,,,,04.4,01.9,04.0*0B
Sat Feb 12 16:33:30 2011 :$PMGNST,02.17,3,T,000,00.0,+02902,00*4E
Sat Feb 12 16:33:30 2011 :$GPGLL,3843.8183,N,12048.0071,W,003330.957,A*29
Sat Feb 12 16:33:30 2011 :$GPGGA,003330.96,3843.8183,N,12048.0071,W,1,07,2.3,00575,M,,,,*39
Sat Feb 12 16:33:30 2011 :$GPRMC,003330.96,A,3843.8183,N,12048.0071,W,29.1,248.7,130211,15,E*58
Sat Feb 12 16:33:30 2011 :$GPGSA,A,3,32,31,24,20,11,23,30,,,,,,05.1,02.3,04.6*00
Sat Feb 12 16:33:30 2011 :$GPGSV,3,1,10,32,77,345,44,31,60,060,52,24,50,234,40,20,49,311,48*7E
Sat Feb 12 16:33:30 2011 :$GPGSV,3,2,10,11,32,232,51,23,31,273,49,30,21,134,36,14,14,067,*75
Sat Feb 12 16:33:31 2011 :$GPGSV,3,3,10,16,11,148,,25,10,044,,122,09,105,,134,13,251,*7A
Sat Feb 12 16:33:31 2011 :$GPGLL,3843.8183,N,12048.0071,W,003330.957,A*29
Sat Feb 12 16:33:31 2011 :$GPGGA,003330.96,3843.8183,N,12048.0071,W,1,07,2.3,00575,M,,,,*39
Sat Feb 12 16:33:31 2011 :$GPRMC,003330.96,A,3843.8183,N,12048.0071,W,29.1,248.7,130211,15,E*58
Sat Feb 12 16:33:31 2011 :$GPGSA,A,3,32,31,24,20,11,23,30,,,,,,05.1,02.3,04.6*00
Sat Feb 12 16:33:32 2011 :$PMGNST,02.17,3,T,000,00.0,+02901,00*4D
Sat Feb 12 16:33:32 2011 :$GPGLL,3843.8114,N,12048.0266,W,003332.959,A*2F
Sat Feb 12 16:33:32 2011 :$GPGGA,003332.96,3843.8114,N,12048.0266,W,1,06,2.1,00575,M,,,,*32
Sat Feb 12 16:33:32 2011 :$GPRMC,003332.96,A,3843.8114,N,12048.0266,W,30.6,241.3,130211,15,E*52
Sat Feb 12 16:33:32 2011 :$GPGSA,A,3,32,31,24,20,11,23,,,,,,,04.8,02.1,04.3*0C
Sat Feb 12 16:33:32 2011 :$GPGSV,3,1,10,32,77,345,48,31,60,060,52,24,50,234,47,20,49,311,47*7A
Sat Feb 12 16:33:32 2011 :$GPGSV,3,2,10,11,32,232,47,23,31,273,46,30,21,134,46,14,14,067,*7A
Sat Feb 12 16:33:33 2011 :$GPGSV,3,3,10,16,11,148,,25,10,044,,122,09,105,,134,13,251,*7A
Sat Feb 12 16:33:33 2011 :$GPGLL,3843.8072,N,12048.0360,W,003333.953,A*22
Sat Feb 12 16:33:33 2011 :$GPGGA,003333.95,3843.8072,N,12048.0360,W,1,07,1.6,00574,M,,,,*32
Sat Feb 12 16:33:33 2011 :$GPRMC,003333.95,A,3843.8072,N,12048.0360,W,31.2,238.9,130211,15,E*57
Sat Feb 12 16:33:33 2011 :$GPGSA,A,3,32,31,24,20,11,23,30,,,,,,03.8,01.6,03.5*0D
Sat Feb 12 16:33:34 2011 :$PMGNST,02.17,3,T,000,00.0,+02901,00*4D
Sat Feb 12 16:33:34 2011 :$GPGLL,3843.8028,N,12048.0456,W,003334.961,A*29
Sat Feb 12 16:33:34 2011 :$GPGGA,003334.96,3843.8028,N,12048.0456,W,1,07,1.5,00573,M,,,,*3F
Sat Feb 12 16:33:34 2011 :$GPRMC,003334.96,A,3843.8028,N,12048.0456,W,32.0,238.1,130211,15,E*57
Sat Feb 12 16:33:34 2011 :$GPGSA,A,3,32,31,24,20,11,23,30,,,,,,03.3,01.5,02.9*08
Sat Feb 12 16:33:34 2011 :$GPGSV,3,1,10,32,77,345,50,31,60,060,51,24,50,234,48,20,49,311,45*7D
Sat Feb 12 16:33:35 2011 :$GPGSV,3,2,10,11,32,232,41,23,31,273,44,30,21,134,44,14,14,067,*7C
Sat Feb 12 16:33:35 2011 :$GPGSV,3,3,10,16,11,148,,25,10,044,,122,09,105,,134,13,251,*7A
Sat Feb 12 16:33:35 2011 :$GPGLL,3843.7980,N,12048.0553,W,003335.955,A*2F
Sat Feb 12 16:33:35 2011 :$GPGGA,003335.96,3843.7980,N,12048.0553,W,1,07,2.3,00574,M,,,,*3C
Sat Feb 12 16:33:35 2011 :$GPRMC,003335.96,A,3843.7980,N,12048.0553,W,32.7,238.0,130211,15,E*50
Sat Feb 12 16:33:36 2011 :$GPGSA,A,3,32,31,24,20,11,23,30,,,,,,03.7,02.3,02.9*09
Sat Feb 12 16:33:36 2011 :$PMGNST,02.17,3,T,000,00.0,+02901,00*4D
Sat Feb 12 16:33:36 2011 :$GPGLL,3843.7931,N,12048.0652,W,003336.964,A*26
Sat Feb 12 16:33:36 2011 :$GPGGA,003336.96,3843.7931,N,12048.0652,W,1,07,2.4,00574,M,,,,*30
Sat Feb 12 16:33:36 2011 :$GPRMC,003336.96,A,3843.7931,N,12048.0652,W,33.6,236.2,130211,15,E*57
Sat Feb 12 16:33:36 2011 :$GPGSA,A,3,32,31,24,20,11,23,30,,,,,,03.9,02.4,03.1*09
Sat Feb 12 16:33:36 2011 :$GPGSV,3,1,10,32,77,345,51,31,60,060,52,24,50,234,48,20,49,311,43*79
Sat Feb 12 16:33:36 2011 :$GPGSV,3,2,10,11,32,232,39,23,31,273,,30,21,134,42,14,14,067,*75
Sat Feb 12 16:33:37 2011 :$GPGSV,3,3,10,16,11,148,,25,10,044,,122,09,105,,134,13,251,*7A
Sat Feb 12 16:33:37 2011 :$GPGLL,3843.7879,N,12048.0754,W,003337.972,A*2A
Sat Feb 12 16:33:37 2011 :$GPGGA,003337.97,3843.7879,N,12048.0754,W,1,05,7.3,00574,M,,,,*3A
Sat Feb 12 16:33:37 2011 :$GPRMC,003337.97,A,3843.7879,N,12048.0754,W,34.1,238.0,130211,15,E*51
Sat Feb 12 16:33:37 2011 :$GPGSA,A,3,32,31,24,11,30,,,,,,,,13.5,07.3,11.4*03
Sat Feb 12 16:33:38 2011 :$PMGNST,02.17,3,T,000,00.0,+02901,00*4D
Sat Feb 12 16:33:38 2011 :$GPGLL,3843.7829,N,12048.0856,W,003338.966,A*28
Sat Feb 12 16:33:38 2011 :$GPGGA,003338.97,3843.7829,N,12048.0856,W,1,06,2.8,00573,M,,,,*37
Sat Feb 12 16:33:38 2011 :$GPRMC,003338.97,A,3843.7829,N,12048.0856,W,34.7,237.5,130211,15,E*5A
Sat Feb 12 16:33:38 2011 :$GPGSA,A,3,32,31,24,20,11,30,,,,,,,05.0,02.8,04.1*0C
Sat Feb 12 16:33:38 2011 :$GPGSV,3,1,10,32,77,345,51,31,60,060,52,24,50,234,46,20,49,311,42*76
Sat Feb 12 16:33:38 2011 :$GPGSV,3,2,10,11,32,232,41,23,31,273,,30,21,134,40,14,14,067,*78
Sat Feb 12 16:33:39 2011 :$GPGSV,3,3,10,16,11,148,,25,10,044,,122,09,105,,134,13,251,*7A
Sat Feb 12 16:33:39 2011 :$GPGLL,3843.7778,N,12048.0960,W,003339.974,A*25
Sat Feb 12 16:33:39 2011 :$GPGGA,003339.97,3843.7778,N,12048.0960,W,1,05,5.6,00573,M,,,,*33
Sat Feb 12 16:33:39 2011 :$GPRMC,003339.97,A,3843.7778,N,12048.0960,W,34.3,237.7,130211,15,E*52
Sat Feb 12 16:33:39 2011 :$GPGSA,A,3,32,31,24,11,30,,,,,,,,10.6,05.6,09.0*09
Sat Feb 12 16:33:39 2011 :$PMGNST,02.17,3,T,000,00.0,+02901,00*4D
Sat Feb 12 16:33:40 2011 :$GPGLL,3843.7729,N,12048.1062,W,003340.968,A*28
Sat Feb 12 16:33:40 2011 :$GPGGA,003340.97,3843.7729,N,12048.1062,W,1,05,5.4,00573,M,,,,*31
Sat Feb 12 16:33:40 2011 :$GPRMC,003340.97,A,3843.7729,N,12048.1062,W,33.4,238.1,130211,15,E*5B
Sat Feb 12 16:33:40 2011 :$GPGSA,A,3,32,31,24,11,30,,,,,,,,10.4,05.4,08.9*01
Sat Feb 12 16:33:40 2011 :$GPGSV,3,1,10,32,77,345,51,31,60,060,52,24,50,234,46,20,49,311,43*77
Sat Feb 12 16:33:40 2011 :$GPGSV,3,2,10,11,32,232,42,23,31,273,,30,21,134,45,14,14,067,45*7F
Sat Feb 12 16:33:41 2011 :$GPGSV,3,3,10,16,11,148,,25,10,044,,122,09,105,,134,13,251,*7A
Sat Feb 12 16:33:41 2011 :$GPGLL,3843.7681,N,12048.1160,W,003341.962,A*23
Sat Feb 12 16:33:41 2011 :$GPGGA,003341.96,3843.7681,N,12048.1160,W,1,06,2.9,00572,M,,,,*39
Sat Feb 12 16:33:41 2011 :$GPRMC,003341.96,A,3843.7681,N,12048.1160,W,32.1,238.0,130211,15,E*5E
Sat Feb 12 16:33:41 2011 :$GPGSA,A,3,32,31,24,11,23,30,,,,,,,05.3,02.9,04.5*09
Sat Feb 12 16:33:42 2011 :$PMGNST,02.17,3,T,000,00.0,+02900,00*4C
Sat Feb 12 16:33:42 2011 :$GPGLL,3843.7635,N,12048.1256,W,003342.970,A*2A
Sat Feb 12 16:33:42 2011 :$GPGGA,003342.97,3843.7635,N,12048.1256,W,1,07,1.6,00572,M,,,,*3F
Sat Feb 12 16:33:42 2011 :$GPRMC,003342.97,A,3843.7635,N,12048.1256,W,31.4,238.3,130211,15,E*50
Sat Feb 12 16:33:42 2011 :$GPGSA,A,3,32,31,24,20,11,23,30,,,,,,03.3,01.6,02.9*0B
Sat Feb 12 16:33:42 2011 :$GPGSV,3,1,10,32,77,345,50,31,60,060,52,24,50,234,47,20,49,311,44*70
Sat Feb 12 16:33:42 2011 :$GPGSV,3,2,10,11,32,232,44,23,31,273,44,30,21,134,44,14,14,067,44*79
Sat Feb 12 16:33:43 2011 :$GPGSV,3,3,10,16,11,148,,25,10,044,,122,09,105,,134,13,251,*7A
Sat Feb 12 16:33:43 2011 :$GPGLL,3843.7592,N,12048.1348,W,003343.964,A*2E
Sat Feb 12 16:33:43 2011 :$GPGGA,003343.96,3843.7592,N,12048.1348,W,1,07,1.5,00571,M,,,,*3F
Sat Feb 12 16:33:43 2011 :$GPRMC,003343.96,A,3843.7592,N,12048.1348,W,30.6,238.4,130211,15,E*54
Sat Feb 12 16:33:43 2011 :$GPGSA,A,3,32,31,24,20,11,23,30,,,,,,03.1,01.5,02.7*04
Sat Feb 12 16:33:43 2011 :$PMGNST,02.17,3,T,000,00.0,+02901,00*4D
Sat Feb 12 16:33:44 2011 :$GPGLL,3843.7549,N,12048.1438,W,003344.972,A*28
Sat Feb 12 16:33:44 2011 :$GPGGA,003344.97,3843.7549,N,12048.1438,W,1,07,1.5,00571,M,,,,*3F
Sat Feb 12 16:33:44 2011 :$GPRMC,003344.97,A,3843.7549,N,12048.1438,W,28.7,238.0,130211,15,E*58
Sat Feb 12 16:33:44 2011 :$GPGSA,A,3,32,31,24,20,11,23,30,,,,,,03.1,01.5,02.7*04
Sat Feb 12 16:33:44 2011 :$GPGSV,3,1,10,32,77,345,51,31,60,060,52,24,50,234,47,20,49,311,47*72
Sat Feb 12 16:33:44 2011 :$GPGSV,3,2,10,11,32,232,44,23,31,273,48,30,21,134,45,14,14,067,44*74
Sat Feb 12 16:33:45 2011 :$GPGSV,3,3,10,16,11,148,,25,10,044,,122,09,105,,134,13,251,*7A
Sat Feb 12 16:33:45 2011 :$GPGLL,3843.7509,N,12048.1522,W,003345.966,A*22
Sat Feb 12 16:33:45 2011 :$GPGGA,003345.97,3843.7509,N,12048.1522,W,1,07,1.6,00570,M,,,,*32
Sat Feb 12 16:33:45 2011 :$GPRMC,003345.97,A,3843.7509,N,12048.1522,W,27.2,238.0,130211,15,E*5D
Sat Feb 12 16:33:46 2011 :$GPGSA,A,3,32,31,24,20,11,23,30,,,,,,03.8,01.6,03.4*0C
Sat Feb 12 16:33:46 2011 :$PMGNST,02.17,3,T,000,00.0,+02901,00*4D
Sat Feb 12 16:33:46 2011 :$GPGLL,3843.7471,N,12048.1601,W,003346.974,A*2E
Sat Feb 12 16:33:47 2011 :$GPGGA,003346.97,3843.7471,N,12048.1601,W,1,07,1.5,00570,M,,,,*3E
Sat Feb 12 16:33:47 2011 :$GPRMC,003346.97,A,3843.7471,N,12048.1601,W,26.0,237.6,130211,15,E*58
Sat Feb 12 16:33:47 2011 :$GPGSA,A,3,32,31,24,20,11,23,30,,,,,,03.2,01.5,02.8*08
Sat Feb 12 16:33:47 2011 :$GPGSV,3,1,10,32,77,345,50,31,60,060,53,24,50,234,45,20,49,311,49*7E
Sat Feb 12 16:33:47 2011 :$GPGSV,3,2,10,11,32,232,42,23,31,273,46,30,21,134,44,14,14,067,43*7A
Sat Feb 12 16:33:48 2011 :$GPGSV,3,3,10,16,11,148,,25,10,044,,122,09,105,,134,13,251,*7A
Sat Feb 12 16:33:48 2011 :$GPGLL,3843.7434,N,12048.1675,W,003347.968,A*20
Sat Feb 12 16:33:48 2011 :$GPGGA,003347.97,3843.7434,N,12048.1675,W,1,07,2.2,00569,M,,,,*31
Sat Feb 12 16:33:48 2011 :$GPRMC,003347.97,A,3843.7434,N,12048.1675,W,23.9,237.7,130211,15,E*56
Sat Feb 12 16:33:48 2011 :$GPGSA,A,3,32,31,24,20,11,23,30,,,,,,03.6,02.2,02.8*08
Sat Feb 12 16:33:48 2011 :$PMGNST,02.17,3,T,000,00.0,+02902,00*4E
Sat Feb 12 16:33:49 2011 :$GPGLL,3843.7401,N,12048.1743,W,003348.962,A*27
Sat Feb 12 16:33:49 2011 :$GPGGA,003348.96,3843.7401,N,12048.1743,W,1,07,2.1,00569,M,,,,*3E
Sat Feb 12 16:33:49 2011 :$GPRMC,003348.96,A,3843.7401,N,12048.1743,W,21.5,238.3,130211,15,E*5F
Sat Feb 12 16:33:49 2011 :$GPGSA,A,3,32,31,24,20,11,23,30,,,,,,04.5,02.1,04.0*01
Sat Feb 12 16:33:49 2011 :$GPGSV,3,1,10,32,77,345,50,31,60,060,51,24,50,234,44,20,49,311,49*7D
Sat Feb 12 16:33:49 2011 :$GPGSV,3,2,10,11,32,232,46,23,31,273,44,30,21,134,39,14,14,067,44*71
Sat Feb 12 16:33:50 2011 :$GPGSV,3,3,10,16,11,148,,25,10,044,,122,09,105,,134,13,251,*7A
Sat Feb 12 16:33:50 2011 :$GPGLL,3843.7372,N,12048.1804,W,003349.970,A*2A
Sat Feb 12 16:33:50 2011 :$GPGGA,003349.97,3843.7372,N,12048.1804,W,1,07,2.1,00568,M,,,,*30
Sat Feb 12 16:33:50 2011 :$GPRMC,003349.97,A,3843.7372,N,12048.1804,W,18.4,238.9,130211,15,E*51
Sat Feb 12 16:33:50 2011 :$GPGSA,A,3,32,31,24,20,11,23,30,,,,,,04.8,02.1,04.3*0F
Sat Feb 12 16:33:51 2011 :$PMGNST,02.17,3,T,000,00.0,+02903,00*4F
Sat Feb 12 16:33:51 2011 :$GPGLL,3843.7348,N,12048.1856,W,003350.964,A*29
Sat Feb 12 16:33:51 2011 :$GPGGA,003350.96,3843.7348,N,12048.1856,W,1,07,1.7,00568,M,,,,*32
Sat Feb 12 16:33:51 2011 :$GPRMC,003350.96,A,3843.7348,N,12048.1856,W,16.2,238.3,130211,15,E*54
Sat Feb 12 16:33:51 2011 :$GPGSA,A,3,32,31,24,20,11,23,30,,,,,,04.2,01.7,03.8*0C
Sat Feb 12 16:33:51 2011 :$GPGSV,3,1,10,32,77,345,50,31,60,060,53,24,50,234,44,20,49,311,46*70
Sat Feb 12 16:33:51 2011 :$GPGSV,3,2,10,11,32,232,47,23,31,273,48,30,21,134,39,14,14,067,*7C
Sat Feb 12 16:33:52 2011 :$GPGSV,3,3,10,16,11,148,,25,10,044,,122,09,105,,134,13,251,*7A
Sat Feb 12 16:33:52 2011 :$GPGLL,3843.7326,N,12048.1902,W,003351.972,A*27
Sat Feb 12 16:33:52 2011 :$GPGGA,003351.97,3843.7326,N,12048.1902,W,1,07,1.9,00568,M,,,,*34
Sat Feb 12 16:33:52 2011 :$GPRMC,003351.97,A,3843.7326,N,12048.1902,W,14.0,238.1,130211,15,E*5E
Sat Feb 12 16:33:52 2011 :$GPGSA,A,3,32,31,24,20,11,23,30,,,,,,04.3,01.9,03.9*02
Sat Feb 12 16:33:52 2011 :$PMGNST,02.17,3,T,000,00.0,+02900,00*4C
Sat Feb 12 16:33:53 2011 :$GPGLL,3843.7307,N,12048.1942,W,003352.966,A*26
Sat Feb 12 16:33:53 2011 :$GPGGA,003352.97,3843.7307,N,12048.1942,W,1,07,1.9,00567,M,,,,*3F
Sat Feb 12 16:33:53 2011 :$GPRMC,003352.97,A,3843.7307,N,12048.1942,W,12.9,236.5,130211,15,E*5F
Sat Feb 12 16:33:53 2011 :$GPGSA,A,3,32,31,24,20,11,23,30,,,,,,04.4,01.9,03.9*05
Sat Feb 12 16:33:53 2011 :$GPGSV,3,1,10,32,77,345,50,31,60,060,53,24,50,234,44,20,49,311,48*7E
Sat Feb 12 16:33:53 2011 :$GPGSV,3,2,10,11,32,232,47,23,31,273,44,30,21,134,44,14,14,067,38*71
Sat Feb 12 16:33:54 2011 :$GPGSV,3,3,10,16,11,148,,25,10,044,,122,09,105,,134,13,251,*7A
Sat Feb 12 16:33:54 2011 :$GPGLL,3843.7288,N,12048.1980,W,003353.974,A*2C
Sat Feb 12 16:33:54 2011 :$GPGGA,003353.97,3843.7288,N,12048.1980,W,1,07,2.1,00567,M,,,,*3D
Sat Feb 12 16:33:54 2011 :$GPRMC,003353.97,A,3843.7288,N,12048.1980,W,12.7,237.6,130211,15,E*5A
Sat Feb 12 16:33:54 2011 :$GPGSA,A,3,32,31,24,20,11,23,30,,,,,,03.4,02.1,02.7*06
Sat Feb 12 16:33:54 2011 :$PMGNST,02.17,3,T,000,00.0,+02901,00*4D
Sat Feb 12 16:33:55 2011 :$GPGLL,3843.7269,N,12048.2019,W,003354.968,A*23
Sat Feb 12 16:33:55 2011 :$GPGGA,003354.97,3843.7269,N,12048.2019,W,1,07,1.8,00567,M,,,,*35
Sat Feb 12 16:33:55 2011 :$GPRMC,003354.97,A,3843.7269,N,12048.2019,W,13.0,237.8,130211,15,E*50
Sat Feb 12 16:33:55 2011 :$GPGSA,A,3,32,31,24,20,11,23,30,,,,,,04.1,01.8,03.7*0F
Sat Feb 12 16:33:55 2011 :$GPGSV,3,1,10,32,77,345,50,31,60,060,52,24,50,234,45,20,49,311,46*70
Sat Feb 12 16:33:55 2011 :$GPGSV,3,2,10,11,32,232,45,23,31,273,46,30,21,134,45,14,14,067,*7B
Sat Feb 12 16:33:56 2011 :$GPGSV,3,3,10,16,11,148,,25,10,044,,122,09,105,,134,13,251,*7A
Sat Feb 12 16:33:56 2011 :$GPGLL,3843.7250,N,12048.2059,W,003355.962,A*26
Sat Feb 12 16:33:56 2011 :$GPGGA,003355.96,3843.7250,N,12048.2059,W,1,07,1.6,00566,M,,,,*34
Sat Feb 12 16:33:56 2011 :$GPRMC,003355.96,A,3843.7250,N,12048.2059,W,14.3,238.2,130211,15,E*5F
Sat Feb 12 16:33:56 2011 :$GPGSA,A,3,32,31,24,20,11,23,30,,,,,,03.1,01.6,02.7*07
Sat Feb 12 16:33:57 2011 :$PMGNST,02.17,3,T,000,00.0,+02900,00*4C
Sat Feb 12 16:33:57 2011 :$GPGLL,3843.7228,N,12048.2105,W,003356.956,A*25
Sat Feb 12 16:33:57 2011 :$GPGGA,003356.96,3843.7228,N,12048.2105,W,1,07,2.1,00566,M,,,,*34
Sat Feb 12 16:33:57 2011 :$GPRMC,003356.96,A,3843.7228,N,12048.2105,W,16.3,237.7,130211,15,E*53
Sat Feb 12 16:33:57 2011 :$GPGSA,A,3,32,31,24,20,11,23,30,,,,,,03.5,02.1,02.8*08
Sat Feb 12 16:33:57 2011 :$GPGSV,3,1,10,32,77,345,50,31,60,060,53,24,50,234,44,20,49,311,47*71
Sat Feb 12 16:33:57 2011 :$GPGSV,3,2,10,11,32,232,47,23,31,273,41,30,21,134,44,14,14,067,40*7B
Sat Feb 12 16:33:58 2011 :$GPGSV,3,3,10,16,11,148,,25,10,044,,122,09,105,,134,13,251,*7A
Sat Feb 12 16:33:58 2011 :$GPGLL,3843.7203,N,12048.2157,W,003357.950,A*2C
Sat Feb 12 16:33:58 2011 :$GPGGA,003357.95,3843.7203,N,12048.2157,W,1,07,2.1,00566,M,,,,*38
Sat Feb 12 16:33:58 2011 :$GPRMC,003357.95,A,3843.7203,N,12048.2157,W,18.4,239.2,130211,15,E*5D
Sat Feb 12 16:33:58 2011 :$GPGSA,A,3,32,31,24,20,11,23,30,,,,,,04.5,02.1,04.0*01
Sat Feb 12 16:33:58 2011 :$PMGNST,02.17,3,T,000,00.0,+02901,00*4D
Sat Feb 12 16:33:59 2011 :$GPGLL,3843.7176,N,12048.2216,W,003358.958,A*2C
Sat Feb 12 16:33:59 2011 :$GPGGA,003358.96,3843.7176,N,12048.2216,W,1,06,2.6,00566,M,,,,*35
Sat Feb 12 16:33:59 2011 :$GPRMC,003358.96,A,3843.7176,N,12048.2216,W,20.4,239.6,130211,15,E*59
Sat Feb 12 16:33:59 2011 :$GPGSA,A,3,32,31,24,20,11,30,,,,,,,04.5,02.6,03.7*07
Sat Feb 12 16:33:59 2011 :$GPGSV,3,1,10,32,77,345,48,31,60,060,52,24,50,234,39,20,49,311,41*75
Sat Feb 12 16:33:59 2011 :$GPGSV,3,2,10,11,32,232,49,23,31,273,36,30,21,134,44,14,14,067,38*7A
Sat Feb 12 16:34:00 2011 :$GPGSV,3,3,10,16,11,148,,25,10,044,,122,09,105,,134,13,251,*7A
Sat Feb 12 16:34:00 2011 :$GPGLL,3843.7147,N,12048.2282,W,003359.952,A*28
Sat Feb 12 16:34:00 2011 :$GPGGA,003359.95,3843.7147,N,12048.2282,W,1,07,2.7,00565,M,,,,*3B
Sat Feb 12 16:34:00 2011 :$GPRMC,003359.95,A,3843.7147,N,12048.2282,W,22.2,241.5,130211,15,E*5C
Sat Feb 12 16:34:00 2011 :$GPGSA,A,3,32,31,24,20,11,23,30,,,,,,04.5,02.7,03.6*06
Sat Feb 12 16:34:01 2011 :$PMGNST,02.17,3,T,000,00.0,+02902,00*4E
Sat Feb 12 16:34:01 2011 :$GPGLL,3843.7118,N,12048.2354,W,003400.960,A*22
Sat Feb 12 16:34:01 2011 :$GPGGA,003400.96,3843.7118,N,12048.2354,W,1,07,2.4,00565,M,,,,*30
Sat Feb 12 16:34:01 2011 :$GPRMC,003400.96,A,3843.7118,N,12048.2354,W,23.4,242.3,130211,15,E*56
Sat Feb 12 16:34:01 2011 :$GPGSA,A,3,32,31,24,20,11,23,30,,,,,,04.7,02.4,04.1*07
Sat Feb 12 16:34:01 2011 :$GPGSV,3,1,10,32,77,345,49,31,60,060,52,24,50,234,39,20,49,311,46*73
Sat Feb 12 16:34:01 2011 :$GPGSV,3,2,10,11,32,232,50,23,31,273,46,30,21,134,45,14,14,067,36*7A
Sat Feb 12 16:34:02 2011 :$GPGSV,3,3,10,16,11,148,36,25,10,044,,122,09,105,,134,13,251,*7F
Sat Feb 12 16:34:02 2011 :$GPGLL,3843.7089,N,12048.2428,W,003401.954,A*21
Sat Feb 12 16:34:02 2011 :$GPGGA,003401.95,3843.7089,N,12048.2428,W,1,07,1.8,00565,M,,,,*38
Sat Feb 12 16:34:02 2011 :$GPRMC,003401.95,A,3843.7089,N,12048.2428,W,24.0,244.6,130211,15,E*51
Sat Feb 12 16:34:02 2011 :$GPGSA,A,3,32,31,24,20,11,23,30,,,,,,04.1,01.8,03.7*0F
Sat Feb 12 16:34:02 2011 :$PMGNST,02.17,3,T,000,00.0,+02901,00*4D
Sat Feb 12 16:34:03 2011 :$GPGLL,3843.7061,N,12048.2507,W,003402.962,A*2D
Sat Feb 12 16:34:03 2011 :$GPGGA,003402.96,3843.7061,N,12048.2507,W,1,06,2.6,00564,M,,,,*3F
Sat Feb 12 16:34:03 2011 :$GPRMC,003402.96,A,3843.7061,N,12048.2507,W,24.4,247.0,130211,15,E*5A
Sat Feb 12 16:34:03 2011 :$GPGSA,A,3,32,31,24,11,23,30,,,,,,,04.8,02.6,04.0*09
Sat Feb 12 16:34:03 2011 :$GPGSV,3,1,10,32,77,345,48,31,60,060,51,24,50,234,39,20,49,311,45*72
Sat Feb 12 16:34:03 2011 :$GPGSV,3,2,10,11,32,232,51,23,31,273,39,30,21,134,46,14,14,067,36*70
Sat Feb 12 16:34:04 2011 :$GPGSV,3,3,10,16,11,148,39,25,10,044,,122,09,105,,134,13,251,*70
Sat Feb 12 16:34:04 2011 :$GPGLL,3843.7036,N,12048.2588,W,003403.956,A*2E
Sat Feb 12 16:34:04 2011 :$GPGGA,003403.96,3843.7036,N,12048.2588,W,1,07,2.4,00564,M,,,,*38
Sat Feb 12 16:34:04 2011 :$GPRMC,003403.96,A,3843.7036,N,12048.2588,W,25.1,248.6,130211,15,E*53
Sat Feb 12 16:34:04 2011 :$GPGSA,A,3,32,31,24,20,11,23,30,,,,,,04.7,02.4,04.0*06
Sat Feb 12 16:34:04 2011 :$PMGNST,02.17,3,T,000,00.0,+02898,00*4C
Sat Feb 12 16:34:05 2011 :$GPGLL,3843.7013,N,12048.2671,W,003404.950,A*2D
Sat Feb 12 16:34:05 2011 :$GPGGA,003404.95,3843.7013,N,12048.2671,W,1,07,2.4,00565,M,,,,*3F
Sat Feb 12 16:34:05 2011 :$GPRMC,003404.95,A,3843.7013,N,12048.2671,W,25.4,251.8,130211,15,E*56
Sat Feb 12 16:34:05 2011 :$GPGSA,A,3,32,31,24,20,11,23,30,,,,,,05.1,02.4,04.5*04
Sat Feb 12 16:34:05 2011 :$GPGSV,3,1,10,32,77,345,48,31,60,060,52,24,50,234,44,20,49,311,42*7C
Sat Feb 12 16:34:05 2011 :$GPGSV,3,2,10,11,32,232,50,23,31,273,41,30,21,134,41,14,14,067,38*77
Sat Feb 12 16:34:06 2011 :$GPGSV,3,3,10,16,11,148,,25,10,044,,122,09,105,,134,13,251,*7A
Sat Feb 12 16:34:06 2011 :$GPGLL,3843.6975,N,12048.2850,W,003406.952,A*28
Sat Feb 12 16:34:06 2011 :$GPGGA,003406.95,3843.6975,N,12048.2850,W,1,07,2.1,00565,M,,,,*3D
Sat Feb 12 16:34:06 2011 :$GPRMC,003406.95,A,3843.6975,N,12048.2850,W,26.8,258.4,130211,15,E*5B
Sat Feb 12 16:34:06 2011 :$GPGSA,A,3,32,31,24,20,11,23,30,,,,,,04.6,02.1,04.1*03
Sat Feb 12 16:34:06 2011 :$PMGNST,02.17,3,T,000,00.0,+02901,00*4D
Sat Feb 12 16:34:07 2011 :$GPGLL,3843.6962,N,12048.2946,W,003407.960,A*28
Sat Feb 12 16:34:07 2011 :$GPGGA,003407.96,3843.6962,N,12048.2946,W,1,07,1.5,00564,M,,,,*39
Sat Feb 12 16:34:07 2011 :$GPRMC,003407.96,A,3843.6962,N,12048.2946,W,27.8,261.0,130211,15,E*56
Sat Feb 12 16:34:07 2011 :$GPGSA,A,3,32,31,24,20,11,23,30,,,,,,03.3,01.5,02.9*08
Sat Feb 12 16:34:07 2011 :$GPGSV,3,1,10,32,77,345,48,31,60,060,51,24,50,234,49,20,49,311,46*76
Sat Feb 12 16:34:07 2011 :$GPGSV,3,2,10,11,32,232,50,23,31,273,45,30,21,134,39,14,14,067,36*72
Sat Feb 12 16:34:08 2011 :$GPGSV,3,3,10,16,11,148,,25,10,044,,122,09,105,,134,13,251,*7A
Sat Feb 12 16:34:08 2011 :$GPGLL,3843.6951,N,12048.3044,W,003408.954,A*2A
Sat Feb 12 16:34:08 2011 :$GPGGA,003408.95,3843.6951,N,12048.3044,W,1,07,1.9,00564,M,,,,*33
Sat Feb 12 16:34:08 2011 :$GPRMC,003408.95,A,3843.6951,N,12048.3044,W,28.7,263.0,130211,15,E*52
Sat Feb 12 16:34:08 2011 :$GPGSA,A,3,32,31,24,20,11,23,30,,,,,,04.4,01.9,03.9*05
Sat Feb 12 16:34:08 2011 :$PMGNST,02.17,3,T,000,00.0,+02900,00*4C
Sat Feb 12 16:34:09 2011 :$GPGLL,3843.6943,N,12048.3146,W,003409.962,A*2E
Sat Feb 12 16:34:09 2011 :$GPGGA,003409.96,3843.6943,N,12048.3146,W,1,07,1.7,00564,M,,,,*3F
Sat Feb 12 16:34:09 2011 :$GPRMC,003409.96,A,3843.6943,N,12048.3146,W,28.4,264.3,130211,15,E*57
Sat Feb 12 16:34:09 2011 :$GPGSA,A,3,32,31,24,20,11,23,30,,,,,,04.1,01.7,03.7*00
Sat Feb 12 16:34:09 2011 :$GPGSV,3,1,10,32,77,345,47,31,60,060,52,24,50,234,51,20,49,311,47*72
Sat Feb 12 16:34:09 2011 :$GPGSV,3,2,10,11,32,232,50,23,31,273,45,30,21,134,39,14,14,067,*77
Sat Feb 12 16:34:10 2011 :$GPGSV,3,3,10,16,11,148,,25,10,044,,122,09,105,,134,13,251,*7A
Sat Feb 12 16:34:10 2011 :$GPGLL,3843.6936,N,12048.3246,W,003410.956,A*20
Sat Feb 12 16:34:10 2011 :$GPGGA,003410.96,3843.6936,N,12048.3246,W,1,07,1.9,00563,M,,,,*3F
Sat Feb 12 16:34:10 2011 :$GPRMC,003410.96,A,3843.6936,N,12048.3246,W,28.5,264.5,130211,15,E*59
Sat Feb 12 16:34:10 2011 :$GPGSA,A,3,32,31,24,20,11,23,30,,,,,,03.6,01.9,03.1*08
Sat Feb 12 16:34:10 2011 :$PMGNST,02.17,3,T,000,00.0,+02900,00*4C
Sat Feb 12 16:34:11 2011 :$GPGLL,3843.6929,N,12048.3348,W,003411.950,A*26
Sat Feb 12 16:34:11 2011 :$GPGGA,003411.95,3843.6929,N,12048.3348,W,1,07,1.7,00563,M,,,,*32
Sat Feb 12 16:34:11 2011 :$GPRMC,003411.95,A,3843.6929,N,12048.3348,W,29.6,265.2,130211,15,E*5E
Sat Feb 12 16:34:11 2011 :$GPGSA,A,3,32,31,24,20,11,23,30,,,,,,04.1,01.7,03.7*00
Sat Feb 12 16:34:11 2011 :$GPGSV,3,1,10,32,77,345,48,31,60,060,53,24,50,234,51,20,49,311,49*72
Sat Feb 12 16:34:11 2011 :$GPGSV,3,2,10,11,32,232,49,23,31,273,46,30,21,134,39,14,14,067,*7C
Sat Feb 12 16:34:12 2011 :$GPGSV,3,3,10,16,11,148,,25,10,044,,122,09,105,,134,13,251,*7A
Sat Feb 12 16:34:12 2011 :$GPGLL,3843.6922,N,12048.3455,W,003412.958,A*2D
Sat Feb 12 16:34:12 2011 :$GPGGA,003412.96,3843.6922,N,12048.3455,W,1,07,2.2,00563,M,,,,*34
Sat Feb 12 16:34:12 2011 :$GPRMC,003412.96,A,3843.6922,N,12048.3455,W,30.4,265.6,130211,15,E*50
Sat Feb 12 16:34:12 2011 :$GPGSA,A,3,32,31,24,20,11,23,30,,,,,,03.5,02.2,02.8*0B
Sat Feb 12 16:34:12 2011 :$PMGNST,02.17,3,T,000,00.0,+02899,00*4D
Sat Feb 12 16:34:13 2011 :$GPGLL,3843.6917,N,12048.3562,W,003413.952,A*25
Sat Feb 12 16:34:13 2011 :$GPGGA,003413.95,3843.6917,N,12048.3562,W,1,07,2.1,00562,M,,,,*37
Sat Feb 12 16:34:13 2011 :$GPRMC,003413.95,A,3843.6917,N,12048.3562,W,30.8,266.2,130211,15,E*5A
Sat Feb 12 16:34:13 2011 :$GPGSA,A,3,32,31,24,20,11,23,30,,,,,,03.5,02.1,02.8*08
Sat Feb 12 16:34:13 2011 :$GPGSV,3,1,10,32,77,345,48,31,60,060,53,24,50,234,49,20,49,311,46*74
Sat Feb 12 16:34:13 2011 :$GPGSV,3,2,10,11,32,232,48,23,31,273,47,30,21,134,41,14,14,067,*73
Sat Feb 12 16:34:14 2011 :$GPGSV,3,3,10,16,11,148,,25,10,044,,122,09,105,,134,13,251,*7A
Sat Feb 12 16:34:14 2011 :$GPGLL,3843.6912,N,12048.3671,W,003414.960,A*27
Sat Feb 12 16:34:14 2011 :$GPGGA,003414.96,3843.6912,N,12048.3671,W,1,07,1.9,00562,M,,,,*3C
Sat Feb 12 16:34:14 2011 :$GPRMC,003414.96,A,3843.6912,N,12048.3671,W,30.2,266.9,130211,15,E*5B
Sat Feb 12 16:34:14 2011 :$GPGSA,A,3,32,31,24,20,11,23,30,,,,,,04.3,01.9,03.9*02
Sat Feb 12 16:34:14 2011 :$PMGNST,02.17,3,T,000,00.0,+02900,00*4C
Sat Feb 12 16:34:15 2011 :$GPGLL,3843.6908,N,12048.3777,W,003415.954,A*2D
Sat Feb 12 16:34:15 2011 :$GPGGA,003415.95,3843.6908,N,12048.3777,W,1,07,2.0,00562,M,,,,*38
Sat Feb 12 16:34:15 2011 :$GPRMC,003415.95,A,3843.6908,N,12048.3777,W,29.7,267.7,130211,15,E*57
Sat Feb 12 16:34:15 2011 :$GPGSA,A,3,32,31,24,20,11,23,30,,,,,,03.7,02.0,03.1*03
Sat Feb 12 16:34:15 2011 :$GPGSV,3,1,10,32,77,345,48,31,60,060,53,24,50,234,49,20,49,311,50*73
Sat Feb 12 16:34:15 2011 :$GPGSV,3,2,10,11,32,232,43,23,31,273,46,30,21,134,39,14,14,067,*76
Sat Feb 12 16:34:16 2011 :$GPGSV,3,3,10,16,11,148,36,25,10,044,,122,09,105,,134,13,251,*7F
Sat Feb 12 16:34:16 2011 :$GPGLL,3843.6906,N,12048.3882,W,003416.962,A*20
Sat Feb 12 16:34:16 2011 :$GPGGA,003416.96,3843.6906,N,12048.3882,W,1,07,2.0,00561,M,,,,*30
Sat Feb 12 16:34:16 2011 :$GPRMC,003416.96,A,3843.6906,N,12048.3882,W,29.2,269.4,130211,15,E*54
Sat Feb 12 16:34:16 2011 :$GPGSA,A,3,32,31,24,20,11,23,30,,,,,,03.7,02.0,03.1*03
Sat Feb 12 16:34:17 2011 :$PMGNST,02.17,3,T,000,00.0,+02899,00*4D
Sat Feb 12 16:34:17 2011 :$GPGLL,3843.6907,N,12048.3984,W,003417.956,A*20
Sat Feb 12 16:34:17 2011 :$GPGGA,003417.96,3843.6907,N,12048.3984,W,1,07,2.2,00561,M,,,,*35
Sat Feb 12 16:34:17 2011 :$GPRMC,003417.96,A,3843.6907,N,12048.3984,W,28.8,271.8,130211,15,E*5D
Sat Feb 12 16:34:17 2011 :$GPGSA,A,3,32,31,24,20,11,23,30,,,,,,03.6,02.2,02.8*08
Sat Feb 12 16:34:17 2011 :$GPGSV,3,1,10,32,77,345,49,31,60,060,52,24,50,234,52,20,49,311,51*78
Sat Feb 12 16:34:17 2011 :$GPGSV,3,2,10,11,32,232,46,23,31,273,47,30,21,134,38,14,14,067,*73
Sat Feb 12 16:34:18 2011 :$GPGSV,3,3,10,16,11,148,,25,10,044,,122,09,105,,134,13,251,*7A
Sat Feb 12 16:34:18 2011 :$GPGLL,3843.6911,N,12048.4086,W,003418.950,A*22
Sat Feb 12 16:34:18 2011 :$GPGGA,003418.95,3843.6911,N,12048.4086,W,1,07,1.9,00561,M,,,,*3A
Sat Feb 12 16:34:18 2011 :$GPRMC,003418.95,A,3843.6911,N,12048.4086,W,28.8,274.4,130211,15,E*53
Sat Feb 12 16:34:18 2011 :$GPGSA,A,3,32,31,24,20,11,23,30,,,,,,04.4,01.9,03.9*05
Sat Feb 12 16:34:19 2011 :$PMGNST,02.17,3,T,000,00.0,+02899,00*4D
Sat Feb 12 16:34:19 2011 :$GPGLL,3843.6920,N,12048.4189,W,003419.958,A*27
Sat Feb 12 16:34:19 2011 :$GPGGA,003419.96,3843.6920,N,12048.4189,W,1,07,1.7,00560,M,,,,*3B
Sat Feb 12 16:34:19 2011 :$GPRMC,003419.96,A,3843.6920,N,12048.4189,W,29.4,276.8,130211,15,E*5E
Sat Feb 12 16:34:19 2011 :$GPGSA,A,3,32,31,24,20,11,23,30,,,,,,04.3,01.7,03.9*0C
Sat Feb 12 16:34:19 2011 :$GPGSV,3,1,10,32,77,345,50,31,60,060,51,24,50,234,50,20,49,311,49*78
Sat Feb 12 16:34:19 2011 :$GPGSV,3,2,10,11,32,232,51,23,31,273,41,30,21,134,36,14,14,067,*7D
Sat Feb 12 16:34:20 2011 :$GPGSV,3,3,10,16,11,148,,25,10,044,,122,09,105,,134,13,251,*7A
Sat Feb 12 16:34:20 2011 :$GPGLL,3843.6931,N,12048.4294,W,003420.952,A*28
Sat Feb 12 16:34:20 2011 :$GPGGA,003420.95,3843.6931,N,12048.4294,W,1,07,2.3,00560,M,,,,*3A
Sat Feb 12 16:34:20 2011 :$GPRMC,003420.95,A,3843.6931,N,12048.4294,W,30.4,278.8,130211,15,E*5E
Sat Feb 12 16:34:20 2011 :$GPGSA,A,3,32,31,24,20,11,23,30,,,,,,03.9,02.3,03.1*0E
Sat Feb 12 16:34:21 2011 :$PMGNST,02.17,3,T,000,00.0,+02899,00*4D
Sat Feb 12 16:34:21 2011 :$GPGLL,3843.6946,N,12048.4403,W,003421.961,A*21
Sat Feb 12 16:34:22 2011 :$GPGGA,003421.96,3843.6946,N,12048.4403,W,1,07,2.3,00560,M,,,,*30
Sat Feb 12 16:34:22 2011 :$GPRMC,003421.96,A,3843.6946,N,12048.4403,W,31.4,280.3,130211,15,E*59
Sat Feb 12 16:34:22 2011 :$GPGSA,A,3,32,31,24,20,11,23,30,,,,,,03.8,02.3,03.0*0E
Sat Feb 12 16:34:22 2011 :$GPGSV,3,1,10,32,77,345,50,31,60,060,52,24,50,234,47,20,49,311,48*7C
Sat Feb 12 16:34:22 2011 :$GPGSV,3,2,10,11,32,232,52,23,31,273,48,30,21,134,36,14,14,067,*77
Sat Feb 12 16:34:23 2011 :$GPGSV,3,3,10,16,11,148,,25,10,044,,122,09,105,,134,13,251,*7A
Sat Feb 12 16:34:23 2011 :$GPGLL,3843.6963,N,12048.4513,W,003422.955,A*22
Sat Feb 12 16:34:23 2011 :$GPGGA,003422.95,3843.6963,N,12048.4513,W,1,07,1.7,00559,M,,,,*3A
Sat Feb 12 16:34:23 2011 :$GPRMC,003422.95,A,3843.6963,N,12048.4513,W,32.3,280.5,130211,15,E*5C
Sat Feb 12 16:34:23 2011 :$GPGSA,A,3,32,31,24,20,11,23,30,,,,,,03.7,01.7,03.2*04
Sat Feb 12 16:34:23 2011 :$PMGNST,02.17,3,T,000,00.0,+02899,00*4D
Sat Feb 12 16:34:24 2011 :$GPGLL,3843.6980,N,12048.4629,W,003423.963,A*21
Sat Feb 12 16:34:24 2011 :$GPGGA,003423.96,3843.6980,N,12048.4629,W,1,07,2.0,00559,M,,,,*3B
Sat Feb 12 16:34:24 2011 :$GPRMC,003423.96,A,3843.6980,N,12048.4629,W,33.0,280.4,130211,15,E*5A
Sat Feb 12 16:34:24 2011 :$GPGSA,A,3,32,31,24,20,11,23,30,,,,,,04.0,02.0,03.5*07
Sat Feb 12 16:34:24 2011 :$GPGSV,3,1,10,32,77,345,51,31,60,060,53,24,50,234,48,20,49,311,49*72
Sat Feb 12 16:34:24 2011 :$GPGSV,3,2,10,11,32,232,52,23,31,273,47,30,21,134,36,14,14,067,*78
Sat Feb 12 16:34:25 2011 :$GPGSV,3,3,10,16,11,148,,25,10,044,,122,09,105,,134,13,251,*7A
Sat Feb 12 16:34:25 2011 :$GPGLL,3843.6997,N,12048.4745,W,003424.957,A*2C
Sat Feb 12 16:34:25 2011 :$GPGGA,003424.96,3843.6997,N,12048.4745,W,1,07,2.3,00559,M,,,,*32
Sat Feb 12 16:34:25 2011 :$GPRMC,003424.96,A,3843.6997,N,12048.4745,W,33.7,280.9,130211,15,E*5A
Sat Feb 12 16:34:25 2011 :$GPGSA,A,3,32,31,24,20,11,23,30,,,,,,03.8,02.3,03.1*0F
Sat Feb 12 16:34:26 2011 :$PMGNST,02.17,3,T,000,00.0,+02898,00*4C
Sat Feb 12 16:34:26 2011 :$GPGLL,3843.7016,N,12048.4865,W,003425.965,A*20
Sat Feb 12 16:34:26 2011 :$GPGGA,003425.96,3843.7016,N,12048.4865,W,1,07,1.9,00558,M,,,,*37
Sat Feb 12 16:34:26 2011 :$GPRMC,003425.96,A,3843.7016,N,12048.4865,W,34.5,282.0,130211,15,E*59
Sat Feb 12 16:34:26 2011 :$GPGSA,A,3,32,31,24,20,11,23,30,,,,,,04.7,01.9,04.3*0B
Sat Feb 12 16:34:26 2011 :$GPGSV,3,1,10,32,77,345,51,31,60,060,54,24,50,234,44,20,49,311,46*76
Sat Feb 12 16:34:27 2011 :$GPGSV,3,2,10,11,32,232,51,23,31,273,49,30,21,134,36,14,14,067,*75
Sat Feb 12 16:34:27 2011 :$GPGSV,3,3,10,16,11,148,,25,10,044,,122,09,105,,134,13,251,*7A
Sat Feb 12 16:34:27 2011 :$GPGLL,3843.7038,N,12048.4986,W,003426.973,A*24
Sat Feb 12 16:34:27 2011 :$GPGGA,003426.97,3843.7038,N,12048.4986,W,1,07,1.9,00558,M,,,,*35
Sat Feb 12 16:34:27 2011 :$GPRMC,003426.97,A,3843.7038,N,12048.4986,W,35.1,284.3,130211,15,E*5B
Sat Feb 12 16:34:27 2011 :$GPGSA,A,3,32,31,24,20,11,23,30,,,,,,03.7,01.9,03.2*0A
Sat Feb 12 16:34:27 2011 :$PMGNST,02.17,3,T,000,00.0,+02899,00*4D
Sat Feb 12 16:34:28 2011 :$GPGLL,3843.7067,N,12048.5105,W,003427.967,A*28
Sat Feb 12 16:34:28 2011 :$GPGGA,003427.97,3843.7067,N,12048.5105,W,1,07,1.8,00559,M,,,,*3C
Sat Feb 12 16:34:28 2011 :$GPRMC,003427.97,A,3843.7067,N,12048.5105,W,35.5,289.8,130211,15,E*50
Sat Feb 12 16:34:28 2011 :$GPGSA,A,3,32,31,24,20,11,23,30,,,,,,04.2,01.8,03.8*03
Sat Feb 12 16:34:28 2011 :$GPGSV,3,1,10,32,77,345,50,31,60,060,52,24,50,234,51,20,49,311,46*75
Sat Feb 12 16:34:28 2011 :$GPGSV,3,2,10,11,32,232,48,23,31,273,49,30,21,134,44,14,14,067,*78
Sat Feb 12 16:34:29 2011 :$GPGSV,3,3,10,16,11,148,,25,10,044,,122,09,105,,134,13,251,*7A
Sat Feb 12 16:34:29 2011 :$GPGLL,3843.7105,N,12048.5221,W,003428.961,A*21
Sat Feb 12 16:34:29 2011 :$GPGGA,003428.96,3843.7105,N,12048.5221,W,1,07,1.7,00559,M,,,,*3D
Sat Feb 12 16:34:29 2011 :$GPRMC,003428.96,A,3843.7105,N,12048.5221,W,35.7,295.8,130211,15,E*51
Sat Feb 12 16:34:29 2011 :$GPGSA,A,3,32,31,24,20,11,23,30,,,,,,04.1,01.7,03.7*00
Sat Feb 12 16:34:30 2011 :$PMGNST,02.17,3,T,000,00.0,+02897,00*43
Sat Feb 12 16:34:30 2011 :$GPGLL,3843.7153,N,12048.5333,W,003429.969,A*29
Sat Feb 12 16:34:30 2011 :$GPGGA,003429.97,3843.7153,N,12048.5333,W,1,07,2.3,00559,M,,,,*3B
Sat Feb 12 16:34:30 2011 :$GPRMC,003429.97,A,3843.7153,N,12048.5333,W,36.0,302.1,130211,15,E*52
Sat Feb 12 16:34:30 2011 :$GPGSA,A,3,32,31,24,20,11,23,30,,,,,,03.7,02.3,02.8*08
Sat Feb 12 16:34:30 2011 :$GPGSV,3,1,10,32,77,345,49,31,60,060,51,24,50,234,52,20,49,311,44*7F
Sat Feb 12 16:34:30 2011 :$GPGSV,3,2,10,11,32,232,36,23,31,273,50,30,21,134,41,14,14,067,*7C
Sat Feb 12 16:34:31 2011 :$GPGSV,3,3,10,16,11,148,,25,10,044,,122,09,105,,134,13,251,*7A
Sat Feb 12 16:34:31 2011 :$GPGLL,3843.7211,N,12048.5438,W,003430.963,A*22
Sat Feb 12 16:34:31 2011 :$GPGGA,003430.96,3843.7211,N,12048.5438,W,1,07,1.7,00558,M,,,,*3D
Sat Feb 12 16:34:31 2011 :$GPRMC,003430.96,A,3843.7211,N,12048.5438,W,36.4,307.8,130211,15,E*5A
Sat Feb 12 16:34:31 2011 :$GPGSA,A,3,32,31,24,20,11,23,30,,,,,,04.1,01.7,03.8*0F
Sat Feb 12 16:34:32 2011 :$PMGNST,02.17,3,T,000,00.0,+02897,00*43
Sat Feb 12 16:34:32 2011 :$GPGLL,3843.7275,N,12048.5539,W,003431.971,A*22
Sat Feb 12 16:34:32 2011 :$GPGGA,003431.97,3843.7275,N,12048.5539,W,1,07,2.1,00559,M,,,,*3B
Sat Feb 12 16:34:32 2011 :$GPRMC,003431.97,A,3843.7275,N,12048.5539,W,36.7,310.9,130211,15,E*5C
Sat Feb 12 16:34:32 2011 :$GPGSA,A,3,32,31,24,20,11,23,30,,,,,,04.6,02.1,04.0*02
Sat Feb 12 16:34:32 2011 :$GPGSV,3,1,10,32,77,345,50,31,60,060,50,24,50,234,54,20,49,311,48*7C
Sat Feb 12 16:34:32 2011 :$GPGSV,3,2,10,11,32,232,45,23,31,273,38,30,21,134,46,14,14,067,*71
Sat Feb 12 16:34:33 2011 :$GPGSV,3,3,10,16,11,148,,25,10,044,,122,09,105,,134,13,251,*7A
Sat Feb 12 16:34:33 2011 :$GPGLL,3843.7343,N,12048.5636,W,003432.965,A*2C
Sat Feb 12 16:34:33 2011 :$GPGGA,003432.96,3843.7343,N,12048.5636,W,1,07,2.2,00559,M,,,,*32
Sat Feb 12 16:34:33 2011 :$GPRMC,003432.96,A,3843.7343,N,12048.5636,W,37.3,312.0,130211,15,E*58
Sat Feb 12 16:34:33 2011 :$GPGSA,A,3,32,31,24,20,11,23,30,,,,,,04.3,02.2,03.7*04
Sat Feb 12 16:34:33 2011 :$PMGNST,02.17,3,T,000,00.0,+02897,00*43
Sat Feb 12 16:34:34 2011 :$GPGLL,3843.7414,N,12048.5736,W,003433.973,A*2E
Sat Feb 12 16:34:34 2011 :$GPGGA,003433.97,3843.7414,N,12048.5736,W,1,07,2.1,00559,M,,,,*35
Sat Feb 12 16:34:34 2011 :$GPRMC,003433.97,A,3843.7414,N,12048.5736,W,37.8,312.5,130211,15,E*52
Sat Feb 12 16:34:34 2011 :$GPGSA,A,3,32,31,24,20,11,23,30,,,,,,04.5,02.1,04.0*01
Sat Feb 12 16:34:34 2011 :$GPGSV,3,1,10,32,77,345,50,31,60,060,51,24,50,234,54,20,49,311,48*7D
Sat Feb 12 16:34:34 2011 :$GPGSV,3,2,10,11,32,232,49,23,31,273,42,30,21,134,46,14,14,067,*70
Sat Feb 12 16:34:34 2011 :$GPGSV,3,3,10,16,11,148,,25,10,044,,122,09,105,,134,13,251,*7A
Sat Feb 12 16:34:35 2011 :$GPGLL,3843.7485,N,12048.5835,W,003434.967,A*28
Sat Feb 12 16:34:35 2011 :$GPGGA,003434.97,3843.7485,N,12048.5835,W,1,07,1.6,00560,M,,,,*38
Sat Feb 12 16:34:35 2011 :$GPRMC,003434.97,A,3843.7485,N,12048.5835,W,38.2,312.3,130211,15,E*52
Sat Feb 12 16:34:35 2011 :$GPGSA,A,3,32,31,24,20,11,23,30,,,,,,03.9,01.6,03.5*0C
Sat Feb 12 16:34:35 2011 :$PMGNST,02.17,3,T,000,00.0,+02897,00*43
Sat Feb 12 16:34:36 2011 :$GPGLL,3843.7555,N,12048.5938,W,003435.961,A*2F
Sat Feb 12 16:34:36 2011 :$GPGGA,003435.96,3843.7555,N,12048.5938,W,1,07,2.1,00560,M,,,,*3C
Sat Feb 12 16:34:36 2011 :$GPRMC,003435.96,A,3843.7555,N,12048.5938,W,38.6,309.5,130211,15,E*5A
Sat Feb 12 16:34:36 2011 :$GPGSA,A,3,32,31,24,20,11,23,30,,,,,,04.6,02.1,04.1*03
Sat Feb 12 16:34:36 2011 :$GPGSV,3,1,10,32,77,345,49,31,60,060,46,24,50,234,48,20,49,311,44*72
Sat Feb 12 16:34:36 2011 :$GPGSV,3,2,10,11,32,232,44,23,31,273,47,30,21,134,41,14,14,067,*7F
Sat Feb 12 16:34:37 2011 :$GPGSV,3,3,10,16,11,148,,25,10,044,,122,09,105,,134,13,251,*7A
Sat Feb 12 16:34:37 2011 :$GPGLL,3843.7620,N,12048.6048,W,003436.969,A*28
Sat Feb 12 16:34:37 2011 :$GPGGA,003436.97,3843.7620,N,12048.6048,W,1,07,1.6,00560,M,,,,*36
Sat Feb 12 16:34:37 2011 :$GPRMC,003436.97,A,3843.7620,N,12048.6048,W,39.0,305.1,130211,15,E*5B
Sat Feb 12 16:34:37 2011 :$GPGSA,A,3,32,31,24,20,11,23,30,,,,,,03.3,01.6,02.9*0B
Sat Feb 12 16:34:37 2011 :$PMGNST,02.17,3,T,000,00.0,+02896,00*42
Sat Feb 12 16:34:38 2011 :$GPGLL,3843.7679,N,12048.6164,W,003437.963,A*20
Sat Feb 12 16:34:38 2011 :$GPGGA,003437.96,3843.7679,N,12048.6164,W,1,07,1.7,00560,M,,,,*34
Sat Feb 12 16:34:38 2011 :$GPRMC,003437.96,A,3843.7679,N,12048.6164,W,39.5,300.8,130211,15,E*51
Sat Feb 12 16:34:38 2011 :$GPGSA,A,3,32,31,24,20,11,23,30,,,,,,04.1,01.7,03.7*00
Sat Feb 12 16:34:38 2011 :$GPGSV,3,1,10,32,77,345,48,31,60,060,52,24,50,234,50,20,49,311,44*7F
Sat Feb 12 16:34:38 2011 :$GPGSV,3,2,10,11,32,232,47,23,31,273,52,30,21,134,36,14,14,067,*78
Sat Feb 12 16:34:39 2011 :$GPGSV,3,3,10,16,11,148,,25,10,044,,122,09,105,,134,13,251,*7A
Sat Feb 12 16:34:39 2011 :$GPGLL,3843.7733,N,12048.6289,W,003438.971,A*23
Sat Feb 12 16:34:39 2011 :$GPGGA,003438.97,3843.7733,N,12048.6289,W,1,07,2.3,00560,M,,,,*32
Sat Feb 12 16:34:39 2011 :$GPRMC,003438.97,A,3843.7733,N,12048.6289,W,40.1,296.8,130211,15,E*54
Sat Feb 12 16:34:39 2011 :$GPGSA,A,3,32,31,24,20,11,23,30,,,,,,03.8,02.3,03.0*0E
Sat Feb 12 16:34:39 2011 :$PMGNST,02.17,3,T,000,00.0,+02896,00*42
Sat Feb 12 16:34:40 2011 :$GPGLL,3843.7779,N,12048.6417,W,003439.965,A*28
Sat Feb 12 16:34:40 2011 :$GPGGA,003439.96,3843.7779,N,12048.6417,W,1,07,1.8,00560,M,,,,*35
Sat Feb 12 16:34:40 2011 :$GPRMC,003439.96,A,3843.7779,N,12048.6417,W,40.1,292.8,130211,15,E*5F
Sat Feb 12 16:34:40 2011 :$GPGSA,A,3,32,31,24,20,11,23,30,,,,,,03.7,01.8,03.2*0B
Sat Feb 12 16:34:40 2011 :$GPGSV,3,1,10,32,77,345,50,31,60,060,52,24,50,234,51,20,49,311,38*7C
Sat Feb 12 16:34:40 2011 :$GPGSV,3,2,10,11,32,232,45,23,31,273,51,30,21,134,36,14,14,067,*79
Sat Feb 12 16:34:41 2011 :$GPGSV,3,3,10,16,11,148,,25,10,044,,122,09,105,,134,13,251,*7A
Sat Feb 12 16:34:41 2011 :$GPGLL,3843.7853,N,12048.6688,W,003441.967,A*26
Sat Feb 12 16:34:41 2011 :$GPGGA,003441.97,3843.7853,N,12048.6688,W,1,07,2.1,00560,M,,,,*32
Sat Feb 12 16:34:41 2011 :$GPRMC,003441.97,A,3843.7853,N,12048.6688,W,40.6,285.4,130211,15,E*5F
Sat Feb 12 16:34:41 2011 :$GPGSA,A,3,32,31,24,20,11,23,30,,,,,,03.5,02.1,02.7*07
Sat Feb 12 16:34:41 2011 :$PMGNST,02.17,3,T,000,00.0,+02896,00*42
Sat Feb 12 16:34:42 2011 :$GPGLL,3843.7879,N,12048.6828,W,003442.961,A*2F
Sat Feb 12 16:34:42 2011 :$GPGGA,003442.96,3843.7879,N,12048.6828,W,1,07,1.5,00559,M,,,,*31
Sat Feb 12 16:34:42 2011 :$GPRMC,003442.96,A,3843.7879,N,12048.6828,W,41.1,281.7,130211,15,E*50
Sat Feb 12 16:34:42 2011 :$GPGSA,A,3,32,31,24,20,11,23,30,,,,,,03.3,01.5,02.9*08
Sat Feb 12 16:34:42 2011 :$GPGSV,3,1,10,32,77,345,48,31,60,060,49,24,50,234,51,20,49,311,50*71
Sat Feb 12 16:34:42 2011 :$GPGSV,3,2,10,11,32,232,49,23,31,273,46,30,21,134,41,14,14,067,*73
Sat Feb 12 16:34:43 2011 :$GPGSV,3,3,10,16,11,148,,25,10,044,,122,09,105,,134,13,251,*7A
Sat Feb 12 16:34:43 2011 :$GPGLL,3843.7900,N,12048.6972,W,003443.955,A*28
Sat Feb 12 16:34:43 2011 :$GPGGA,003443.95,3843.7900,N,12048.6972,W,1,07,2.0,00559,M,,,,*34
Sat Feb 12 16:34:43 2011 :$GPRMC,003443.95,A,3843.7900,N,12048.6972,W,41.6,279.3,130211,15,E*57
Sat Feb 12 16:34:43 2011 :$GPGSA,A,3,32,31,24,20,11,23,30,,,,,,04.4,02.0,04.0*01
Sat Feb 12 16:34:43 2011 :$PMGNST,02.17,3,T,000,00.0,+02896,00*42
Sat Feb 12 16:34:44 2011 :$GPGLL,3843.7900,N,12048.6972,W,003443.955,A*28
Sat Feb 12 16:34:44 2011 :$GPGGA,003443.95,3843.7900,N,12048.6972,W,1,07,2.0,00559,M,,,,*34
Sat Feb 12 16:34:44 2011 :$GPRMC,003443.95,A,3843.7900,N,12048.6972,W,41.6,279.3,130211,15,E*57
Sat Feb 12 16:34:44 2011 :$GPGSA,A,3,32,31,24,20,11,23,30,,,,,,04.4,02.0,04.0*01
Sat Feb 12 16:34:44 2011 :$GPGSV,3,1,10,32,77,345,49,31,60,060,48,24,50,234,51,20,49,311,50*71
Sat Feb 12 16:34:44 2011 :$GPGSV,3,2,10,11,32,232,46,23,31,273,45,30,21,134,36,14,14,067,*7F
Sat Feb 12 16:34:45 2011 :$GPGSV,3,3,10,16,11,148,,25,10,044,,122,09,105,,134,13,251,*7A
Sat Feb 12 16:34:45 2011 :$GPGLL,3843.7918,N,12048.7118,W,003444.949,A*2E
Sat Feb 12 16:34:45 2011 :$GPGGA,003444.95,3843.7918,N,12048.7118,W,1,07,2.1,00558,M,,,,*3F
Sat Feb 12 16:34:45 2011 :$GPRMC,003444.95,A,3843.7918,N,12048.7118,W,42.0,278.4,130211,15,E*5F
Sat Feb 12 16:34:45 2011 :$GPGSA,A,3,32,31,24,20,11,23,30,,,,,,04.8,02.1,04.3*0F
Sat Feb 12 16:34:46 2011 :$PMGNST,02.17,3,T,000,00.0,+02895,00*41
Sat Feb 12 16:34:46 2011 :$GPGLL,3843.7952,N,12048.7417,W,003446.951,A*21
Sat Feb 12 16:34:46 2011 :$GPGGA,003446.95,3843.7952,N,12048.7417,W,1,06,2.1,00557,M,,,,*37
Sat Feb 12 16:34:46 2011 :$GPRMC,003446.95,A,3843.7952,N,12048.7417,W,43.1,277.9,130211,15,E*5B
Sat Feb 12 16:34:46 2011 :$GPGSA,A,3,32,31,24,20,11,23,,,,,,,04.7,02.1,04.2*02
Sat Feb 12 16:34:46 2011 :$GPGSV,3,1,10,32,77,345,49,31,60,060,47,24,50,234,48,20,49,311,47*70
Sat Feb 12 16:34:46 2011 :$GPGSV,3,2,10,11,32,232,47,23,31,273,45,30,21,134,,14,14,067,*7B
Sat Feb 12 16:34:47 2011 :$GPGSV,3,3,10,16,11,148,,25,10,044,,122,09,105,,134,13,251,*7A
Sat Feb 12 16:34:47 2011 :$GPGLL,3843.7969,N,12048.7571,W,003447.959,A*21
Sat Feb 12 16:34:47 2011 :$GPGGA,003447.96,3843.7969,N,12048.7571,W,1,06,2.1,00556,M,,,,*3D
Sat Feb 12 16:34:47 2011 :$GPRMC,003447.96,A,3843.7969,N,12048.7571,W,44.0,277.9,130211,15,E*56
Sat Feb 12 16:34:47 2011 :$GPGSA,A,3,32,31,24,20,11,23,,,,,,,04.7,02.1,04.2*02
Sat Feb 12 16:34:48 2011 :$PMGNST,02.17,3,T,000,00.0,+02895,00*41
Sat Feb 12 16:34:48 2011 :$GPGLL,3843.7986,N,12048.7726,W,003448.953,A*25
Sat Feb 12 16:34:48 2011 :$GPGGA,003448.95,3843.7986,N,12048.7726,W,1,06,2.1,00556,M,,,,*30
Sat Feb 12 16:34:48 2011 :$GPRMC,003448.95,A,3843.7986,N,12048.7726,W,44.9,278.1,130211,15,E*55
Sat Feb 12 16:34:48 2011 :$GPGSA,A,3,32,31,24,20,11,23,,,,,,,04.7,02.1,04.2*02
Sat Feb 12 16:34:48 2011 :$GPGSV,3,1,10,32,77,345,50,31,60,060,47,24,50,234,50,20,49,311,49*7F
Sat Feb 12 16:34:49 2011 :$GPGSV,3,2,10,11,32,232,48,23,31,273,44,30,21,134,,14,14,067,*75
Sat Feb 12 16:34:49 2011 :$GPGSV,3,3,10,16,11,148,,25,10,044,,122,09,105,,134,13,251,*7A
Sat Feb 12 16:34:49 2011 :$GPGLL,3843.8004,N,12048.7887,W,003449.961,A*2D
Sat Feb 12 16:34:49 2011 :$GPGGA,003449.96,3843.8004,N,12048.7887,W,1,06,2.3,00555,M,,,,*3B
Sat Feb 12 16:34:49 2011 :$GPRMC,003449.96,A,3843.8004,N,12048.7887,W,46.0,278.0,130211,15,E*55
Sat Feb 12 16:34:49 2011 :$GPGSA,A,3,32,31,24,20,11,23,,,,,,,06.3,02.3,05.9*0C
Sat Feb 12 16:34:50 2011 :$PMGNST,02.17,3,T,000,00.0,+02895,00*41
Sat Feb 12 16:34:50 2011 :$GPGLL,3843.8021,N,12048.8049,W,003450.955,A*20
Sat Feb 12 16:34:50 2011 :$GPGGA,003450.96,3843.8021,N,12048.8049,W,1,06,2.6,00555,M,,,,*34
Sat Feb 12 16:34:50 2011 :$GPRMC,003450.96,A,3843.8021,N,12048.8049,W,46.9,277.8,130211,15,E*51
Sat Feb 12 16:34:50 2011 :$GPGSA,A,3,32,31,24,20,11,23,,,,,,,06.0,02.6,05.4*07
Sat Feb 12 16:34:50 2011 :$GPGSV,3,1,10,32,77,345,50,31,60,060,47,24,50,234,50,20,49,311,49*7F
Sat Feb 12 16:34:51 2011 :$GPGSV,3,2,10,11,32,232,48,23,31,273,44,30,21,134,36,14,14,067,*70
Sat Feb 12 16:34:51 2011 :$GPGSV,3,3,10,16,11,148,,25,10,044,,122,09,105,,134,13,251,*7A
Sat Feb 12 16:34:51 2011 :$GPGLL,3843.8039,N,12048.8215,W,003451.949,A*2E
Sat Feb 12 16:34:51 2011 :$GPGGA,003451.95,3843.8039,N,12048.8215,W,1,07,2.2,00553,M,,,,*37
Sat Feb 12 16:34:51 2011 :$GPRMC,003451.95,A,3843.8039,N,12048.8215,W,48.0,277.7,130211,15,E*59
Sat Feb 12 16:34:52 2011 :$GPGSA,A,3,32,31,24,20,11,23,30,,,,,,04.9,02.2,04.4*0A
Sat Feb 12 16:34:52 2011 :$PMGNST,02.17,3,T,000,00.0,+02894,00*40
Sat Feb 12 16:34:52 2011 :$GPGLL,3843.8058,N,12048.8386,W,003452.957,A*2E
Sat Feb 12 16:34:52 2011 :$GPGGA,003452.96,3843.8058,N,12048.8386,W,1,07,2.2,00553,M,,,,*3B
Sat Feb 12 16:34:52 2011 :$GPRMC,003452.96,A,3843.8058,N,12048.8386,W,48.7,277.8,130211,15,E*5D
Sat Feb 12 16:34:52 2011 :$GPGSA,A,3,32,31,24,20,11,23,30,,,,,,04.9,02.2,04.4*0A
Sat Feb 12 16:34:53 2011 :$GPGSV,3,1,10,32,77,345,49,31,60,060,48,24,50,234,51,20,49,311,49*79
