Sat Aug 28 12:34:55 2010 :GPSD,R=1
Sat Aug 28 12:34:56 2010 :$PMGNST,02.17,3,T,000,00.0,+02865,00*4E
Sat Aug 28 12:34:56 2010 :$GPGLL,3806.9650,N,11902.5774,W,193454.628,A*29
Sat Aug 28 12:34:56 2010 :$GPGGA,193454.63,3806.9650,N,11902.5774,W,1,05,6.3,02108,M,,,,*3E
Sat Aug 28 12:34:56 2010 :$GPRMC,193454.63,A,3806.9650,N,11902.5774,W,46.1,045.3,280810,14,E*55
Sat Aug 28 12:34:56 2010 :$GPGSA,A,3,28,19,08,07,11,,,,,,,,09.2,06.3,06.7*00
Sat Aug 28 12:34:56 2010 :$GPGSV,3,1,09,28,70,354,49,08,67,082,49,17,51,188,54,26,49,288,*77
Sat Aug 28 12:34:56 2010 :$GPGSV,3,2,09,07,34,115,50,11,29,093,48,15,24,312,44,19,08,039,42*72
Sat Aug 28 12:34:57 2010 :$GPGSV,3,3,09,27,03,308,,122,11,106,,134,12,253,,,,,*4A
Sat Aug 28 12:34:57 2010 :$GPGLL,3806.9742,N,11902.5658,W,193455.622,A*2F
Sat Aug 28 12:34:57 2010 :$GPGGA,193455.62,3806.9742,N,11902.5658,W,1,05,6.7,02110,M,,,,*3E
Sat Aug 28 12:34:57 2010 :$GPRMC,193455.62,A,3806.9742,N,11902.5658,W,45.8,044.7,280810,14,E*57
Sat Aug 28 12:34:57 2010 :$GPGSA,A,3,28,19,08,07,11,,,,,,,,09.5,06.7,06.7*03
Sat Aug 28 12:34:57 2010 :$PMGNST,02.17,3,T,000,00.0,+02865,00*4E
Sat Aug 28 12:34:58 2010 :$GPGLL,3806.9833,N,11902.5543,W,193456.616,A*2B
Sat Aug 28 12:34:58 2010 :$GPGGA,193456.62,3806.9833,N,11902.5543,W,1,05,6.0,02112,M,,,,*38
Sat Aug 28 12:34:58 2010 :$GPRMC,193456.62,A,3806.9833,N,11902.5543,W,45.3,044.9,280810,14,E*51
Sat Aug 28 12:34:58 2010 :$GPGSA,A,3,28,19,08,07,11,,,,,,,,07.3,06.0,04.2*0B
Sat Aug 28 12:34:58 2010 :$GPGSV,3,1,09,28,70,354,48,08,67,082,49,17,51,188,54,26,49,288,*76
Sat Aug 28 12:34:58 2010 :$GPGSV,3,2,09,07,34,115,50,11,29,093,48,15,24,312,45,19,08,039,41*70
Sat Aug 28 12:34:59 2010 :$GPGSV,3,3,09,27,03,308,,122,11,106,,134,12,253,,,,,*4A
Sat Aug 28 12:34:59 2010 :$GPGLL,3806.9940,N,11902.5397,W,193457.610,A*26
Sat Aug 28 12:34:59 2010 :$GPGGA,193457.61,3806.9940,N,11902.5397,W,1,06,2.5,02115,M,,,,*35
Sat Aug 28 12:34:59 2010 :$GPRMC,193457.61,A,3806.9940,N,11902.5397,W,45.1,045.0,280810,14,E*53
Sat Aug 28 12:34:59 2010 :$GPGSA,A,3,28,19,08,17,07,11,,,,,,,04.9,02.5,04.2*05
Sat Aug 28 12:35:00 2010 :$PMGNST,02.17,3,T,000,00.0,+02864,00*4F
Sat Aug 28 12:35:00 2010 :$GPGLL,3807.0039,N,11902.5274,W,193458.604,A*2F
Sat Aug 28 12:35:00 2010 :$GPGGA,193458.60,3807.0039,N,11902.5274,W,1,06,2.7,02118,M,,,,*37
Sat Aug 28 12:35:00 2010 :$GPRMC,193458.60,A,3807.0039,N,11902.5274,W,45.0,044.7,280810,14,E*59
Sat Aug 28 12:35:00 2010 :$GPGSA,A,3,28,19,08,17,07,11,,,,,,,04.9,02.7,04.1*04
Sat Aug 28 12:35:00 2010 :$GPGSV,3,1,09,28,70,354,47,08,67,082,49,17,51,188,54,26,49,288,*79
Sat Aug 28 12:35:00 2010 :$GPGSV,3,2,09,07,34,115,50,11,29,093,47,15,24,312,44,19,08,039,45*7A
Sat Aug 28 12:35:01 2010 :$GPGSV,3,3,09,27,03,308,,122,11,106,,134,12,253,,,,,*4A
Sat Aug 28 12:35:01 2010 :$GPGLL,3807.0135,N,11902.5154,W,193459.612,A*25
Sat Aug 28 12:35:01 2010 :$GPGGA,193459.61,3807.0135,N,11902.5154,W,1,06,2.7,02120,M,,,,*30
Sat Aug 28 12:35:01 2010 :$GPRMC,193459.61,A,3807.0135,N,11902.5154,W,45.0,044.5,280810,14,E*57
Sat Aug 28 12:35:01 2010 :$GPGSA,A,3,28,19,08,17,07,11,,,,,,,04.9,02.7,04.1*04
Sat Aug 28 12:35:02 2010 :$PMGNST,02.17,3,T,000,00.0,+02863,00*48
Sat Aug 28 12:35:02 2010 :$GPGLL,3807.0230,N,11902.5040,W,193500.606,A*2F
Sat Aug 28 12:35:02 2010 :$GPGGA,193500.61,3807.0230,N,11902.5040,W,1,06,2.5,02120,M,,,,*3D
Sat Aug 28 12:35:02 2010 :$GPRMC,193500.61,A,3807.0230,N,11902.5040,W,45.2,044.1,280810,14,E*5E
Sat Aug 28 12:35:02 2010 :$GPGSA,A,3,28,19,08,17,07,11,,,,,,,03.6,02.5,02.6*0F
Sat Aug 28 12:35:02 2010 :$GPGSV,3,1,09,28,70,354,47,08,67,082,48,17,51,188,53,26,49,288,39*75
Sat Aug 28 12:35:02 2010 :$GPGSV,3,2,09,07,34,115,49,11,29,093,47,15,24,312,44,19,08,039,47*70
Sat Aug 28 12:35:03 2010 :$GPGSV,3,3,09,27,03,308,,122,11,106,,134,12,253,,,,,*4A
Sat Aug 28 12:35:03 2010 :$GPGLL,3807.0326,N,11902.4922,W,193501.614,A*27
Sat Aug 28 12:35:03 2010 :$GPGGA,193501.61,3807.0326,N,11902.4922,W,1,06,2.5,02121,M,,,,*37
Sat Aug 28 12:35:03 2010 :$GPRMC,193501.61,A,3807.0326,N,11902.4922,W,45.4,044.1,280810,14,E*53
Sat Aug 28 12:35:03 2010 :$GPGSA,A,3,28,19,08,17,07,11,,,,,,,04.9,02.5,04.1*06
Sat Aug 28 12:35:04 2010 :$PMGNST,02.17,3,T,000,00.0,+02863,00*48
Sat Aug 28 12:35:04 2010 :$GPGLL,3807.0417,N,11902.4807,W,193502.608,A*2A
Sat Aug 28 12:35:04 2010 :$GPGGA,193502.61,3807.0417,N,11902.4807,W,1,06,2.7,02122,M,,,,*36
Sat Aug 28 12:35:04 2010 :$GPRMC,193502.61,A,3807.0417,N,11902.4807,W,45.6,044.9,280810,14,E*59
Sat Aug 28 12:35:04 2010 :$GPGSA,A,3,28,19,08,17,07,11,,,,,,,04.9,02.7,04.1*04
Sat Aug 28 12:35:04 2010 :$GPGSV,3,1,09,28,70,354,48,08,67,082,48,17,51,188,53,26,49,288,39*7A
Sat Aug 28 12:35:05 2010 :$GPGSV,3,2,09,07,34,115,49,11,29,093,47,15,24,312,42,19,08,039,46*77
Sat Aug 28 12:35:05 2010 :$GPGSV,3,3,09,27,03,308,,122,11,106,,134,12,253,,,,,*4A
Sat Aug 28 12:35:05 2010 :$GPGLL,3807.0511,N,11902.4694,W,193503.602,A*22
Sat Aug 28 12:35:05 2010 :$GPGGA,193503.60,3807.0511,N,11902.4694,W,1,07,2.1,02121,M,,,,*31
Sat Aug 28 12:35:05 2010 :$GPRMC,193503.60,A,3807.0511,N,11902.4694,W,45.8,044.8,280810,14,E*55
Sat Aug 28 12:35:06 2010 :$GPGSA,A,3,28,19,08,17,26,07,11,,,,,,04.0,02.1,03.3*0A
Sat Aug 28 12:35:06 2010 :$PMGNST,02.17,3,T,000,00.0,+02862,00*49
Sat Aug 28 12:35:06 2010 :$GPGLL,3807.0605,N,11902.4582,W,193504.610,A*24
Sat Aug 28 12:35:06 2010 :$GPGGA,193504.61,3807.0605,N,11902.4582,W,1,07,2.0,02121,M,,,,*34
Sat Aug 28 12:35:06 2010 :$GPRMC,193504.61,A,3807.0605,N,11902.4582,W,45.6,044.8,280810,14,E*5F
Sat Aug 28 12:35:06 2010 :$GPGSA,A,3,28,19,08,17,26,07,11,,,,,,03.7,02.0,03.1*09
Sat Aug 28 12:35:06 2010 :$GPGSV,3,1,09,28,70,354,48,08,67,082,48,17,51,188,53,26,49,288,39*7A
Sat Aug 28 12:35:07 2010 :$GPGSV,3,2,09,07,34,115,49,11,29,093,47,15,24,312,40,19,08,039,46*75
Sat Aug 28 12:35:07 2010 :$GPGSV,3,3,09,27,03,308,,122,11,106,,134,12,253,,,,,*4A
Sat Aug 28 12:35:07 2010 :$GPGLL,3807.0696,N,11902.4472,W,193505.604,A*24
Sat Aug 28 12:35:07 2010 :$GPGGA,193505.60,3807.0696,N,11902.4472,W,1,07,2.0,02120,M,,,,*31
Sat Aug 28 12:35:07 2010 :$GPRMC,193505.60,A,3807.0696,N,11902.4472,W,45.4,045.1,280810,14,E*51
Sat Aug 28 12:35:08 2010 :$GPGSA,A,3,28,19,08,17,26,07,11,,,,,,04.0,02.0,03.5*0D
Sat Aug 28 12:35:08 2010 :$PMGNST,02.17,3,T,000,00.0,+02862,00*49
Sat Aug 28 12:35:08 2010 :$GPGLL,3807.0786,N,11902.4354,W,193506.612,A*23
Sat Aug 28 12:35:08 2010 :$GPGGA,193506.61,3807.0786,N,11902.4354,W,1,07,2.0,02120,M,,,,*30
Sat Aug 28 12:35:08 2010 :$GPRMC,193506.61,A,3807.0786,N,11902.4354,W,45.3,044.9,280810,14,E*5E
Sat Aug 28 12:35:08 2010 :$GPGSA,A,3,28,19,08,17,26,07,11,,,,,,04.0,02.0,03.5*0D
Sat Aug 28 12:35:09 2010 :$GPGSV,3,1,09,28,70,354,48,08,67,082,49,17,51,188,52,26,49,288,40*74
Sat Aug 28 12:35:09 2010 :$GPGSV,3,2,09,07,34,115,49,11,29,093,47,15,24,312,44,19,08,039,46*71
Sat Aug 28 12:35:09 2010 :$GPGSV,3,3,09,27,03,308,,122,11,106,,134,12,253,,,,,*4A
Sat Aug 28 12:35:09 2010 :$GPGLL,3807.0786,N,11902.4354,W,193506.612,A*23
Sat Aug 28 12:35:09 2010 :$GPGGA,193506.61,3807.0786,N,11902.4354,W,1,07,2.0,02120,M,,,,*30
Sat Aug 28 12:35:10 2010 :$GPRMC,193506.61,A,3807.0786,N,11902.4354,W,45.3,044.9,280810,14,E*5E
Sat Aug 28 12:35:10 2010 :$GPGSA,A,3,28,19,08,17,26,07,11,,,,,,04.0,02.0,03.5*0D
Sat Aug 28 12:35:10 2010 :$PMGNST,02.17,3,T,000,00.0,+02861,00*4A
Sat Aug 28 12:35:10 2010 :$GPGLL,3807.0786,N,11902.4354,W,193506.612,A*23
Sat Aug 28 12:35:10 2010 :$GPGGA,193506.61,3807.0786,N,11902.4354,W,1,07,2.0,02120,M,,,,*30
Sat Aug 28 12:35:10 2010 :$GPRMC,193506.61,A,3807.0786,N,11902.4354,W,45.3,044.9,280810,14,E*5E
Sat Aug 28 12:35:10 2010 :$GPGSA,A,3,28,19,08,17,26,07,11,,,,,,04.0,02.0,03.5*0D
Sat Aug 28 12:35:11 2010 :$GPGSV,3,1,09,28,70,354,49,08,67,082,49,17,51,188,52,26,49,288,38*7A
Sat Aug 28 12:35:11 2010 :$GPGSV,3,2,09,07,34,115,48,11,29,093,47,15,24,312,44,19,08,039,44*72
Sat Aug 28 12:35:11 2010 :$GPGSV,3,3,09,27,03,308,,122,11,106,,134,12,253,,,,,*4A
Sat Aug 28 12:35:11 2010 :$GPGLL,3807.1055,N,11902.4017,W,193509.608,A*2B
Sat Aug 28 12:35:11 2010 :$GPGGA,193509.61,3807.1055,N,11902.4017,W,1,07,2.0,02117,M,,,,*37
Sat Aug 28 12:35:12 2010 :$GPRMC,193509.61,A,3807.1055,N,11902.4017,W,45.3,044.9,280810,14,E*5D
Sat Aug 28 12:35:12 2010 :$GPGSA,A,3,28,19,08,17,26,07,11,,,,,,03.0,02.0,02.2*0C
Sat Aug 28 12:35:12 2010 :$PMGNST,02.17,3,T,000,00.0,+02861,00*4A
Sat Aug 28 12:35:12 2010 :$GPGLL,3807.1145,N,11902.3904,W,193510.602,A*25
Sat Aug 28 12:35:12 2010 :$GPGGA,193510.60,3807.1145,N,11902.3904,W,1,07,2.0,02117,M,,,,*32
Sat Aug 28 12:35:12 2010 :$GPRMC,193510.60,A,3807.1145,N,11902.3904,W,45.3,045.0,280810,14,E*50
Sat Aug 28 12:35:12 2010 :$GPGSA,A,3,28,19,08,17,26,07,11,,,,,,02.9,02.0,02.1*07
Sat Aug 28 12:35:13 2010 :$GPGSV,3,1,09,28,70,354,49,08,67,082,49,17,51,188,52,26,49,288,42*77
Sat Aug 28 12:35:13 2010 :$GPGSV,3,2,09,07,34,115,48,11,29,093,46,15,24,312,44,19,08,039,45*72
Sat Aug 28 12:35:13 2010 :$GPGSV,3,3,09,27,03,308,,122,11,106,,134,12,253,,,,,*4A
Sat Aug 28 12:35:13 2010 :$GPGLL,3807.1235,N,11902.3788,W,193511.610,A*29
Sat Aug 28 12:35:13 2010 :$GPGGA,193511.61,3807.1235,N,11902.3788,W,1,07,2.1,02117,M,,,,*3D
Sat Aug 28 12:35:14 2010 :$GPRMC,193511.61,A,3807.1235,N,11902.3788,W,45.1,045.1,280810,14,E*5D
Sat Aug 28 12:35:14 2010 :$GPGSA,A,3,28,19,08,17,26,07,11,,,,,,03.9,02.1,03.3*04
Sat Aug 28 12:35:14 2010 :$PMGNST,02.17,3,T,000,00.0,+02860,00*4B
Sat Aug 28 12:35:14 2010 :$GPGLL,3807.1323,N,11902.3677,W,193512.604,A*28
Sat Aug 28 12:35:15 2010 :$GPGGA,193512.60,3807.1323,N,11902.3677,W,1,07,1.9,02118,M,,,,*3C
Sat Aug 28 12:35:15 2010 :$GPRMC,193512.60,A,3807.1323,N,11902.3677,W,44.7,045.2,280810,14,E*5C
Sat Aug 28 12:35:15 2010 :$GPGSA,A,3,28,19,08,17,26,07,11,,,,,,02.8,01.9,02.1*0C
Sat Aug 28 12:35:15 2010 :$GPGSV,3,1,09,28,70,354,48,08,67,082,48,17,51,188,53,26,49,288,44*70
Sat Aug 28 12:35:15 2010 :$GPGSV,3,2,09,07,34,115,48,11,29,093,47,15,24,312,45,19,08,039,47*70
Sat Aug 28 12:35:16 2010 :$GPGSV,3,3,09,27,03,308,,122,11,106,,134,12,253,,,,,*4A
Sat Aug 28 12:35:16 2010 :$GPGLL,3807.1412,N,11902.3565,W,193513.612,A*2B
Sat Aug 28 12:35:16 2010 :$GPGGA,193513.61,3807.1412,N,11902.3565,W,1,07,1.9,02118,M,,,,*39
Sat Aug 28 12:35:16 2010 :$GPRMC,193513.61,A,3807.1412,N,11902.3565,W,44.3,045.1,280810,14,E*5E
Sat Aug 28 12:35:16 2010 :$GPGSA,A,3,28,19,08,17,26,07,11,,,,,,03.6,01.9,03.0*03
Sat Aug 28 12:35:16 2010 :$PMGNST,02.17,3,T,000,00.0,+02859,00*41
Sat Aug 28 12:35:17 2010 :$GPGLL,3807.1499,N,11902.3455,W,193514.606,A*28
Sat Aug 28 12:35:17 2010 :$GPGGA,193514.61,3807.1499,N,11902.3455,W,1,07,2.0,02118,M,,,,*35
Sat Aug 28 12:35:17 2010 :$GPRMC,193514.61,A,3807.1499,N,11902.3455,W,44.0,045.1,280810,14,E*5B
Sat Aug 28 12:35:17 2010 :$GPGSA,A,3,28,19,08,17,26,07,11,,,,,,03.9,02.0,03.4*02
Sat Aug 28 12:35:17 2010 :$GPGSV,3,1,09,28,70,354,49,08,67,082,48,17,51,188,52,26,49,288,42*76
Sat Aug 28 12:35:18 2010 :$GPGSV,3,2,09,07,34,115,48,11,29,093,47,15,24,312,44,19,08,039,45*73
Sat Aug 28 12:35:18 2010 :$GPGSV,3,3,09,27,03,308,,122,11,106,,134,12,253,,,,,*4A
Sat Aug 28 12:35:18 2010 :$GPGLL,3807.1585,N,11902.3347,W,193515.600,A*27
Sat Aug 28 12:35:18 2010 :$GPGGA,193515.60,3807.1585,N,11902.3347,W,1,07,2.0,02117,M,,,,*32
Sat Aug 28 12:35:18 2010 :$GPRMC,193515.60,A,3807.1585,N,11902.3347,W,43.9,045.1,280810,14,E*5D
Sat Aug 28 12:35:18 2010 :$GPGSA,A,3,28,19,08,17,26,07,11,,,,,,03.9,02.0,03.3*05
Sat Aug 28 12:35:18 2010 :$PMGNST,02.17,3,T,000,00.0,+02858,00*40
Sat Aug 28 12:35:19 2010 :$GPGLL,3807.1673,N,11902.3238,W,193516.608,A*2F
Sat Aug 28 12:35:19 2010 :$GPGGA,193516.61,3807.1673,N,11902.3238,W,1,07,1.9,02116,M,,,,*38
Sat Aug 28 12:35:19 2010 :$GPRMC,193516.61,A,3807.1673,N,11902.3238,W,43.6,044.8,280810,14,E*5B
Sat Aug 28 12:35:19 2010 :$GPGSA,A,3,28,19,08,17,26,07,11,,,,,,02.8,01.9,02.1*0C
Sat Aug 28 12:35:19 2010 :$GPGSV,3,1,09,28,70,354,49,08,67,082,49,17,51,188,52,26,49,288,41*74
Sat Aug 28 12:35:19 2010 :$GPGSV,3,2,09,07,34,115,48,11,29,093,46,15,24,312,44,19,08,039,46*71
Sat Aug 28 12:35:20 2010 :$GPGSV,3,3,09,27,03,308,,122,11,106,,134,12,253,,,,,*4A
Sat Aug 28 12:35:20 2010 :$GPGLL,3807.1760,N,11902.3129,W,193517.616,A*21
Sat Aug 28 12:35:20 2010 :$GPGGA,193517.62,3807.1760,N,11902.3129,W,1,07,2.0,02115,M,,,,*33
Sat Aug 28 12:35:20 2010 :$GPRMC,193517.62,A,3807.1760,N,11902.3129,W,43.7,044.8,280810,14,E*58
Sat Aug 28 12:35:20 2010 :$GPGSA,A,3,28,19,08,17,26,07,11,,,,,,02.9,02.0,02.1*07
Sat Aug 28 12:35:20 2010 :$PMGNST,02.17,3,T,000,00.0,+02858,00*40
Sat Aug 28 12:35:21 2010 :$GPGLL,3807.1847,N,11902.3020,W,193518.610,A*2A
Sat Aug 28 12:35:21 2010 :$GPGGA,193518.61,3807.1847,N,11902.3020,W,1,07,2.1,02115,M,,,,*3C
Sat Aug 28 12:35:21 2010 :$GPRMC,193518.61,A,3807.1847,N,11902.3020,W,44.6,045.0,280810,14,E*59
Sat Aug 28 12:35:21 2010 :$GPGSA,A,3,28,19,08,17,26,07,11,,,,,,03.9,02.1,03.3*04
Sat Aug 28 12:35:21 2010 :$GPGSV,3,1,09,28,70,354,49,08,67,082,49,17,51,188,52,26,49,288,41*74
Sat Aug 28 12:35:22 2010 :$GPGSV,3,2,09,07,34,115,48,11,29,093,46,15,24,312,42,19,08,039,46*77
Sat Aug 28 12:35:22 2010 :$GPGSV,3,3,09,27,03,308,,122,11,106,,134,12,253,,,,,*4A
Sat Aug 28 12:35:22 2010 :$GPGLL,3807.1935,N,11902.2908,W,193519.604,A*28
Sat Aug 28 12:35:22 2010 :$GPGGA,193519.60,3807.1935,N,11902.2908,W,1,07,2.0,02115,M,,,,*3B
Sat Aug 28 12:35:22 2010 :$GPRMC,193519.60,A,3807.1935,N,11902.2908,W,45.3,045.0,280810,14,E*5B
Sat Aug 28 12:35:22 2010 :$GPGSA,A,3,28,19,08,17,26,07,11,,,,,,04.0,02.0,03.4*0C
Sat Aug 28 12:35:22 2010 :$PMGNST,02.17,3,T,000,00.0,+02857,00*4F
Sat Aug 28 12:35:23 2010 :$GPGLL,3807.2025,N,11902.2795,W,193520.612,A*24
Sat Aug 28 12:35:23 2010 :$GPGGA,193520.61,3807.2025,N,11902.2795,W,1,07,2.0,02114,M,,,,*30
Sat Aug 28 12:35:23 2010 :$GPRMC,193520.61,A,3807.2025,N,11902.2795,W,45.5,044.8,280810,14,E*5E
Sat Aug 28 12:35:23 2010 :$GPGSA,A,3,28,19,08,17,26,07,11,,,,,,02.9,02.0,02.1*07
Sat Aug 28 12:35:23 2010 :$GPGSV,3,1,09,28,70,354,48,08,67,082,47,17,51,188,52,26,49,288,44*7E
Sat Aug 28 12:35:23 2010 :$GPGSV,3,2,09,07,34,115,48,11,29,093,47,15,24,312,44,19,08,039,48*7E
Sat Aug 28 12:35:23 2010 :$GPGSV,3,3,09,27,03,308,,122,11,106,,134,12,253,,,,,*4A
Sat Aug 28 12:35:24 2010 :$GPGLL,3807.2115,N,11902.2681,W,193521.606,A*26
Sat Aug 28 12:35:24 2010 :$GPGGA,193521.61,3807.2115,N,11902.2681,W,1,07,1.5,02114,M,,,,*31
Sat Aug 28 12:35:24 2010 :$GPRMC,193521.61,A,3807.2115,N,11902.2681,W,45.5,045.0,280810,14,E*50
Sat Aug 28 12:35:24 2010 :$GPGSA,A,3,28,19,08,17,26,07,11,,,,,,03.7,01.5,03.4*0A
Sat Aug 28 12:35:24 2010 :$PMGNST,02.17,3,T,000,00.0,+02856,00*4E
Sat Aug 28 12:35:24 2010 :$GPGLL,3807.2206,N,11902.2565,W,193522.614,A*2E
Sat Aug 28 12:35:24 2010 :$GPGGA,193522.61,3807.2206,N,11902.2565,W,1,07,1.5,02114,M,,,,*3A
Sat Aug 28 12:35:25 2010 :$GPRMC,193522.61,A,3807.2206,N,11902.2565,W,45.6,045.6,280810,14,E*5E
Sat Aug 28 12:35:25 2010 :$GPGSA,A,3,28,19,08,17,26,07,11,,,,,,03.7,01.5,03.4*0A
Sat Aug 28 12:35:25 2010 :$GPGSV,3,1,09,28,70,354,49,08,67,082,48,17,51,188,52,26,49,288,43*77
Sat Aug 28 12:35:25 2010 :$GPGSV,3,2,09,07,34,115,47,11,29,093,47,15,24,312,39,19,08,039,48*7B
Sat Aug 28 12:35:25 2010 :$GPGSV,3,3,09,27,03,308,,122,11,106,,134,12,253,,,,,*4A
Sat Aug 28 12:35:26 2010 :$GPGLL,3807.2295,N,11902.2451,W,193523.608,A*2E
Sat Aug 28 12:35:26 2010 :$GPGGA,193523.61,3807.2295,N,11902.2451,W,1,07,2.0,02114,M,,,,*31
Sat Aug 28 12:35:27 2010 :$GPRMC,193523.61,A,3807.2295,N,11902.2451,W,45.8,045.5,280810,14,E*5E
Sat Aug 28 12:35:27 2010 :$GPGSA,A,3,28,19,08,17,26,07,11,,,,,,03.9,02.0,03.3*05
Sat Aug 28 12:35:27 2010 :$PMGNST,02.17,3,T,000,00.0,+02856,00*4E
Sat Aug 28 12:35:27 2010 :$GPGLL,3807.2475,N,11902.2223,W,193525.611,A*2B
Sat Aug 28 12:35:27 2010 :$GPGGA,193525.61,3807.2475,N,11902.2223,W,1,07,2.0,02113,M,,,,*3B
Sat Aug 28 12:35:28 2010 :$GPRMC,193525.61,A,3807.2475,N,11902.2223,W,45.7,045.0,280810,14,E*59
Sat Aug 28 12:35:28 2010 :$GPGSA,A,3,28,19,08,17,26,07,11,,,,,,03.7,02.0,03.1*09
Sat Aug 28 12:35:28 2010 :$GPGSV,3,1,09,28,70,354,49,08,67,082,49,17,51,188,53,26,49,288,41*75
Sat Aug 28 12:35:28 2010 :$GPGSV,3,2,09,07,34,115,48,11,29,093,47,15,24,312,41,19,08,039,48*7B
Sat Aug 28 12:35:28 2010 :$GPGSV,3,3,09,27,03,308,,122,11,106,,134,12,253,,,,,*4A
Sat Aug 28 12:35:28 2010 :$GPGLL,3807.2564,N,11902.2109,W,193526.605,A*27
Sat Aug 28 12:35:29 2010 :$GPGGA,193526.60,3807.2564,N,11902.2109,W,1,07,2.0,02114,M,,,,*34
Sat Aug 28 12:35:29 2010 :$GPRMC,193526.60,A,3807.2564,N,11902.2109,W,45.6,045.0,280810,14,E*50
Sat Aug 28 12:35:29 2010 :$GPGSA,A,3,28,19,08,17,26,07,11,,,,,,04.0,02.0,03.4*0C
Sat Aug 28 12:35:29 2010 :$PMGNST,02.17,3,T,000,00.0,+02855,00*4D
Sat Aug 28 12:35:29 2010 :$GPGLL,3807.2654,N,11902.1996,W,193527.612,A*2D
Sat Aug 28 12:35:29 2010 :$GPGGA,193527.61,3807.2654,N,11902.1996,W,1,08,1.8,02114,M,,,,*3D
Sat Aug 28 12:35:30 2010 :$GPRMC,193527.61,A,3807.2654,N,11902.1996,W,45.2,044.9,280810,14,E*51
Sat Aug 28 12:35:30 2010 :$GPGSA,A,3,15,28,19,08,17,26,07,11,,,,,03.1,01.8,02.6*06
Sat Aug 28 12:35:30 2010 :$GPGSV,3,1,09,28,70,354,48,08,67,082,49,17,51,188,53,26,49,288,41*74
Sat Aug 28 12:35:30 2010 :$GPGSV,3,2,09,07,34,115,48,11,29,093,47,15,24,312,39,19,08,039,46*7A
Sat Aug 28 12:35:30 2010 :$GPGSV,3,3,09,27,03,308,,122,11,106,,134,12,253,,,,,*4A
Sat Aug 28 12:35:31 2010 :$GPGLL,3807.2742,N,11902.1885,W,193528.606,A*22
Sat Aug 28 12:35:31 2010 :$GPGGA,193528.61,3807.2742,N,11902.1885,W,1,08,1.8,02114,M,,,,*37
Sat Aug 28 12:35:31 2010 :$GPRMC,193528.61,A,3807.2742,N,11902.1885,W,44.4,045.3,280810,14,E*57
Sat Aug 28 12:35:31 2010 :$GPGSA,A,3,15,28,19,08,17,26,07,11,,,,,03.1,01.8,02.6*06
Sat Aug 28 12:35:31 2010 :$PMGNST,02.17,3,T,000,00.0,+02854,00*4C
Sat Aug 28 12:35:31 2010 :$GPGLL,3807.2829,N,11902.1774,W,193529.614,A*23
Sat Aug 28 12:35:31 2010 :$GPGGA,193529.61,3807.2829,N,11902.1774,W,1,08,1.7,02115,M,,,,*3B
Sat Aug 28 12:35:32 2010 :$GPRMC,193529.61,A,3807.2829,N,11902.1774,W,43.4,045.6,280810,14,E*57
Sat Aug 28 12:35:32 2010 :$GPGSA,A,3,15,28,19,08,17,26,07,11,,,,,02.5,01.7,01.7*0E
Sat Aug 28 12:35:32 2010 :$GPGSV,3,1,09,28,70,354,48,08,67,082,49,17,51,188,53,26,49,288,41*74
Sat Aug 28 12:35:32 2010 :$GPGSV,3,2,09,07,34,115,49,11,29,093,47,15,24,312,40,19,08,039,46*75
Sat Aug 28 12:35:32 2010 :$GPGSV,3,3,09,27,03,308,,122,11,106,,134,12,253,,,,,*4A
Sat Aug 28 12:35:32 2010 :$GPGLL,3807.2912,N,11902.1667,W,193530.608,A*2C
Sat Aug 28 12:35:32 2010 :$GPGGA,193530.61,3807.2912,N,11902.1667,W,1,08,1.8,02116,M,,,,*35
Sat Aug 28 12:35:33 2010 :$GPRMC,193530.61,A,3807.2912,N,11902.1667,W,42.4,045.6,280810,14,E*54
Sat Aug 28 12:35:33 2010 :$GPGSA,A,3,15,28,19,08,17,26,07,11,,,,,02.6,01.8,01.8*0D
Sat Aug 28 12:35:33 2010 :$PMGNST,02.17,3,T,000,00.0,+02853,00*4B
Sat Aug 28 12:35:33 2010 :$GPGLL,3807.2995,N,11902.1561,W,193531.616,A*28
Sat Aug 28 12:35:33 2010 :$GPGGA,193531.62,3807.2995,N,11902.1561,W,1,08,1.8,02117,M,,,,*3C
Sat Aug 28 12:35:33 2010 :$GPRMC,193531.62,A,3807.2995,N,11902.1561,W,41.3,045.1,280810,14,E*5F
Sat Aug 28 12:35:33 2010 :$GPGSA,A,3,15,28,19,08,17,26,07,11,,,,,03.1,01.8,02.6*06
Sat Aug 28 12:35:33 2010 :$GPGSV,3,1,09,28,70,354,49,08,67,082,50,17,51,188,53,26,49,288,40*7C
Sat Aug 28 12:35:34 2010 :$GPGSV,3,2,09,07,34,115,48,11,29,093,46,15,24,312,38,19,08,039,45*79
Sat Aug 28 12:35:34 2010 :$GPGSV,3,3,09,27,03,308,,122,11,106,,134,12,253,,,,,*4A
Sat Aug 28 12:35:34 2010 :$GPGLL,3807.3076,N,11902.1459,W,193532.610,A*22
Sat Aug 28 12:35:34 2010 :$GPGGA,193532.61,3807.3076,N,11902.1459,W,1,08,1.3,02117,M,,,,*38
Sat Aug 28 12:35:34 2010 :$GPRMC,193532.61,A,3807.3076,N,11902.1459,W,40.8,045.3,280810,14,E*58
Sat Aug 28 12:35:34 2010 :$GPGSA,A,3,15,28,19,08,17,26,07,11,,,,,03.0,01.3,02.7*0D
Sat Aug 28 12:35:35 2010 :$PMGNST,02.17,3,T,000,00.0,+02852,00*4A
Sat Aug 28 12:35:35 2010 :$GPGLL,3807.3156,N,11902.1357,W,193533.604,A*2C
Sat Aug 28 12:35:35 2010 :$GPGGA,193533.60,3807.3156,N,11902.1357,W,1,08,1.8,02118,M,,,,*36
Sat Aug 28 12:35:35 2010 :$GPRMC,193533.60,A,3807.3156,N,11902.1357,W,40.7,044.9,280810,14,E*56
Sat Aug 28 12:35:35 2010 :$GPGSA,A,3,15,28,19,08,17,26,07,11,,,,,03.1,01.8,02.6*06
Sat Aug 28 12:35:35 2010 :$GPGSV,3,1,09,28,70,354,48,08,67,082,49,17,51,188,53,26,49,288,41*74
Sat Aug 28 12:35:35 2010 :$GPGSV,3,2,09,07,34,115,48,11,29,093,46,15,24,312,39,19,08,039,47*7A
Sat Aug 28 12:35:36 2010 :$GPGSV,3,3,09,27,03,308,,122,11,106,,134,12,253,,,,,*4A
Sat Aug 28 12:35:36 2010 :$GPGLL,3807.3237,N,11902.1256,W,193534.612,A*28
Sat Aug 28 12:35:36 2010 :$GPGGA,193534.61,3807.3237,N,11902.1256,W,1,08,1.8,02118,M,,,,*34
Sat Aug 28 12:35:36 2010 :$GPRMC,193534.61,A,3807.3237,N,11902.1256,W,40.7,044.6,280810,14,E*5B
Sat Aug 28 12:35:36 2010 :$GPGSA,A,3,15,28,19,08,17,26,07,11,,,,,02.9,01.8,02.3*0A
Sat Aug 28 12:35:36 2010 :$PMGNST,02.17,3,T,000,00.0,+02851,00*49
Sat Aug 28 12:35:37 2010 :$GPGLL,3807.3317,N,11902.1158,W,193535.606,A*22
Sat Aug 28 12:35:37 2010 :$GPGGA,193535.61,3807.3317,N,11902.1158,W,1,08,1.8,02118,M,,,,*3B
Sat Aug 28 12:35:37 2010 :$GPRMC,193535.61,A,3807.3317,N,11902.1158,W,39.9,044.0,280810,14,E*52
Sat Aug 28 12:35:37 2010 :$GPGSA,A,3,15,28,19,08,17,26,07,11,,,,,02.6,01.8,01.9*0C
Sat Aug 28 12:35:37 2010 :$GPGSV,3,1,09,28,70,354,49,08,67,082,48,17,51,188,53,26,49,288,39*7B
Sat Aug 28 12:35:37 2010 :$GPGSV,3,2,09,07,34,115,49,11,29,093,47,15,24,312,36,19,08,039,47*75
Sat Aug 28 12:35:38 2010 :$GPGSV,3,3,09,27,03,308,,122,11,106,,134,12,253,,,,,*4A
Sat Aug 28 12:35:38 2010 :$GPGLL,3807.3397,N,11902.1062,W,193536.614,A*22
Sat Aug 28 12:35:38 2010 :$GPGGA,193536.61,3807.3397,N,11902.1062,W,1,08,1.8,02118,M,,,,*38
Sat Aug 28 12:35:38 2010 :$GPRMC,193536.61,A,3807.3397,N,11902.1062,W,39.2,043.7,280810,14,E*5A
Sat Aug 28 12:35:38 2010 :$GPGSA,A,3,15,28,19,08,17,26,07,11,,,,,02.6,01.8,01.9*0C
Sat Aug 28 12:35:38 2010 :$PMGNST,02.17,3,T,000,00.0,+02850,00*48
Sat Aug 28 12:35:39 2010 :$GPGLL,3807.3475,N,11902.0968,W,193537.608,A*27
Sat Aug 28 12:35:39 2010 :$GPGGA,193537.61,3807.3475,N,11902.0968,W,1,08,1.8,02118,M,,,,*30
Sat Aug 28 12:35:39 2010 :$GPRMC,193537.61,A,3807.3475,N,11902.0968,W,38.8,044.0,280810,14,E*59
Sat Aug 28 12:35:39 2010 :$GPGSA,A,3,15,28,19,08,17,26,07,11,,,,,02.6,01.8,01.9*0C
Sat Aug 28 12:35:39 2010 :$GPGSV,3,1,09,28,70,354,49,08,67,082,49,17,51,188,53,26,49,288,36*75
Sat Aug 28 12:35:39 2010 :$GPGSV,3,2,09,07,34,115,49,11,29,093,46,15,24,312,36,19,08,039,47*74
Sat Aug 28 12:35:40 2010 :$GPGSV,3,3,09,27,03,308,,122,11,106,,134,12,253,,,,,*4A
Sat Aug 28 12:35:40 2010 :$GPGLL,3807.3552,N,11902.0873,W,193538.616,A*28
Sat Aug 28 12:35:40 2010 :$GPGGA,193538.62,3807.3552,N,11902.0873,W,1,08,1.9,02117,M,,,,*3D
Sat Aug 28 12:35:40 2010 :$GPRMC,193538.62,A,3807.3552,N,11902.0873,W,38.3,044.6,280810,14,E*57
Sat Aug 28 12:35:40 2010 :$GPGSA,A,3,15,28,19,08,17,26,07,11,,,,,03.3,01.9,02.8*0B
Sat Aug 28 12:35:40 2010 :$PMGNST,02.17,3,T,000,00.0,+02849,00*40
Sat Aug 28 12:35:41 2010 :$GPGLL,3807.3626,N,11902.0779,W,193539.610,A*2A
Sat Aug 28 12:35:41 2010 :$GPGGA,193539.61,3807.3626,N,11902.0779,W,1,08,1.8,02118,M,,,,*34
Sat Aug 28 12:35:41 2010 :$GPRMC,193539.61,A,3807.3626,N,11902.0779,W,37.2,045.2,280810,14,E*5B
Sat Aug 28 12:35:41 2010 :$GPGSA,A,3,15,28,19,08,17,26,07,11,,,,,03.4,01.8,02.9*0C
Sat Aug 28 12:35:41 2010 :$GPGSV,3,1,09,28,70,354,49,08,67,082,49,17,51,188,53,26,49,288,41*75
Sat Aug 28 12:35:41 2010 :$GPGSV,3,2,09,07,34,115,48,11,29,093,46,15,24,312,36,19,08,039,46*74
Sat Aug 28 12:35:42 2010 :$GPGSV,3,3,09,27,03,308,,122,11,106,,134,12,253,,,,,*4A
Sat Aug 28 12:35:42 2010 :$GPGLL,3807.3697,N,11902.0687,W,193540.604,A*2B
Sat Aug 28 12:35:42 2010 :$GPGGA,193540.60,3807.3697,N,11902.0687,W,1,08,1.8,02118,M,,,,*31
Sat Aug 28 12:35:42 2010 :$GPRMC,193540.60,A,3807.3697,N,11902.0687,W,36.2,045.8,280810,14,E*55
Sat Aug 28 12:35:42 2010 :$GPGSA,A,3,15,28,19,08,17,26,07,11,,,,,03.4,01.8,02.9*0C
Sat Aug 28 12:35:42 2010 :$PMGNST,02.17,3,T,000,00.0,+02849,00*40
Sat Aug 28 12:35:43 2010 :$GPGLL,3807.3768,N,11902.0596,W,193541.612,A*2F
Sat Aug 28 12:35:43 2010 :$GPGGA,193541.61,3807.3768,N,11902.0596,W,1,08,1.9,02118,M,,,,*32
Sat Aug 28 12:35:43 2010 :$GPRMC,193541.61,A,3807.3768,N,11902.0596,W,35.8,046.2,280810,14,E*57
Sat Aug 28 12:35:43 2010 :$GPGSA,A,3,15,28,19,08,17,26,07,11,,,,,02.6,01.9,01.9*0D
Sat Aug 28 12:35:43 2010 :$GPGSV,3,1,09,28,70,354,49,08,67,082,49,17,51,188,52,26,49,288,39*7B
Sat Aug 28 12:35:43 2010 :$GPGSV,3,2,09,07,34,115,49,11,29,093,47,15,24,312,36,19,08,039,48*7A
Sat Aug 28 12:35:44 2010 :$GPGSV,3,3,09,27,03,308,,122,11,106,,134,12,253,,,,,*4A
Sat Aug 28 12:35:44 2010 :$GPGLL,3807.3835,N,11902.0505,W,193542.606,A*24
Sat Aug 28 12:35:44 2010 :$GPGGA,193542.61,3807.3835,N,11902.0505,W,1,08,1.8,02118,M,,,,*3D
Sat Aug 28 12:35:44 2010 :$GPRMC,193542.61,A,3807.3835,N,11902.0505,W,35.5,046.3,280810,14,E*55
Sat Aug 28 12:35:44 2010 :$GPGSA,A,3,15,28,19,08,17,26,07,11,,,,,02.5,01.8,01.8*0E
Sat Aug 28 12:35:44 2010 :$PMGNST,02.17,3,T,000,00.0,+02848,00*41
Sat Aug 28 12:35:45 2010 :$GPGLL,3807.3903,N,11902.0414,W,193543.614,A*23
Sat Aug 28 12:35:45 2010 :$GPGGA,193543.61,3807.3903,N,11902.0414,W,1,08,1.8,02118,M,,,,*39
Sat Aug 28 12:35:45 2010 :$GPRMC,193543.61,A,3807.3903,N,11902.0414,W,35.3,046.7,280810,14,E*53
Sat Aug 28 12:35:45 2010 :$GPGSA,A,3,15,28,19,08,17,26,07,11,,,,,03.2,01.8,02.6*05
Sat Aug 28 12:35:45 2010 :$GPGSV,3,1,09,28,70,354,49,08,67,082,49,17,51,188,52,26,49,288,39*7B
Sat Aug 28 12:35:45 2010 :$GPGSV,3,2,09,07,34,115,48,11,29,093,47,15,24,312,36,19,08,039,49*7A
Sat Aug 28 12:35:46 2010 :$GPGSV,3,3,09,27,03,308,,122,11,106,,134,12,253,,,,,*4A
Sat Aug 28 12:35:46 2010 :$GPGLL,3807.3970,N,11902.0325,W,193544.608,A*28
Sat Aug 28 12:35:46 2010 :$GPGGA,193544.61,3807.3970,N,11902.0325,W,1,08,1.8,02118,M,,,,*3F
Sat Aug 28 12:35:46 2010 :$GPRMC,193544.61,A,3807.3970,N,11902.0325,W,35.2,046.6,280810,14,E*55
Sat Aug 28 12:35:46 2010 :$GPGSA,A,3,15,28,19,08,17,26,07,11,,,,,02.6,01.8,01.9*0C
Sat Aug 28 12:35:46 2010 :$PMGNST,02.17,3,T,000,00.0,+02847,00*4E
Sat Aug 28 12:35:47 2010 :$GPGLL,3807.4038,N,11902.0236,W,193545.602,A*22
Sat Aug 28 12:35:47 2010 :$GPGGA,193545.60,3807.4038,N,11902.0236,W,1,08,1.8,02117,M,,,,*31
Sat Aug 28 12:35:47 2010 :$GPRMC,193545.60,A,3807.4038,N,11902.0236,W,35.2,045.9,280810,14,E*58
Sat Aug 28 12:35:47 2010 :$GPGSA,A,3,15,28,19,08,17,26,07,11,,,,,03.0,01.8,02.4*05
Sat Aug 28 12:35:47 2010 :$GPGSV,3,1,09,28,70,354,49,08,67,082,49,17,51,188,52,26,49,288,41*74
Sat Aug 28 12:35:48 2010 :$GPGSV,3,2,09,07,34,115,48,11,29,093,46,15,24,312,,19,08,039,46*71
Sat Aug 28 12:35:48 2010 :$GPGSV,3,3,09,27,03,308,,122,11,106,,134,12,253,,,,,*4A
Sat Aug 28 12:35:48 2010 :$GPGLL,3807.4108,N,11902.0146,W,193546.611,A*25
Sat Aug 28 12:35:48 2010 :$GPGGA,193546.61,3807.4108,N,11902.0146,W,1,07,1.6,02118,M,,,,*3B
Sat Aug 28 12:35:48 2010 :$GPRMC,193546.61,A,3807.4108,N,11902.0146,W,35.3,046.2,280810,14,E*55
Sat Aug 28 12:35:49 2010 :$GPGSA,A,3,28,19,08,17,26,07,11,,,,,,03.8,01.6,03.5*07
Sat Aug 28 12:35:49 2010 :$PMGNST,02.17,3,T,000,00.0,+02846,00*4F
Sat Aug 28 12:35:49 2010 :$GPGLL,3807.4175,N,11902.0057,W,193547.605,A*2A
Sat Aug 28 12:35:49 2010 :$GPGGA,193547.61,3807.4175,N,11902.0057,W,1,07,2.1,02118,M,,,,*35
Sat Aug 28 12:35:49 2010 :$GPRMC,193547.61,A,3807.4175,N,11902.0057,W,35.3,046.2,280810,14,E*5F
Sat Aug 28 12:35:49 2010 :$GPGSA,A,3,28,19,08,17,26,07,11,,,,,,03.9,02.1,03.3*04
Sat Aug 28 12:35:49 2010 :$GPGSV,3,1,09,28,70,354,50,08,67,082,50,17,51,188,53,26,49,288,41*75
Sat Aug 28 12:35:50 2010 :$GPGSV,3,2,09,07,34,115,49,11,29,093,46,15,24,312,,19,08,039,45*73
Sat Aug 28 12:35:50 2010 :$GPGSV,3,3,09,27,03,308,,122,11,106,,134,12,253,,,,,*4A
Sat Aug 28 12:35:50 2010 :$GPGLL,3807.4245,N,11901.9968,W,193548.613,A*2D
Sat Aug 28 12:35:50 2010 :$GPGGA,193548.61,3807.4245,N,11901.9968,W,1,07,2.0,02119,M,,,,*35
Sat Aug 28 12:35:50 2010 :$GPRMC,193548.61,A,3807.4245,N,11901.9968,W,35.1,044.9,280810,14,E*54
Sat Aug 28 12:35:51 2010 :$GPGSA,A,3,28,19,08,17,26,07,11,,,,,,03.7,02.0,03.1*09
Sat Aug 28 12:35:51 2010 :$PMGNST,02.17,3,T,000,00.0,+02845,00*4C
Sat Aug 28 12:35:51 2010 :$GPGLL,3807.4313,N,11901.9882,W,193549.607,A*2E
Sat Aug 28 12:35:51 2010 :$GPGGA,193549.61,3807.4313,N,11901.9882,W,1,07,2.0,02119,M,,,,*33
Sat Aug 28 12:35:51 2010 :$GPRMC,193549.61,A,3807.4313,N,11901.9882,W,34.9,044.5,280810,14,E*57
Sat Aug 28 12:35:51 2010 :$GPGSA,A,3,28,19,08,17,26,07,11,,,,,,03.7,02.0,03.1*09
Sat Aug 28 12:35:52 2010 :$GPGSV,3,1,09,28,70,354,49,08,67,082,50,17,51,188,52,26,49,288,41*7C
Sat Aug 28 12:35:52 2010 :$GPGSV,3,2,09,07,34,115,46,11,29,093,46,15,24,312,,19,08,039,47*7E
Sat Aug 28 12:35:52 2010 :$GPGSV,3,3,09,27,03,308,,122,11,106,,134,12,253,,,,,*4A
Sat Aug 28 12:35:52 2010 :$GPGLL,3807.4382,N,11901.9797,W,193550.601,A*23
Sat Aug 28 12:35:52 2010 :$GPGGA,193550.60,3807.4382,N,11901.9797,W,1,07,2.0,02120,M,,,,*33
Sat Aug 28 12:35:52 2010 :$GPRMC,193550.60,A,3807.4382,N,11901.9797,W,34.8,045.0,280810,14,E*58
Sat Aug 28 12:35:52 2010 :$GPGSA,A,3,28,19,08,17,26,07,11,,,,,,03.6,02.0,03.1*08
Sat Aug 28 12:35:53 2010 :$PMGNST,02.17,3,T,000,00.0,+02845,00*4C
Sat Aug 28 12:35:53 2010 :$GPGLL,3807.4451,N,11901.9710,W,193551.609,A*2C
Sat Aug 28 12:35:53 2010 :$GPGGA,193551.61,3807.4451,N,11901.9710,W,1,07,2.0,02120,M,,,,*35
Sat Aug 28 12:35:53 2010 :$GPRMC,193551.61,A,3807.4451,N,11901.9710,W,34.8,044.7,280810,14,E*58
Sat Aug 28 12:35:53 2010 :$GPGSA,A,3,28,19,08,17,26,07,11,,,,,,03.7,02.0,03.1*09
Sat Aug 28 12:35:53 2010 :$GPGSV,3,1,09,28,70,354,48,08,67,082,48,17,51,188,51,26,49,288,39*78
Sat Aug 28 12:35:53 2010 :$GPGSV,3,2,09,07,34,115,46,11,29,093,44,15,24,312,,19,08,039,48*73
Sat Aug 28 12:35:54 2010 :$GPGSV,3,3,09,27,03,308,,122,11,106,,134,12,253,,,,,*4A
Sat Aug 28 12:35:54 2010 :$GPGLL,3807.4451,N,11901.9710,W,193551.609,A*2C
Sat Aug 28 12:35:54 2010 :$GPGGA,193551.61,3807.4451,N,11901.9710,W,1,07,2.0,02120,M,,,,*35
Sat Aug 28 12:35:54 2010 :$GPRMC,193551.61,A,3807.4451,N,11901.9710,W,34.8,044.7,280810,14,E*58
Sat Aug 28 12:35:54 2010 :$GPGSA,A,3,28,19,08,17,26,07,11,,,,,,03.7,02.0,03.1*09
Sat Aug 28 12:35:54 2010 :$PMGNST,02.17,3,T,000,00.0,+02844,00*4D
Sat Aug 28 12:35:55 2010 :$GPGLL,3807.4451,N,11901.9710,W,193551.609,A*2C
Sat Aug 28 12:35:55 2010 :$GPGGA,193551.61,3807.4451,N,11901.9710,W,1,07,2.0,02120,M,,,,*35
Sat Aug 28 12:35:55 2010 :$GPRMC,193551.61,A,3807.4451,N,11901.9710,W,34.8,044.7,280810,14,E*58
Sat Aug 28 12:35:55 2010 :$GPGSA,A,3,28,19,08,17,26,07,11,,,,,,03.7,02.0,03.1*09
Sat Aug 28 12:35:55 2010 :$GPGSV,3,1,09,28,70,354,49,08,67,082,49,17,51,188,51,26,49,288,41*77
Sat Aug 28 12:35:55 2010 :$GPGSV,3,2,09,07,34,115,47,11,29,093,45,15,24,312,,19,08,039,46*7D
Sat Aug 28 12:35:56 2010 :$GPGSV,3,3,09,27,03,308,,122,11,106,,134,12,253,,,,,*4A
Sat Aug 28 12:35:56 2010 :$GPGLL,3807.4658,N,11901.9451,W,193554.605,A*28
Sat Aug 28 12:35:56 2010 :$GPGGA,193554.61,3807.4658,N,11901.9451,W,1,07,2.0,02121,M,,,,*3C
Sat Aug 28 12:35:56 2010 :$GPRMC,193554.61,A,3807.4658,N,11901.9451,W,35.2,044.7,280810,14,E*5B
Sat Aug 28 12:35:56 2010 :$GPGSA,A,3,28,19,08,17,26,07,11,,,,,,03.7,02.0,03.1*09
Sat Aug 28 12:35:57 2010 :$PMGNST,02.17,3,T,000,00.0,+02843,00*4A
Sat Aug 28 12:35:57 2010 :$GPGLL,3807.4729,N,11901.9363,W,193555.613,A*2F
Sat Aug 28 12:35:57 2010 :$GPGGA,193555.61,3807.4729,N,11901.9363,W,1,07,2.1,02121,M,,,,*3D
Sat Aug 28 12:35:57 2010 :$GPRMC,193555.61,A,3807.4729,N,11901.9363,W,35.4,044.6,280810,14,E*5C
Sat Aug 28 12:35:57 2010 :$GPGSA,A,3,28,19,08,17,26,07,11,,,,,,03.9,02.1,03.3*04
Sat Aug 28 12:35:57 2010 :$GPGSV,3,1,09,28,70,354,49,08,67,082,49,17,51,188,51,26,49,288,40*76
Sat Aug 28 12:35:57 2010 :$GPGSV,3,2,09,07,34,115,47,11,29,093,45,15,24,312,,19,08,039,48*73
Sat Aug 28 12:35:58 2010 :$GPGSV,3,3,09,27,03,308,,122,11,106,,134,12,253,,,,,*4A
Sat Aug 28 12:35:58 2010 :$GPGLL,3807.4799,N,11901.9277,W,193556.607,A*26
Sat Aug 28 12:35:58 2010 :$GPGGA,193556.61,3807.4799,N,11901.9277,W,1,07,2.0,02121,M,,,,*30
Sat Aug 28 12:35:58 2010 :$GPRMC,193556.61,A,3807.4799,N,11901.9277,W,35.7,044.0,280810,14,E*55
Sat Aug 28 12:35:58 2010 :$GPGSA,A,3,28,19,08,17,26,07,11,,,,,,02.9,02.0,02.1*07
Sat Aug 28 12:35:59 2010 :$PMGNST,02.17,3,T,000,00.0,+02842,00*4B
Sat Aug 28 12:35:59 2010 :$GPGLL,3807.4870,N,11901.9189,W,193557.601,A*2B
Sat Aug 28 12:35:59 2010 :$GPGGA,193557.60,3807.4870,N,11901.9189,W,1,07,2.0,02121,M,,,,*3A
Sat Aug 28 12:35:59 2010 :$GPRMC,193557.60,A,3807.4870,N,11901.9189,W,36.0,044.4,280810,14,E*5F
Sat Aug 28 12:35:59 2010 :$GPGSA,A,3,28,19,08,17,26,07,11,,,,,,04.0,02.0,03.5*0D
Sat Aug 28 12:35:59 2010 :$GPGSV,3,1,09,28,70,354,50,08,67,082,50,17,51,188,51,26,49,288,39*78
Sat Aug 28 12:35:59 2010 :$GPGSV,3,2,09,07,34,115,47,11,29,093,46,15,24,312,,19,08,039,46*7E
Sat Aug 28 12:36:00 2010 :$GPGSV,3,3,09,27,03,308,,122,11,106,,134,12,253,,,,,*4A
Sat Aug 28 12:36:00 2010 :$GPGLL,3807.5014,N,11901.9012,W,193559.617,A*2A
Sat Aug 28 12:36:00 2010 :$GPGGA,193559.62,3807.5014,N,11901.9012,W,1,07,2.0,02122,M,,,,*3D
Sat Aug 28 12:36:00 2010 :$GPRMC,193559.62,A,3807.5014,N,11901.9012,W,35.5,044.1,280810,14,E*58
Sat Aug 28 12:36:00 2010 :$GPGSA,A,3,28,19,08,17,26,07,11,,,,,,03.0,02.0,02.2*0C
Sat Aug 28 12:36:00 2010 :$PMGNST,02.17,3,T,000,00.0,+02837,00*49
Sat Aug 28 12:36:01 2010 :$GPGLL,3807.5014,N,11901.9012,W,193559.617,A*2A
Sat Aug 28 12:36:01 2010 :$GPGGA,193559.62,3807.5014,N,11901.9012,W,1,07,2.0,02122,M,,,,*3D
Sat Aug 28 12:36:02 2010 :$GPRMC,193559.62,A,3807.5014,N,11901.9012,W,35.5,044.1,280810,14,E*58
Sat Aug 28 12:36:02 2010 :$GPGSA,A,3,28,19,08,17,26,07,11,,,,,,03.0,02.0,02.2*0C
Sat Aug 28 12:36:02 2010 :$GPGSV,3,1,09,28,70,354,49,08,67,082,49,17,51,188,51,26,49,288,39*78
Sat Aug 28 12:36:02 2010 :$GPGSV,3,2,09,07,34,115,48,11,29,093,45,15,24,312,,19,08,039,49*7D
Sat Aug 28 12:36:03 2010 :$GPGSV,3,3,09,27,03,308,,122,11,106,,134,12,253,,,,,*4A
Sat Aug 28 12:36:03 2010 :$GPGLL,3807.5153,N,11901.8837,W,193601.605,A*2B
Sat Aug 28 12:36:03 2010 :$GPGGA,193601.61,3807.5153,N,11901.8837,W,1,07,2.1,02122,M,,,,*3D
Sat Aug 28 12:36:03 2010 :$GPRMC,193601.61,A,3807.5153,N,11901.8837,W,35.6,045.3,280810,14,E*59
Sat Aug 28 12:36:03 2010 :$GPGSA,A,3,28,19,08,17,26,07,11,,,,,,04.0,02.1,03.4*0D
Sat Aug 28 12:36:04 2010 :$PMGNST,02.17,3,T,000,00.0,+02839,00*47
Sat Aug 28 12:36:04 2010 :$GPGLL,3807.5223,N,11901.8747,W,193602.613,A*23
Sat Aug 28 12:36:04 2010 :$GPGGA,193602.61,3807.5223,N,11901.8747,W,1,07,2.0,02122,M,,,,*33
Sat Aug 28 12:36:04 2010 :$GPRMC,193602.61,A,3807.5223,N,11901.8747,W,35.6,045.5,280810,14,E*50
Sat Aug 28 12:36:04 2010 :$GPGSA,A,3,28,19,08,17,26,07,11,,,,,,04.0,02.0,03.5*0D
Sat Aug 28 12:36:04 2010 :$GPGSV,3,1,09,28,70,354,49,08,67,082,50,17,51,188,51,26,49,288,39*70
Sat Aug 28 12:36:04 2010 :$GPGSV,3,2,09,07,34,115,47,11,29,093,46,15,24,312,,19,08,039,50*79
Sat Aug 28 12:36:05 2010 :$GPGSV,3,3,09,27,03,308,,122,11,106,,134,12,253,,,,,*4A
Sat Aug 28 12:36:05 2010 :$GPGLL,3807.5293,N,11901.8659,W,193603.607,A*22
Sat Aug 28 12:36:05 2010 :$GPGGA,193603.61,3807.5293,N,11901.8659,W,1,07,2.1,02122,M,,,,*36
Sat Aug 28 12:36:05 2010 :$GPRMC,193603.61,A,3807.5293,N,11901.8659,W,35.9,045.1,280810,14,E*5F
Sat Aug 28 12:36:05 2010 :$GPGSA,A,3,28,19,08,17,26,07,11,,,,,,04.0,02.1,03.4*0D
Sat Aug 28 12:36:06 2010 :$PMGNST,02.17,3,T,000,00.0,+02837,00*49
Sat Aug 28 12:36:06 2010 :$GPGLL,3807.5364,N,11901.8569,W,193604.615,A*2F
Sat Aug 28 12:36:06 2010 :$GPGGA,193604.62,3807.5364,N,11901.8569,W,1,07,2.0,02121,M,,,,*39
Sat Aug 28 12:36:06 2010 :$GPRMC,193604.62,A,3807.5364,N,11901.8569,W,36.1,044.7,280810,14,E*5E
Sat Aug 28 12:36:06 2010 :$GPGSA,A,3,28,19,08,17,26,07,11,,,,,,04.0,02.0,03.5*0D
Sat Aug 28 12:36:06 2010 :$GPGSV,3,1,09,28,70,354,49,08,67,082,51,17,51,188,52,26,49,288,39*72
Sat Aug 28 12:36:07 2010 :$GPGSV,3,2,09,07,34,115,48,11,29,093,45,15,24,312,,19,08,039,50*75
Sat Aug 28 12:36:07 2010 :$GPGSV,3,3,09,27,03,308,,122,11,106,,134,12,253,,,,,*4A
Sat Aug 28 12:36:07 2010 :$GPGLL,3807.5436,N,11901.8480,W,193605.609,A*25
Sat Aug 28 12:36:07 2010 :$GPGGA,193605.61,3807.5436,N,11901.8480,W,1,07,2.1,02121,M,,,,*3C
Sat Aug 28 12:36:07 2010 :$GPRMC,193605.61,A,3807.5436,N,11901.8480,W,36.6,044.7,280810,14,E*5D
Sat Aug 28 12:36:07 2010 :$GPGSA,A,3,28,19,08,17,26,07,11,,,,,,04.0,02.1,03.4*0D
Sat Aug 28 12:36:08 2010 :$PMGNST,02.17,3,T,000,00.0,+02836,00*48
Sat Aug 28 12:36:08 2010 :$GPGLL,3807.5509,N,11901.8388,W,193606.617,A*2B
Sat Aug 28 12:36:08 2010 :$GPGGA,193606.62,3807.5509,N,11901.8388,W,1,07,2.1,02121,M,,,,*3E
Sat Aug 28 12:36:08 2010 :$GPRMC,193606.62,A,3807.5509,N,11901.8388,W,36.9,044.7,280810,14,E*50
Sat Aug 28 12:36:08 2010 :$GPGSA,A,3,28,19,08,17,26,07,11,,,,,,04.0,02.1,03.4*0D
Sat Aug 28 12:36:08 2010 :$GPGSV,3,1,09,28,70,354,49,08,67,082,50,17,51,188,51,26,49,288,39*70
Sat Aug 28 12:36:08 2010 :$GPGSV,3,2,09,07,34,115,48,11,29,093,46,15,24,312,,19,08,039,50*76
Sat Aug 28 12:36:09 2010 :$GPGSV,3,3,09,27,03,308,,122,11,106,,134,12,253,,,,,*4A
Sat Aug 28 12:36:09 2010 :$GPGLL,3807.5581,N,11901.8297,W,193607.611,A*23
Sat Aug 28 12:36:09 2010 :$GPGGA,193607.61,3807.5581,N,11901.8297,W,1,07,2.0,02121,M,,,,*32
Sat Aug 28 12:36:09 2010 :$GPRMC,193607.61,A,3807.5581,N,11901.8297,W,36.9,044.7,280810,14,E*5D
Sat Aug 28 12:36:09 2010 :$GPGSA,A,3,28,19,08,17,26,07,11,,,,,,03.7,02.0,03.1*09
Sat Aug 28 12:36:10 2010 :$PMGNST,02.17,3,T,000,00.0,+02835,00*4B
Sat Aug 28 12:36:10 2010 :$GPGLL,3807.5655,N,11901.8205,W,193608.619,A*25
Sat Aug 28 12:36:10 2010 :$GPGGA,193608.62,3807.5655,N,11901.8205,W,1,07,2.0,02121,M,,,,*3F
Sat Aug 28 12:36:10 2010 :$GPRMC,193608.62,A,3807.5655,N,11901.8205,W,36.8,044.7,280810,14,E*51
Sat Aug 28 12:36:10 2010 :$GPGSA,A,3,28,19,08,17,26,07,11,,,,,,04.0,02.0,03.4*0C
Sat Aug 28 12:36:10 2010 :$GPGSV,3,1,09,28,70,354,49,08,67,082,50,17,51,188,52,26,49,288,41*7C
Sat Aug 28 12:36:10 2010 :$GPGSV,3,2,09,07,34,115,47,11,29,093,46,15,24,312,,19,08,039,48*70
Sat Aug 28 12:36:11 2010 :$GPGSV,3,3,09,27,03,308,,122,11,106,,134,12,253,,,,,*4A
Sat Aug 28 12:36:11 2010 :$GPGLL,3807.5727,N,11901.8114,W,193609.613,A*29
Sat Aug 28 12:36:11 2010 :$GPGGA,193609.61,3807.5727,N,11901.8114,W,1,07,2.0,02121,M,,,,*3A
Sat Aug 28 12:36:11 2010 :$GPRMC,193609.61,A,3807.5727,N,11901.8114,W,36.7,044.8,280810,14,E*54
Sat Aug 28 12:36:11 2010 :$GPGSA,A,3,28,19,08,17,26,07,11,,,,,,04.0,02.0,03.4*0C
Sat Aug 28 12:36:12 2010 :$PMGNST,02.17,3,T,000,00.0,+02834,00*4A
Sat Aug 28 12:36:12 2010 :$GPGLL,3807.5799,N,11901.8023,W,193610.622,A*23
Sat Aug 28 12:36:12 2010 :$GPGGA,193610.62,3807.5799,N,11901.8023,W,1,07,2.0,02121,M,,,,*31
Sat Aug 28 12:36:12 2010 :$GPRMC,193610.62,A,3807.5799,N,11901.8023,W,36.7,045.6,280810,14,E*50
Sat Aug 28 12:36:12 2010 :$GPGSA,A,3,28,19,08,17,26,07,11,,,,,,02.9,02.0,02.1*07
Sat Aug 28 12:36:12 2010 :$GPGSV,3,1,09,28,70,354,50,08,67,082,49,17,51,188,52,26,49,288,40*7D
Sat Aug 28 12:36:12 2010 :$GPGSV,3,2,09,07,34,115,48,11,29,093,46,15,24,312,,19,08,039,47*70
Sat Aug 28 12:36:13 2010 :$GPGSV,3,3,09,27,03,308,,122,11,106,,134,12,253,,,,,*4A
Sat Aug 28 12:36:13 2010 :$GPGLL,3807.5871,N,11901.7932,W,193611.616,A*2A
Sat Aug 28 12:36:13 2010 :$GPGGA,193611.62,3807.5871,N,11901.7932,W,1,07,2.0,02121,M,,,,*3F
Sat Aug 28 12:36:13 2010 :$GPRMC,193611.62,A,3807.5871,N,11901.7932,W,36.6,044.3,280810,14,E*5B
Sat Aug 28 12:36:13 2010 :$GPGSA,A,3,28,19,08,17,26,07,11,,,,,,04.0,02.0,03.5*0D
Sat Aug 28 12:36:14 2010 :$PMGNST,02.17,3,T,000,00.0,+02832,00*4C
Sat Aug 28 12:36:14 2010 :$GPGLL,3807.5945,N,11901.7842,W,193612.624,A*28
Sat Aug 28 12:36:14 2010 :$GPGGA,193612.62,3807.5945,N,11901.7842,W,1,07,2.0,02121,M,,,,*3C
Sat Aug 28 12:36:14 2010 :$GPRMC,193612.62,A,3807.5945,N,11901.7842,W,36.3,043.5,280810,14,E*5C
Sat Aug 28 12:36:14 2010 :$GPGSA,A,3,28,19,08,17,26,07,11,,,,,,03.0,02.0,02.2*0C
Sat Aug 28 12:36:14 2010 :$GPGSV,3,1,09,28,70,354,48,08,67,082,50,17,51,188,51,26,49,288,39*71
Sat Aug 28 12:36:15 2010 :$GPGSV,3,2,09,07,34,115,47,11,29,093,44,15,24,312,,19,08,039,49*73
Sat Aug 28 12:36:15 2010 :$GPGSV,3,3,09,27,03,308,,122,11,106,,134,12,253,,,,,*4A
Sat Aug 28 12:36:15 2010 :$GPGLL,3807.6017,N,11901.7756,W,193613.618,A*21
Sat Aug 28 12:36:15 2010 :$GPGGA,193613.62,3807.6017,N,11901.7756,W,1,07,2.0,02121,M,,,,*3A
Sat Aug 28 12:36:15 2010 :$GPRMC,193613.62,A,3807.6017,N,11901.7756,W,35.7,043.3,280810,14,E*5B
Sat Aug 28 12:36:16 2010 :$GPGSA,A,3,28,19,08,17,26,07,11,,,,,,03.0,02.0,02.2*0C
Sat Aug 28 12:36:16 2010 :$PMGNST,02.17,3,T,000,00.0,+02831,00*4F
Sat Aug 28 12:36:16 2010 :$GPGLL,3807.6088,N,11901.7671,W,193614.611,A*2D
Sat Aug 28 12:36:16 2010 :$GPGGA,193614.61,3807.6088,N,11901.7671,W,1,08,1.8,02121,M,,,,*38
Sat Aug 28 12:36:16 2010 :$GPRMC,193614.61,A,3807.6088,N,11901.7671,W,34.9,042.9,280810,14,E*59
Sat Aug 28 12:36:16 2010 :$GPGSA,A,3,15,28,19,08,17,26,07,11,,,,,03.0,01.8,02.4*05
Sat Aug 28 12:36:17 2010 :$GPGSV,3,1,09,28,70,354,49,08,67,082,50,17,51,188,51,26,49,288,39*70
Sat Aug 28 12:36:17 2010 :$GPGSV,3,2,09,07,34,115,48,11,29,093,44,15,24,312,36,19,08,039,48*78
Sat Aug 28 12:36:17 2010 :$GPGSV,3,3,09,27,03,308,,122,11,106,,134,12,253,,,,,*4A
Sat Aug 28 12:36:17 2010 :$GPGLL,3807.6158,N,11901.7588,W,193615.606,A*23
Sat Aug 28 12:36:17 2010 :$GPGGA,193615.61,3807.6158,N,11901.7588,W,1,07,2.0,02121,M,,,,*34
Sat Aug 28 12:36:17 2010 :$GPRMC,193615.61,A,3807.6158,N,11901.7588,W,34.3,043.8,280810,14,E*5B
Sat Aug 28 12:36:18 2010 :$GPGSA,A,3,28,19,08,17,26,07,11,,,,,,03.0,02.0,02.2*0C
Sat Aug 28 12:36:18 2010 :$PMGNST,02.17,3,T,000,00.0,+02830,00*4E
Sat Aug 28 12:36:18 2010 :$GPGLL,3807.6226,N,11901.7503,W,193616.614,A*2A
Sat Aug 28 12:36:18 2010 :$GPGGA,193616.61,3807.6226,N,11901.7503,W,1,07,2.0,02121,M,,,,*3E
Sat Aug 28 12:36:18 2010 :$GPRMC,193616.61,A,3807.6226,N,11901.7503,W,33.9,044.7,280810,14,E*54
Sat Aug 28 12:36:18 2010 :$GPGSA,A,3,28,19,08,17,26,07,11,,,,,,04.0,02.0,03.4*0C
Sat Aug 28 12:36:18 2010 :$GPGSV,3,1,09,28,70,354,49,08,67,082,51,17,51,188,51,26,49,288,42*7D
Sat Aug 28 12:36:19 2010 :$GPGSV,3,2,09,07,34,115,47,11,29,093,45,15,24,312,,19,08,039,51*7B
Sat Aug 28 12:36:19 2010 :$GPGSV,3,3,09,27,03,308,,122,11,106,,134,12,253,,,,,*4A
Sat Aug 28 12:36:19 2010 :$GPGLL,3807.6293,N,11901.7420,W,193617.608,A*28
Sat Aug 28 12:36:19 2010 :$GPGGA,193617.61,3807.6293,N,11901.7420,W,1,07,1.7,02121,M,,,,*35
Sat Aug 28 12:36:19 2010 :$GPRMC,193617.61,A,3807.6293,N,11901.7420,W,33.4,044.9,280810,14,E*58
Sat Aug 28 12:36:20 2010 :$GPGSA,A,3,28,19,08,17,26,07,11,,,,,,03.9,01.7,03.5*07
Sat Aug 28 12:36:20 2010 :$PMGNST,02.17,3,T,000,00.0,+02829,00*46
Sat Aug 28 12:36:20 2010 :$GPGLL,3807.6359,N,11901.7337,W,193618.616,A*2E
Sat Aug 28 12:36:20 2010 :$GPGGA,193618.62,3807.6359,N,11901.7337,W,1,07,2.1,02120,M,,,,*3B
Sat Aug 28 12:36:20 2010 :$GPRMC,193618.62,A,3807.6359,N,11901.7337,W,33.0,044.3,280810,14,E*5C
Sat Aug 28 12:36:20 2010 :$GPGSA,A,3,28,19,08,17,26,07,11,,,,,,04.0,02.1,03.5*0C
Sat Aug 28 12:36:20 2010 :$GPGSV,3,1,09,28,70,354,49,08,67,082,51,17,51,188,51,26,49,288,39*71
Sat Aug 28 12:36:21 2010 :$GPGSV,3,2,09,07,34,115,47,11,29,093,44,15,24,312,,19,08,039,48*72
Sat Aug 28 12:36:21 2010 :$GPGSV,3,3,09,27,03,308,,122,11,106,,134,12,253,,,,,*4A
Sat Aug 28 12:36:21 2010 :$GPGLL,3807.6424,N,11901.7257,W,193619.610,A*23
Sat Aug 28 12:36:21 2010 :$GPGGA,193619.61,3807.6424,N,11901.7257,W,1,07,2.0,02120,M,,,,*32
Sat Aug 28 12:36:21 2010 :$GPRMC,193619.61,A,3807.6424,N,11901.7257,W,32.8,044.4,280810,14,E*5A
Sat Aug 28 12:36:21 2010 :$GPGSA,A,3,28,19,08,17,26,07,11,,,,,,04.0,02.0,03.5*0D
Sat Aug 28 12:36:22 2010 :$PMGNST,02.17,3,T,000,00.0,+02828,00*47
Sat Aug 28 12:36:22 2010 :$GPGLL,3807.6488,N,11901.7176,W,193620.604,A*2A
Sat Aug 28 12:36:22 2010 :$GPGGA,193620.60,3807.6488,N,11901.7176,W,1,07,2.0,02119,M,,,,*35
Sat Aug 28 12:36:22 2010 :$GPRMC,193620.60,A,3807.6488,N,11901.7176,W,32.8,044.5,280810,14,E*56
Sat Aug 28 12:36:22 2010 :$GPGSA,A,3,28,19,08,17,26,07,11,,,,,,03.9,02.0,03.4*02
Sat Aug 28 12:36:22 2010 :$GPGSV,3,1,09,28,70,354,49,08,67,082,50,17,51,188,51,26,49,288,43*7D
Sat Aug 28 12:36:23 2010 :$GPGSV,3,2,09,07,34,115,48,11,29,093,44,15,24,312,36,19,08,039,45*75
Sat Aug 28 12:36:23 2010 :$GPGSV,3,3,09,27,03,308,,122,11,106,,134,12,253,,,,,*4A
Sat Aug 28 12:36:23 2010 :$GPGLL,3807.6554,N,11901.7094,W,193621.611,A*22
Sat Aug 28 12:36:23 2010 :$GPGGA,193621.61,3807.6554,N,11901.7094,W,1,08,1.9,02118,M,,,,*3C
Sat Aug 28 12:36:23 2010 :$GPRMC,193621.61,A,3807.6554,N,11901.7094,W,32.8,044.6,280810,14,E*58
Sat Aug 28 12:36:23 2010 :$GPGSA,A,3,15,28,19,08,17,26,07,11,,,,,03.4,01.9,02.8*0C
Sat Aug 28 12:36:24 2010 :$PMGNST,02.17,3,T,000,00.0,+02827,00*48
Sat Aug 28 12:36:24 2010 :$GPGLL,3807.6618,N,11901.7012,W,193622.605,A*21
Sat Aug 28 12:36:24 2010 :$GPGGA,193622.60,3807.6618,N,11901.7012,W,1,07,2.0,02117,M,,,,*31
Sat Aug 28 12:36:24 2010 :$GPRMC,193622.60,A,3807.6618,N,11901.7012,W,33.0,045.5,280810,14,E*54
Sat Aug 28 12:36:24 2010 :$GPGSA,A,3,15,28,19,08,17,07,11,,,,,,03.3,02.0,02.7*0A
Sat Aug 28 12:36:24 2010 :$GPGSV,3,1,09,28,70,354,49,08,67,082,50,17,51,188,51,26,49,288,36*7F
Sat Aug 28 12:36:25 2010 :$GPGSV,3,2,09,07,34,115,48,11,29,093,46,15,24,312,36,19,08,039,50*73
Sat Aug 28 12:36:25 2010 :$GPGSV,3,3,09,27,03,308,,122,11,106,,134,12,253,,,,,*4A
Sat Aug 28 12:36:25 2010 :$GPGLL,3807.6683,N,11901.6927,W,193623.613,A*2B
Sat Aug 28 12:36:25 2010 :$GPGGA,193623.61,3807.6683,N,11901.6927,W,1,08,1.9,02117,M,,,,*38
Sat Aug 28 12:36:25 2010 :$GPRMC,193623.61,A,3807.6683,N,11901.6927,W,33.7,045.9,280810,14,E*53
Sat Aug 28 12:36:25 2010 :$GPGSA,A,3,15,28,19,08,17,26,07,11,,,,,03.5,01.9,02.9*0C
Sat Aug 28 12:36:26 2010 :$PMGNST,02.17,3,T,000,00.0,+02825,00*4A
Sat Aug 28 12:36:26 2010 :$GPGLL,3807.6749,N,11901.6840,W,193624.622,A*29
Sat Aug 28 12:36:26 2010 :$GPGGA,193624.62,3807.6749,N,11901.6840,W,1,07,2.1,02117,M,,,,*3F
Sat Aug 28 12:36:26 2010 :$GPRMC,193624.62,A,3807.6749,N,11901.6840,W,33.8,046.3,280810,14,E*56
Sat Aug 28 12:36:26 2010 :$GPGSA,A,3,28,19,08,17,26,07,11,,,,,,03.9,02.1,03.3*04
Sat Aug 28 12:36:26 2010 :$GPGSV,3,1,09,28,70,354,49,08,67,082,49,17,51,188,52,26,49,288,42*77
Sat Aug 28 12:36:26 2010 :$GPGSV,3,2,09,07,34,115,47,11,29,093,45,15,24,312,36,19,08,039,46*78
Sat Aug 28 12:36:27 2010 :$GPGSV,3,3,09,27,03,308,,122,11,106,,134,12,253,,,,,*4A
Sat Aug 28 12:36:27 2010 :$GPGLL,3807.6814,N,11901.6755,W,193625.616,A*23
Sat Aug 28 12:36:27 2010 :$GPGGA,193625.62,3807.6814,N,11901.6755,W,1,07,1.9,02118,M,,,,*36
Sat Aug 28 12:36:27 2010 :$GPRMC,193625.62,A,3807.6814,N,11901.6755,W,33.7,045.9,280810,14,E*5D
Sat Aug 28 12:36:27 2010 :$GPGSA,A,3,28,19,08,17,26,07,11,,,,,,03.8,01.9,03.3*0E
Sat Aug 28 12:36:27 2010 :$PMGNST,02.17,3,T,000,00.0,+02824,00*4B
Sat Aug 28 12:36:28 2010 :$GPGLL,3807.6879,N,11901.6670,W,193626.610,A*2B
Sat Aug 28 12:36:28 2010 :$GPGGA,193626.61,3807.6879,N,11901.6670,W,1,07,1.9,02118,M,,,,*3B
Sat Aug 28 12:36:28 2010 :$GPRMC,193626.61,A,3807.6879,N,11901.6670,W,33.9,045.7,280810,14,E*50
Sat Aug 28 12:36:28 2010 :$GPGSA,A,3,28,19,08,17,26,07,11,,,,,,03.8,01.9,03.3*0E
Sat Aug 28 12:36:28 2010 :$GPGSV,3,1,09,28,70,354,49,08,67,082,50,17,51,188,51,26,49,288,43*7D
Sat Aug 28 12:36:28 2010 :$GPGSV,3,2,09,07,34,115,46,11,29,093,45,15,24,312,,19,08,039,47*7D
Sat Aug 28 12:36:29 2010 :$GPGSV,3,3,09,27,03,308,,122,11,106,,134,12,253,,,,,*4A
Sat Aug 28 12:36:29 2010 :$GPGLL,3807.6946,N,11901.6585,W,193627.618,A*26
Sat Aug 28 12:36:29 2010 :$GPGGA,193627.62,3807.6946,N,11901.6585,W,1,07,2.1,02119,M,,,,*37
Sat Aug 28 12:36:29 2010 :$GPRMC,193627.62,A,3807.6946,N,11901.6585,W,34.3,044.8,280810,14,E*55
Sat Aug 28 12:36:29 2010 :$GPGSA,A,3,28,19,08,17,26,07,11,,,,,,03.9,02.1,03.3*04
Sat Aug 28 12:36:29 2010 :$PMGNST,02.17,3,T,000,00.0,+02823,00*4C
Sat Aug 28 12:36:30 2010 :$GPGLL,3807.7014,N,11901.6500,W,193628.612,A*21
Sat Aug 28 12:36:30 2010 :$GPGGA,193628.61,3807.7014,N,11901.6500,W,1,07,2.0,02119,M,,,,*38
Sat Aug 28 12:36:30 2010 :$GPRMC,193628.61,A,3807.7014,N,11901.6500,W,34.8,044.7,280810,14,E*5F
Sat Aug 28 12:36:30 2010 :$GPGSA,A,3,28,19,08,17,26,07,11,,,,,,02.9,02.0,02.1*07
Sat Aug 28 12:36:30 2010 :$GPGSV,3,1,09,28,70,354,49,08,67,082,50,17,51,188,52,26,49,288,42*7F
Sat Aug 28 12:36:30 2010 :$GPGSV,3,2,09,07,34,115,45,11,29,093,43,15,24,312,,19,08,039,46*79
Sat Aug 28 12:36:31 2010 :$GPGSV,3,3,09,27,03,308,,122,11,106,,134,12,253,,,,,*4A
Sat Aug 28 12:36:31 2010 :$GPGLL,3807.7084,N,11901.6412,W,193629.620,A*2A
Sat Aug 28 12:36:31 2010 :$GPGGA,193629.62,3807.7084,N,11901.6412,W,1,07,2.0,02119,M,,,,*31
Sat Aug 28 12:36:31 2010 :$GPRMC,193629.62,A,3807.7084,N,11901.6412,W,35.2,044.5,280810,14,E*5F
Sat Aug 28 12:36:31 2010 :$GPGSA,A,3,28,19,08,17,26,07,11,,,,,,04.0,02.0,03.4*0C
Sat Aug 28 12:36:31 2010 :$PMGNST,02.17,3,T,000,00.0,+02822,00*4D
Sat Aug 28 12:36:32 2010 :$GPGLL,3807.7154,N,11901.6326,W,193630.614,A*29
Sat Aug 28 12:36:32 2010 :$GPGGA,193630.61,3807.7154,N,11901.6326,W,1,07,1.9,02120,M,,,,*36
Sat Aug 28 12:36:32 2010 :$GPRMC,193630.61,A,3807.7154,N,11901.6326,W,35.4,043.9,280810,14,E*55
Sat Aug 28 12:36:32 2010 :$GPGSA,A,3,28,19,08,17,26,07,11,,,,,,03.6,01.9,03.0*03
Sat Aug 28 12:36:32 2010 :$GPGSV,3,1,09,28,70,354,49,08,67,082,50,17,51,188,52,26,49,288,44*79
Sat Aug 28 12:36:32 2010 :$GPGSV,3,2,09,07,34,115,45,11,29,093,44,15,24,312,,19,08,039,42*7A
Sat Aug 28 12:36:33 2010 :$GPGSV,3,3,09,27,03,308,,122,11,106,,134,12,253,,,,,*4A
Sat Aug 28 12:36:33 2010 :$GPGLL,3807.7224,N,11901.6240,W,193631.608,A*20
Sat Aug 28 12:36:33 2010 :$GPGGA,193631.61,3807.7224,N,11901.6240,W,1,07,1.9,02120,M,,,,*32
Sat Aug 28 12:36:33 2010 :$GPRMC,193631.61,A,3807.7224,N,11901.6240,W,35.2,043.9,280810,14,E*57
Sat Aug 28 12:36:33 2010 :$GPGSA,A,3,28,19,08,17,26,07,11,,,,,,03.6,01.9,03.0*03
Sat Aug 28 12:36:33 2010 :$PMGNST,02.17,3,T,000,00.0,+02820,00*4F
Sat Aug 28 12:36:34 2010 :$GPGLL,3807.7294,N,11901.6155,W,193632.602,A*25
Sat Aug 28 12:36:34 2010 :$GPGGA,193632.60,3807.7294,N,11901.6155,W,1,07,1.9,02120,M,,,,*3C
Sat Aug 28 12:36:34 2010 :$GPRMC,193632.60,A,3807.7294,N,11901.6155,W,35.0,043.4,280810,14,E*56
Sat Aug 28 12:36:34 2010 :$GPGSA,A,3,28,19,08,17,26,07,11,,,,,,02.9,01.9,02.2*0E
Sat Aug 28 12:36:34 2010 :$GPGSV,3,1,09,28,70,354,49,08,67,082,49,17,51,188,52,26,49,288,44*71
Sat Aug 28 12:36:34 2010 :$GPGSV,3,2,09,07,34,115,42,11,29,093,43,15,24,312,36,19,08,039,42*7F
Sat Aug 28 12:36:35 2010 :$GPGSV,3,3,09,27,03,308,,122,11,106,,134,12,253,,,,,*4A
Sat Aug 28 12:36:35 2010 :$GPGLL,3807.7365,N,11901.6069,W,193633.610,A*26
Sat Aug 28 12:36:35 2010 :$GPGGA,193633.61,3807.7365,N,11901.6069,W,1,07,1.6,02121,M,,,,*33
Sat Aug 28 12:36:35 2010 :$GPRMC,193633.61,A,3807.7365,N,11901.6069,W,34.8,044.5,280810,14,E*58
Sat Aug 28 12:36:35 2010 :$GPGSA,A,3,28,19,08,17,26,07,11,,,,,,03.9,01.6,03.5*06
Sat Aug 28 12:36:36 2010 :$PMGNST,02.17,3,T,000,00.0,+02819,00*45
Sat Aug 28 12:36:36 2010 :$GPGLL,3807.7434,N,11901.5982,W,193634.603,A*2F
Sat Aug 28 12:36:36 2010 :$GPGGA,193634.60,3807.7434,N,11901.5982,W,1,08,1.3,02122,M,,,,*30
Sat Aug 28 12:36:36 2010 :$GPRMC,193634.60,A,3807.7434,N,11901.5982,W,34.8,044.9,280810,14,E*5E
Sat Aug 28 12:36:36 2010 :$GPGSA,A,3,15,28,19,08,17,26,07,11,,,,,03.0,01.3,02.7*0D
Sat Aug 28 12:36:37 2010 :$GPGSV,3,1,09,28,70,354,50,08,67,082,50,17,51,188,52,26,49,288,44*71
Sat Aug 28 12:36:37 2010 :$GPGSV,3,2,09,07,34,115,42,11,29,093,44,15,24,312,44,19,08,039,42*7D
Sat Aug 28 12:36:37 2010 :$GPGSV,3,3,09,27,03,308,,122,11,106,,134,12,253,,,,,*4A
Sat Aug 28 12:36:38 2010 :$GPGLL,3807.7572,N,11901.5808,W,193636.605,A*2B
Sat Aug 28 12:36:38 2010 :$GPGGA,193636.61,3807.7572,N,11901.5808,W,1,08,1.3,02124,M,,,,*35
Sat Aug 28 12:36:38 2010 :$GPRMC,193636.61,A,3807.7572,N,11901.5808,W,34.4,044.8,280810,14,E*50
Sat Aug 28 12:36:38 2010 :$GPGSA,A,3,15,28,19,08,17,26,07,11,,,,,03.0,01.3,02.7*0D
Sat Aug 28 12:36:39 2010 :$PMGNST,02.17,3,T,000,00.0,+02816,00*4A
Sat Aug 28 12:36:39 2010 :$GPGLL,3807.7640,N,11901.5722,W,193637.613,A*28
Sat Aug 28 12:36:39 2010 :$GPGGA,193637.61,3807.7640,N,11901.5722,W,1,08,1.6,02125,M,,,,*35
Sat Aug 28 12:36:39 2010 :$GPRMC,193637.61,A,3807.7640,N,11901.5722,W,34.2,044.9,280810,14,E*53
Sat Aug 28 12:36:39 2010 :$GPGSA,A,3,15,28,19,08,17,26,07,11,,,,,02.4,01.6,01.7*0E
Sat Aug 28 12:36:39 2010 :$GPGSV,3,1,09,28,70,354,50,08,67,082,50,17,51,188,52,26,49,288,42*77
Sat Aug 28 12:36:40 2010 :$GPGSV,3,2,09,07,34,115,44,11,29,093,44,15,24,312,45,19,08,039,43*7B
Sat Aug 28 12:36:40 2010 :$GPGSV,3,3,09,27,03,308,,122,11,106,,134,12,253,,,,,*4A
Sat Aug 28 12:36:40 2010 :$GPGLL,3807.7706,N,11901.5637,W,193638.607,A*24
Sat Aug 28 12:36:40 2010 :$GPGGA,193638.61,3807.7706,N,11901.5637,W,1,08,1.7,02125,M,,,,*3D
Sat Aug 28 12:36:40 2010 :$GPRMC,193638.61,A,3807.7706,N,11901.5637,W,34.0,045.0,280810,14,E*50
Sat Aug 28 12:36:40 2010 :$GPGSA,A,3,15,28,19,08,17,26,07,11,,,,,03.0,01.7,02.4*0A
Sat Aug 28 12:36:41 2010 :$PMGNST,02.17,3,T,000,00.0,+02815,00*49
Sat Aug 28 12:36:41 2010 :$GPGLL,3807.7773,N,11901.5552,W,193639.615,A*24
Sat Aug 28 12:36:41 2010 :$GPGGA,193639.62,3807.7773,N,11901.5552,W,1,08,1.7,02126,M,,,,*3E
Sat Aug 28 12:36:41 2010 :$GPRMC,193639.62,A,3807.7773,N,11901.5552,W,33.8,045.5,280810,14,E*5A
Sat Aug 28 12:36:41 2010 :$GPGSA,A,3,15,28,19,08,17,26,07,11,,,,,02.9,01.7,02.4*02
Sat Aug 28 12:36:41 2010 :$GPGSV,3,1,09,28,70,354,49,08,67,082,49,17,51,188,51,26,49,288,41*77
Sat Aug 28 12:36:42 2010 :$GPGSV,3,2,09,07,34,115,44,11,29,093,45,15,24,312,46,19,08,039,46*7C
Sat Aug 28 12:36:42 2010 :$GPGSV,3,3,09,27,03,308,,122,11,106,,134,12,253,,,,,*4A
Sat Aug 28 12:36:42 2010 :$GPGLL,3807.7838,N,11901.5467,W,193640.609,A*20
Sat Aug 28 12:36:42 2010 :$GPGGA,193640.61,3807.7838,N,11901.5467,W,1,08,1.2,02127,M,,,,*30
Sat Aug 28 12:36:42 2010 :$GPRMC,193640.61,A,3807.7838,N,11901.5467,W,33.5,045.6,280810,14,E*5E
Sat Aug 28 12:36:43 2010 :$GPGSA,A,3,15,28,19,08,17,26,07,11,,,,,02.8,01.2,02.6*04
Sat Aug 28 12:36:43 2010 :$PMGNST,02.17,3,T,000,00.0,+02814,00*48
Sat Aug 28 12:36:43 2010 :$GPGLL,3807.7904,N,11901.5381,W,193641.617,A*2F
Sat Aug 28 12:36:43 2010 :$GPGGA,193641.62,3807.7904,N,11901.5381,W,1,08,1.7,02128,M,,,,*39
Sat Aug 28 12:36:43 2010 :$GPRMC,193641.62,A,3807.7904,N,11901.5381,W,33.5,045.6,280810,14,E*5D
Sat Aug 28 12:36:43 2010 :$GPGSA,A,3,15,28,19,08,17,26,07,11,,,,,02.4,01.7,01.7*0F
Sat Aug 28 12:36:43 2010 :$GPGSV,3,1,09,28,70,354,49,08,67,082,49,17,51,188,50,26,49,288,39*79
Sat Aug 28 12:36:44 2010 :$GPGSV,3,2,09,07,34,115,44,11,29,093,45,15,24,312,44,19,08,039,44*7C
Sat Aug 28 12:36:44 2010 :$GPGSV,3,3,09,27,03,308,,122,11,106,,134,12,253,,,,,*4A
Sat Aug 28 12:36:44 2010 :$GPGLL,3807.7969,N,11901.5298,W,193642.611,A*28
Sat Aug 28 12:36:44 2010 :$GPGGA,193642.61,3807.7969,N,11901.5298,W,1,08,1.6,02128,M,,,,*3A
Sat Aug 28 12:36:44 2010 :$GPRMC,193642.61,A,3807.7969,N,11901.5298,W,33.6,044.8,280810,14,E*53
Sat Aug 28 12:36:45 2010 :$GPGSA,A,3,15,28,19,08,17,26,07,11,,,,,02.3,01.6,01.7*09
Sat Aug 28 12:36:45 2010 :$PMGNST,02.17,3,T,000,00.0,+02813,00*4F
Sat Aug 28 12:36:45 2010 :$GPGLL,3807.8035,N,11901.5213,W,193643.619,A*2D
Sat Aug 28 12:36:45 2010 :$GPGGA,193643.62,3807.8035,N,11901.5213,W,1,08,1.7,02129,M,,,,*34
Sat Aug 28 12:36:45 2010 :$GPRMC,193643.62,A,3807.8035,N,11901.5213,W,33.9,045.5,280810,14,E*5E
Sat Aug 28 12:36:45 2010 :$GPGSA,A,3,15,28,19,08,17,26,07,11,,,,,02.4,01.7,01.7*0F
Sat Aug 28 12:36:45 2010 :$GPGSV,3,1,09,28,70,354,49,08,67,082,48,17,51,188,49,26,49,288,38*71
Sat Aug 28 12:36:46 2010 :$GPGSV,3,2,09,07,34,115,46,11,29,093,45,15,24,312,44,19,08,039,45*7F
Sat Aug 28 12:36:46 2010 :$GPGSV,3,3,09,27,03,308,,122,11,106,,134,12,253,,,,,*4A
Sat Aug 28 12:36:46 2010 :$GPGLL,3807.8101,N,11901.5128,W,193644.613,A*2D
Sat Aug 28 12:36:46 2010 :$GPGGA,193644.61,3807.8101,N,11901.5128,W,1,08,1.7,02130,M,,,,*35
Sat Aug 28 12:36:46 2010 :$GPRMC,193644.61,A,3807.8101,N,11901.5128,W,34.0,045.7,280810,14,E*5B
Sat Aug 28 12:36:47 2010 :$GPGSA,A,3,15,28,19,08,17,26,07,11,,,,,02.4,01.7,01.6*0E
Sat Aug 28 12:36:47 2010 :$PMGNST,02.17,3,T,000,00.0,+02811,00*4D
Sat Aug 28 12:36:47 2010 :$GPGLL,3807.8101,N,11901.5128,W,193644.613,A*2D
Sat Aug 28 12:36:47 2010 :$GPGGA,193644.61,3807.8101,N,11901.5128,W,1,08,1.7,02130,M,,,,*35
Sat Aug 28 12:36:47 2010 :$GPRMC,193644.61,A,3807.8101,N,11901.5128,W,34.0,045.7,280810,14,E*5B
Sat Aug 28 12:36:47 2010 :$GPGSA,A,3,15,28,19,08,17,26,07,11,,,,,02.4,01.7,01.6*0E
Sat Aug 28 12:36:47 2010 :$GPGSV,3,1,09,28,70,354,49,08,67,082,48,17,51,188,50,26,49,288,39*78
Sat Aug 28 12:36:48 2010 :$GPGSV,3,2,09,07,34,115,45,11,29,093,45,15,24,312,45,19,08,039,44*7C
Sat Aug 28 12:36:48 2010 :$GPGSV,3,3,09,27,03,308,,122,11,106,,134,12,253,,,,,*4A
Sat Aug 28 12:36:48 2010 :$GPGLL,3807.8101,N,11901.5128,W,193644.613,A*2D
Sat Aug 28 12:36:48 2010 :$GPGGA,193644.61,3807.8101,N,11901.5128,W,1,08,1.7,02130,M,,,,*35
Sat Aug 28 12:36:48 2010 :$GPRMC,193644.61,A,3807.8101,N,11901.5128,W,34.0,045.7,280810,14,E*5B
Sat Aug 28 12:36:49 2010 :$GPGSA,A,3,15,28,19,08,17,26,07,11,,,,,02.4,01.7,01.6*0E
Sat Aug 28 12:36:49 2010 :$PMGNST,02.17,3,T,000,00.0,+02811,00*4D
Sat Aug 28 12:36:49 2010 :$GPGLL,3807.8291,N,11901.4879,W,193647.609,A*23
Sat Aug 28 12:36:49 2010 :$GPGGA,193647.61,3807.8291,N,11901.4879,W,1,08,1.7,02130,M,,,,*30
Sat Aug 28 12:36:49 2010 :$GPRMC,193647.61,A,3807.8291,N,11901.4879,W,31.8,046.1,280810,14,E*56
Sat Aug 28 12:36:49 2010 :$GPGSA,A,3,15,28,19,08,17,26,07,11,,,,,03.0,01.7,02.4*0A
Sat Aug 28 12:36:50 2010 :$GPGSV,3,1,09,28,70,354,48,08,67,082,50,17,51,188,51,26,49,288,42*7D
Sat Aug 28 12:36:50 2010 :$GPGSV,3,2,09,07,34,115,45,11,29,093,45,15,24,312,48,19,08,039,45*70
Sat Aug 28 12:36:50 2010 :$GPGSV,3,3,09,27,03,308,,122,11,106,,134,12,253,,,,,*4A
Sat Aug 28 12:36:50 2010 :$GPGLL,3807.8352,N,11901.4796,W,193648.617,A*23
Sat Aug 28 12:36:50 2010 :$GPGGA,193648.62,3807.8352,N,11901.4796,W,1,08,1.7,02129,M,,,,*34
Sat Aug 28 12:36:50 2010 :$GPRMC,193648.62,A,3807.8352,N,11901.4796,W,32.0,047.5,280810,14,E*54
Sat Aug 28 12:36:51 2010 :$GPGSA,A,3,15,28,19,08,17,26,07,11,,,,,02.9,01.7,02.4*02
Sat Aug 28 12:36:51 2010 :$PMGNST,02.17,3,T,000,00.0,+02808,00*45
Sat Aug 28 12:36:51 2010 :$GPGLL,3807.8411,N,11901.4712,W,193649.611,A*28
Sat Aug 28 12:36:51 2010 :$GPGGA,193649.61,3807.8411,N,11901.4712,W,1,08,1.7,02129,M,,,,*3A
Sat Aug 28 12:36:51 2010 :$GPRMC,193649.61,A,3807.8411,N,11901.4712,W,32.0,048.9,280810,14,E*59
Sat Aug 28 12:36:51 2010 :$GPGSA,A,3,15,28,19,08,17,26,07,11,,,,,02.4,01.7,01.7*0F
Sat Aug 28 12:36:51 2010 :$GPGSV,3,1,09,28,70,354,50,08,67,082,48,17,51,188,50,26,49,288,39*70
Sat Aug 28 12:36:52 2010 :$GPGSV,3,2,09,07,34,115,48,11,29,093,42,15,24,312,47,19,08,039,38*7F
Sat Aug 28 12:36:52 2010 :$GPGSV,3,3,09,27,03,308,,122,11,106,,134,12,253,,,,,*4A
Sat Aug 28 12:36:52 2010 :$GPGLL,3807.8468,N,11901.4627,W,193650.619,A*21
Sat Aug 28 12:36:52 2010 :$GPGGA,193650.62,3807.8468,N,11901.4627,W,1,08,1.7,02128,M,,,,*39
Sat Aug 28 12:36:52 2010 :$GPRMC,193650.62,A,3807.8468,N,11901.4627,W,31.0,050.3,280810,14,E*5B
Sat Aug 28 12:36:53 2010 :$GPGSA,A,3,15,28,19,08,17,26,07,11,,,,,02.4,01.7,01.7*0F
Sat Aug 28 12:36:53 2010 :$PMGNST,02.17,3,T,000,00.0,+02807,00*4A
Sat Aug 28 12:36:53 2010 :$GPGLL,3807.8521,N,11901.4544,W,193651.613,A*20
Sat Aug 28 12:36:53 2010 :$GPGGA,193651.61,3807.8521,N,11901.4544,W,1,08,1.2,02127,M,,,,*3B
Sat Aug 28 12:36:53 2010 :$GPRMC,193651.61,A,3807.8521,N,11901.4544,W,29.5,051.3,280810,14,E*5E
Sat Aug 28 12:36:53 2010 :$GPGSA,A,3,15,28,19,08,17,26,07,11,,,,,02.8,01.2,02.6*04
Sat Aug 28 12:36:53 2010 :$GPGSV,3,1,09,28,70,354,50,08,67,082,49,17,51,188,50,26,49,288,44*7B
Sat Aug 28 12:36:53 2010 :$GPGSV,3,2,09,07,34,115,48,11,29,093,44,15,24,312,47,19,08,039,39*78
Sat Aug 28 12:36:54 2010 :$GPGSV,3,3,09,27,03,308,,122,11,106,,134,12,253,,,,,*4A
Sat Aug 28 12:36:54 2010 :$GPGLL,3807.8571,N,11901.4465,W,193652.607,A*21
Sat Aug 28 12:36:54 2010 :$GPGGA,193652.61,3807.8571,N,11901.4465,W,1,08,1.8,02127,M,,,,*35
