Sat Aug 28 09:15:12 2010 :GPSD,R=1
Sat Aug 28 09:15:12 2010 :$GPGSV,3,2,10,03,32,088,52,08,29,274,45,06,24,070,41,19,22,121,36*72
Sat Aug 28 09:15:12 2010 :$GPGSV,3,3,10,16,14,042,39,28,13,214,,122,10,106,,134,12,253,*7F
Sat Aug 28 09:15:12 2010 :$GPGLL,3757.9956,N,11907.7310,W,161511.295,A*25
Sat Aug 28 09:15:12 2010 :$GPGGA,161511.29,3757.9956,N,11907.7310,W,1,10,1.8,02036,M,,,,*3A
Sat Aug 28 09:15:12 2010 :$GPRMC,161511.29,A,3757.9956,N,11907.7310,W,42.4,305.2,280810,14,E*52
Sat Aug 28 09:15:13 2010 :$GPGSA,A,3,13,08,07,06,23,19,10,16,03,05,,,03.1,01.8,02.5*0C
Sat Aug 28 09:15:13 2010 :$PMGNST,02.17,3,T,000,00.0,+02463,00*44
Sat Aug 28 09:15:13 2010 :$GPGLL,3758.0026,N,11907.7430,W,161512.289,A*26
Sat Aug 28 09:15:13 2010 :$GPGGA,161512.29,3758.0026,N,11907.7430,W,1,10,1.7,02034,M,,,,*39
Sat Aug 28 09:15:13 2010 :$GPRMC,161512.29,A,3758.0026,N,11907.7430,W,42.7,307.4,280810,14,E*5B
Sat Aug 28 09:15:13 2010 :$GPGSA,A,3,13,08,07,06,23,19,10,16,03,05,,,02.9,01.7,02.3*0C
Sat Aug 28 09:15:13 2010 :$GPGSV,3,1,10,13,79,071,47,07,58,304,49,23,53,122,48,10,33,297,46*76
Sat Aug 28 09:15:14 2010 :$GPGSV,3,2,10,03,32,088,50,08,29,274,44,06,24,070,44,19,22,121,38*7A
Sat Aug 28 09:15:14 2010 :$GPGSV,3,3,10,16,14,042,41,28,13,214,,122,10,106,,134,12,253,*70
Sat Aug 28 09:15:14 2010 :$GPGLL,3758.0101,N,11907.7549,W,161513.297,A*23
Sat Aug 28 09:15:14 2010 :$GPGGA,161513.30,3758.0101,N,11907.7549,W,1,10,2.0,02033,M,,,,*38
Sat Aug 28 09:15:14 2010 :$GPRMC,161513.30,A,3758.0101,N,11907.7549,W,43.1,310.0,280810,14,E*5C
Sat Aug 28 09:15:14 2010 :$GPGSA,A,3,13,08,07,06,23,19,10,16,03,05,,,03.1,02.0,02.3*01
Sat Aug 28 09:15:15 2010 :$PMGNST,02.17,3,T,000,00.0,+02462,00*45
Sat Aug 28 09:15:15 2010 :$GPGLL,3758.0180,N,11907.7662,W,161514.291,A*21
Sat Aug 28 09:15:15 2010 :$GPGGA,161514.29,3758.0180,N,11907.7662,W,1,10,2.1,02032,M,,,,*34
Sat Aug 28 09:15:15 2010 :$GPRMC,161514.29,A,3758.0180,N,11907.7662,W,43.4,313.1,280810,14,E*57
Sat Aug 28 09:15:15 2010 :$GPGSA,A,3,13,08,07,06,23,19,10,16,03,05,,,02.4,02.1,01.3*07
Sat Aug 28 09:15:15 2010 :$GPGSV,3,1,10,13,79,071,47,07,58,304,48,23,53,122,49,10,33,297,48*78
Sat Aug 28 09:15:16 2010 :$GPGSV,3,2,10,03,32,088,47,08,29,274,39,06,24,070,42,19,22,121,39*71
Sat Aug 28 09:15:16 2010 :$GPGSV,3,3,10,16,14,042,44,28,13,214,,122,10,106,,134,12,253,*75
Sat Aug 28 09:15:16 2010 :$GPGLL,3758.0265,N,11907.7772,W,161515.299,A*20
Sat Aug 28 09:15:16 2010 :$GPGGA,161515.30,3758.0265,N,11907.7772,W,1,10,1.9,02030,M,,,,*3C
Sat Aug 28 09:15:16 2010 :$GPRMC,161515.30,A,3758.0265,N,11907.7772,W,43.8,316.1,280810,14,E*5F
Sat Aug 28 09:15:17 2010 :$GPGSA,A,3,13,08,07,06,23,19,10,16,03,05,,,02.2,01.9,01.2*0B
Sat Aug 28 09:15:17 2010 :$PMGNST,02.17,3,T,000,00.0,+02463,00*44
Sat Aug 28 09:15:17 2010 :$GPGLL,3758.0355,N,11907.7875,W,161516.293,A*23
Sat Aug 28 09:15:17 2010 :$GPGGA,161516.29,3758.0355,N,11907.7875,W,1,10,1.7,02029,M,,,,*3B
Sat Aug 28 09:15:17 2010 :$GPRMC,161516.29,A,3758.0355,N,11907.7875,W,44.2,319.2,280810,14,E*5F
Sat Aug 28 09:15:17 2010 :$GPGSA,A,3,13,08,07,06,23,19,10,16,03,05,,,02.8,01.7,02.2*0C
Sat Aug 28 09:15:18 2010 :$GPGSV,3,1,10,13,79,071,47,07,58,304,47,23,53,122,49,10,33,297,44*7B
Sat Aug 28 09:15:18 2010 :$GPGSV,3,2,10,03,32,088,47,08,29,274,46,06,24,070,44,19,22,121,47*76
Sat Aug 28 09:15:18 2010 :$GPGSV,3,3,10,16,14,042,45,28,13,214,,122,10,106,,134,12,253,*74
Sat Aug 28 09:15:18 2010 :$GPGLL,3758.0450,N,11907.7974,W,161517.287,A*25
Sat Aug 28 09:15:18 2010 :$GPGGA,161517.29,3758.0450,N,11907.7974,W,1,10,1.5,02027,M,,,,*34
Sat Aug 28 09:15:18 2010 :$GPRMC,161517.29,A,3758.0450,N,11907.7974,W,44.5,322.0,280810,14,E*51
Sat Aug 28 09:15:19 2010 :$GPGSA,A,3,13,08,07,06,23,19,10,16,03,05,,,02.6,01.5,02.2*00
Sat Aug 28 09:15:19 2010 :$PMGNST,02.17,3,T,000,00.0,+02463,00*44
Sat Aug 28 09:15:19 2010 :$GPGLL,3758.0550,N,11907.8068,W,161518.295,A*23
Sat Aug 28 09:15:19 2010 :$GPGGA,161518.29,3758.0550,N,11907.8068,W,1,10,1.7,02026,M,,,,*32
Sat Aug 28 09:15:19 2010 :$GPRMC,161518.29,A,3758.0550,N,11907.8068,W,45.0,324.4,280810,14,E*52
Sat Aug 28 09:15:19 2010 :$GPGSA,A,3,13,08,07,06,23,19,10,16,03,05,,,02.6,01.7,02.0*00
Sat Aug 28 09:15:19 2010 :$GPGSV,3,1,10,13,79,071,48,07,58,304,51,23,53,122,50,10,33,297,39*71
Sat Aug 28 09:15:20 2010 :$GPGSV,3,2,10,03,32,088,48,08,29,274,47,06,24,070,44,19,22,121,49*76
Sat Aug 28 09:15:20 2010 :$GPGSV,3,3,10,16,14,042,46,28,13,214,,122,10,106,,134,12,253,*77
Sat Aug 28 09:15:20 2010 :$GPGLL,3758.0653,N,11907.8157,W,161519.289,A*22
Sat Aug 28 09:15:20 2010 :$GPGGA,161519.29,3758.0653,N,11907.8157,W,1,10,1.9,02024,M,,,,*32
Sat Aug 28 09:15:20 2010 :$GPRMC,161519.29,A,3758.0653,N,11907.8157,W,45.3,327.1,280810,14,E*5B
Sat Aug 28 09:15:21 2010 :$GPGSA,A,3,13,08,07,06,23,19,10,16,03,05,,,02.2,01.9,01.2*0B
Sat Aug 28 09:15:21 2010 :$PMGNST,02.17,3,T,000,00.0,+02463,00*44
Sat Aug 28 09:15:21 2010 :$GPGLL,3758.0761,N,11907.8242,W,161520.297,A*20
Sat Aug 28 09:15:22 2010 :$GPGGA,161520.30,3758.0761,N,11907.8242,W,1,10,1.6,02022,M,,,,*3E
Sat Aug 28 09:15:22 2010 :$GPRMC,161520.30,A,3758.0761,N,11907.8242,W,45.6,328.7,280810,14,E*52
Sat Aug 28 09:15:22 2010 :$GPGSA,A,3,13,08,07,06,23,19,10,16,03,05,,,02.6,01.6,02.0*01
Sat Aug 28 09:15:22 2010 :$GPGSV,3,1,10,13,79,071,48,07,58,304,53,23,53,122,52,10,33,297,39*71
Sat Aug 28 09:15:22 2010 :$GPGSV,3,2,10,03,32,088,45,08,29,274,49,06,24,070,44,19,22,121,48*74
Sat Aug 28 09:15:22 2010 :$GPGSV,3,3,10,16,14,042,45,28,13,214,,122,10,106,,134,12,253,*74
Sat Aug 28 09:15:23 2010 :$GPGLL,3758.0870,N,11907.8324,W,161521.291,A*29
Sat Aug 28 09:15:23 2010 :$GPGGA,161521.29,3758.0870,N,11907.8324,W,1,10,1.8,02021,M,,,,*34
Sat Aug 28 09:15:23 2010 :$GPRMC,161521.29,A,3758.0870,N,11907.8324,W,45.7,329.9,280810,14,E*5B
Sat Aug 28 09:15:23 2010 :$GPGSA,A,3,13,08,07,06,23,19,10,16,03,05,,,02.8,01.8,02.2*03
Sat Aug 28 09:15:23 2010 :$PMGNST,02.17,3,T,000,00.0,+02463,00*44
Sat Aug 28 09:15:24 2010 :$GPGLL,3758.0981,N,11907.8404,W,161522.299,A*28
Sat Aug 28 09:15:24 2010 :$GPGGA,161522.30,3758.0981,N,11907.8404,W,1,10,1.5,02020,M,,,,*39
Sat Aug 28 09:15:24 2010 :$GPRMC,161522.30,A,3758.0981,N,11907.8404,W,45.8,330.3,280810,14,E*57
Sat Aug 28 09:15:24 2010 :$GPGSA,A,3,13,08,07,06,23,19,10,16,03,05,,,02.5,01.5,02.0*01
Sat Aug 28 09:15:24 2010 :$GPGSV,3,1,10,13,79,071,49,07,58,304,53,23,53,122,52,10,33,297,42*7C
Sat Aug 28 09:15:24 2010 :$GPGSV,3,2,10,03,32,088,45,08,29,274,49,06,24,070,44,19,22,121,47*7B
Sat Aug 28 09:15:25 2010 :$GPGSV,3,3,10,16,14,042,43,28,13,214,,122,10,106,,134,12,253,*72
Sat Aug 28 09:15:25 2010 :$GPGLL,3758.1091,N,11907.8483,W,161523.293,A*25
Sat Aug 28 09:15:25 2010 :$GPGGA,161523.29,3758.1091,N,11907.8483,W,1,10,1.8,02019,M,,,,*31
Sat Aug 28 09:15:25 2010 :$GPRMC,161523.29,A,3758.1091,N,11907.8483,W,46.0,330.5,280810,14,E*55
Sat Aug 28 09:15:25 2010 :$GPGSA,A,3,13,08,07,06,23,19,10,16,03,05,,,02.6,01.8,01.9*05
Sat Aug 28 09:15:26 2010 :$PMGNST,02.17,3,T,000,00.0,+02463,00*44
Sat Aug 28 09:15:26 2010 :$GPGLL,3758.1202,N,11907.8562,W,161524.287,A*21
Sat Aug 28 09:15:26 2010 :$GPGGA,161524.29,3758.1202,N,11907.8562,W,1,10,1.7,02018,M,,,,*3E
Sat Aug 28 09:15:26 2010 :$GPRMC,161524.29,A,3758.1202,N,11907.8562,W,46.1,330.6,280810,14,E*56
Sat Aug 28 09:15:26 2010 :$GPGSA,A,3,13,08,07,06,23,19,10,16,03,05,,,02.7,01.7,02.0*01
Sat Aug 28 09:15:26 2010 :$GPGSV,3,1,10,13,79,071,49,07,58,304,53,23,53,122,52,10,33,297,44*7A
Sat Aug 28 09:15:26 2010 :$GPGSV,3,2,10,03,32,088,45,08,29,274,49,06,24,070,42,19,22,121,47*7D
Sat Aug 28 09:15:27 2010 :$GPGSV,3,3,10,16,14,042,42,28,13,214,,122,10,106,,134,12,253,*73
Sat Aug 28 09:15:27 2010 :$GPGLL,3758.1315,N,11907.8642,W,161525.295,A*25
Sat Aug 28 09:15:27 2010 :$GPGGA,161525.29,3758.1315,N,11907.8642,W,1,10,1.6,02016,M,,,,*36
Sat Aug 28 09:15:27 2010 :$GPRMC,161525.29,A,3758.1315,N,11907.8642,W,46.3,330.9,280810,14,E*5C
Sat Aug 28 09:15:28 2010 :$GPGSA,A,3,13,08,07,06,23,19,10,16,03,05,,,02.5,01.6,02.0*02
Sat Aug 28 09:15:28 2010 :$PMGNST,02.17,3,T,000,00.0,+02463,00*44
Sat Aug 28 09:15:28 2010 :$GPGLL,3758.1427,N,11907.8721,W,161526.289,A*29
Sat Aug 28 09:15:28 2010 :$GPGGA,161526.29,3758.1427,N,11907.8721,W,1,10,1.8,02015,M,,,,*3A
Sat Aug 28 09:15:28 2010 :$GPRMC,161526.29,A,3758.1427,N,11907.8721,W,46.5,331.1,280810,14,E*52
Sat Aug 28 09:15:28 2010 :$GPGSA,A,3,13,08,07,06,23,19,10,16,03,05,,,02.9,01.8,02.2*02
Sat Aug 28 09:15:28 2010 :$GPGSV,3,1,10,13,79,071,49,07,58,304,53,23,53,122,52,10,33,297,45*7B
Sat Aug 28 09:15:29 2010 :$GPGSV,3,2,10,03,32,088,45,08,29,274,49,06,24,070,41,19,22,121,47*7E
Sat Aug 28 09:15:29 2010 :$GPGSV,3,3,10,16,14,042,41,28,13,214,,122,10,106,,134,12,253,*70
Sat Aug 28 09:15:29 2010 :$GPGLL,3758.1540,N,11907.8799,W,161527.283,A*21
Sat Aug 28 09:15:29 2010 :$GPGGA,161527.28,3758.1540,N,11907.8799,W,1,10,1.6,02013,M,,,,*31
Sat Aug 28 09:15:30 2010 :$GPRMC,161527.28,A,3758.1540,N,11907.8799,W,46.8,331.2,280810,14,E*5F
Sat Aug 28 09:15:30 2010 :$GPGSA,A,3,13,08,07,06,23,19,10,16,03,05,,,02.6,01.6,02.0*01
Sat Aug 28 09:15:30 2010 :$PMGNST,02.17,3,T,000,00.0,+02463,00*44
Sat Aug 28 09:15:30 2010 :$GPGLL,3758.1656,N,11907.8879,W,161528.291,A*28
Sat Aug 28 09:15:30 2010 :$GPGGA,161528.29,3758.1656,N,11907.8879,W,1,10,1.6,02012,M,,,,*3B
Sat Aug 28 09:15:30 2010 :$GPRMC,161528.29,A,3758.1656,N,11907.8879,W,47.0,331.2,280810,14,E*5D
Sat Aug 28 09:15:31 2010 :$GPGSA,A,3,13,08,07,06,23,19,10,16,03,05,,,02.5,01.6,02.0*02
Sat Aug 28 09:15:31 2010 :$GPGSV,3,1,10,13,79,071,50,07,58,304,53,23,53,122,53,10,33,297,44*73
Sat Aug 28 09:15:31 2010 :$GPGSV,3,2,10,03,32,088,44,08,29,274,49,06,24,070,42,19,22,121,47*7C
Sat Aug 28 09:15:31 2010 :$GPGSV,3,3,10,16,14,042,40,28,13,214,,122,10,106,,134,12,253,*71
Sat Aug 28 09:15:31 2010 :$GPGLL,3758.1770,N,11907.8958,W,161529.285,A*2B
Sat Aug 28 09:15:32 2010 :$GPGGA,161529.28,3758.1770,N,11907.8958,W,1,10,1.9,02010,M,,,,*31
Sat Aug 28 09:15:32 2010 :$GPRMC,161529.28,A,3758.1770,N,11907.8958,W,47.2,331.3,280810,14,E*59
Sat Aug 28 09:15:32 2010 :$GPGSA,A,3,13,08,07,06,23,19,10,16,03,05,,,02.9,01.9,02.2*03
Sat Aug 28 09:15:32 2010 :$PMGNST,02.17,3,T,000,00.0,+02463,00*44
Sat Aug 28 09:15:32 2010 :$GPGLL,3758.1885,N,11907.9037,W,161530.279,A*24
Sat Aug 28 09:15:32 2010 :$GPGGA,161530.28,3758.1885,N,11907.9037,W,1,10,1.7,02009,M,,,,*3B
Sat Aug 28 09:15:33 2010 :$GPRMC,161530.28,A,3758.1885,N,11907.9037,W,47.4,331.5,280810,14,E*55
Sat Aug 28 09:15:33 2010 :$GPGSA,A,3,13,08,07,06,23,19,10,16,03,05,,,02.7,01.7,02.0*01
Sat Aug 28 09:15:33 2010 :$GPGSV,3,1,10,13,79,071,50,07,58,304,53,23,53,122,53,10,33,297,45*72
Sat Aug 28 09:15:33 2010 :$GPGSV,3,2,10,03,32,088,45,08,29,274,49,06,24,070,41,19,22,121,47*7E
Sat Aug 28 09:15:33 2010 :$GPGSV,3,3,10,16,14,042,41,28,13,214,,122,10,106,,134,12,253,*70
Sat Aug 28 09:15:34 2010 :$GPGLL,3758.2002,N,11907.9117,W,161531.287,A*23
Sat Aug 28 09:15:34 2010 :$GPGGA,161531.29,3758.2002,N,11907.9117,W,1,10,1.9,02008,M,,,,*33
Sat Aug 28 09:15:34 2010 :$GPRMC,161531.29,A,3758.2002,N,11907.9117,W,47.6,331.5,280810,14,E*50
Sat Aug 28 09:15:34 2010 :$GPGSA,A,3,13,08,07,06,23,19,10,16,03,05,,,02.9,01.9,02.2*03
Sat Aug 28 09:15:34 2010 :$PMGNST,02.17,3,T,000,00.0,+02463,00*44
Sat Aug 28 09:15:34 2010 :$GPGLL,3758.2118,N,11907.9196,W,161532.281,A*25
Sat Aug 28 09:15:34 2010 :$GPGGA,161532.28,3758.2118,N,11907.9196,W,1,10,1.7,02006,M,,,,*32
Sat Aug 28 09:15:35 2010 :$GPRMC,161532.28,A,3758.2118,N,11907.9196,W,47.8,331.7,280810,14,E*5D
Sat Aug 28 09:15:35 2010 :$GPGSA,A,3,13,08,07,06,23,19,10,16,03,05,,,02.7,01.7,02.0*01
Sat Aug 28 09:15:35 2010 :$GPGSV,3,1,10,13,79,071,50,07,58,304,53,23,53,122,53,10,33,297,45*72
Sat Aug 28 09:15:35 2010 :$GPGSV,3,2,10,03,32,088,45,08,29,274,47,06,24,070,39,19,22,121,48*70
Sat Aug 28 09:15:35 2010 :$GPGSV,3,3,10,16,14,042,41,28,13,214,,122,10,106,,134,12,253,*70
Sat Aug 28 09:15:35 2010 :$GPGLL,3758.2236,N,11907.9277,W,161533.289,A*2F
Sat Aug 28 09:15:36 2010 :$GPGGA,161533.29,3758.2236,N,11907.9277,W,1,10,1.9,02005,M,,,,*3C
Sat Aug 28 09:15:36 2010 :$GPRMC,161533.29,A,3758.2236,N,11907.9277,W,48.0,331.7,280810,14,E*59
Sat Aug 28 09:15:36 2010 :$GPGSA,A,3,13,08,07,06,23,19,10,16,03,05,,,02.3,01.9,01.2*0A
Sat Aug 28 09:15:36 2010 :$PMGNST,02.17,3,T,000,00.0,+02463,00*44
Sat Aug 28 09:15:36 2010 :$GPGLL,3758.2353,N,11907.9356,W,161534.283,A*22
Sat Aug 28 09:15:36 2010 :$GPGGA,161534.28,3758.2353,N,11907.9356,W,1,10,1.8,02003,M,,,,*3D
Sat Aug 28 09:15:37 2010 :$GPRMC,161534.28,A,3758.2353,N,11907.9356,W,48.2,331.7,280810,14,E*5D
Sat Aug 28 09:15:37 2010 :$GPGSA,A,3,13,08,07,06,23,19,10,16,03,05,,,02.9,01.8,02.3*03
Sat Aug 28 09:15:37 2010 :$GPGSV,3,1,10,13,79,071,49,07,58,304,53,23,53,122,53,10,33,297,45*7A
Sat Aug 28 09:15:37 2010 :$GPGSV,3,2,10,03,32,088,46,08,29,274,49,06,24,070,39,19,22,121,48*7D
Sat Aug 28 09:15:37 2010 :$GPGSV,3,3,10,16,14,042,42,28,13,214,,122,10,106,,134,12,253,*73
Sat Aug 28 09:15:38 2010 :$GPGLL,3758.2473,N,11907.9437,W,161535.291,A*25
Sat Aug 28 09:15:38 2010 :$GPGGA,161535.29,3758.2473,N,11907.9437,W,1,10,1.9,02001,M,,,,*3B
Sat Aug 28 09:15:38 2010 :$GPRMC,161535.29,A,3758.2473,N,11907.9437,W,48.4,332.0,280810,14,E*5A
Sat Aug 28 09:15:38 2010 :$GPGSA,A,3,13,08,07,06,23,19,10,16,03,05,,,02.3,01.9,01.2*0A
Sat Aug 28 09:15:38 2010 :$PMGNST,02.17,3,T,000,00.0,+02463,00*44
Sat Aug 28 09:15:38 2010 :$GPGLL,3758.2591,N,11907.9515,W,161536.285,A*2F
Sat Aug 28 09:15:39 2010 :$GPGGA,161536.29,3758.2591,N,11907.9515,W,1,09,1.6,02000,M,,,,*32
Sat Aug 28 09:15:39 2010 :$GPRMC,161536.29,A,3758.2591,N,11907.9515,W,48.3,332.3,280810,14,E*51
Sat Aug 28 09:15:39 2010 :$GPGSA,A,3,13,08,07,06,23,19,10,16,03,,,,02.5,01.6,02.0*07
Sat Aug 28 09:15:39 2010 :$GPGSV,3,1,10,13,79,071,49,07,58,304,53,23,53,122,53,10,33,297,46*79
Sat Aug 28 09:15:39 2010 :$GPGSV,3,2,10,03,32,088,45,08,29,274,50,06,24,070,39,19,22,121,47*79
Sat Aug 28 09:15:40 2010 :$GPGSV,3,3,10,16,14,042,42,28,13,214,,122,10,106,,134,12,253,*73
Sat Aug 28 09:15:40 2010 :$GPGLL,3758.2709,N,11907.9593,W,161537.279,A*20
Sat Aug 28 09:15:40 2010 :$GPGGA,161537.28,3758.2709,N,11907.9593,W,1,09,1.8,01998,M,,,,*3A
Sat Aug 28 09:15:40 2010 :$GPRMC,161537.28,A,3758.2709,N,11907.9593,W,47.8,332.3,280810,14,E*58
Sat Aug 28 09:15:40 2010 :$GPGSA,A,3,13,08,07,06,23,19,10,16,03,,,,02.9,01.8,02.3*06
Sat Aug 28 09:15:40 2010 :$PMGNST,02.17,3,T,000,00.0,+02464,00*43
Sat Aug 28 09:15:40 2010 :$GPGLL,3758.2827,N,11907.9671,W,161538.287,A*22
Sat Aug 28 09:15:41 2010 :$GPGGA,161538.29,3758.2827,N,11907.9671,W,1,09,1.9,01997,M,,,,*36
Sat Aug 28 09:15:41 2010 :$GPRMC,161538.29,A,3758.2827,N,11907.9671,W,47.4,332.2,280810,14,E*57
Sat Aug 28 09:15:41 2010 :$GPGSA,A,3,13,08,07,06,23,19,10,16,03,,,,02.9,01.9,02.2*06
Sat Aug 28 09:15:41 2010 :$GPGSV,3,1,10,13,79,071,48,07,58,304,53,23,53,122,52,10,33,297,45*7A
Sat Aug 28 09:15:41 2010 :$GPGSV,3,2,10,03,32,088,46,08,29,274,50,06,24,070,38,19,22,121,48*74
Sat Aug 28 09:15:42 2010 :$GPGSV,3,3,10,16,14,042,44,28,13,214,,122,10,106,,134,12,253,*75
Sat Aug 28 09:15:42 2010 :$GPGLL,3758.2942,N,11907.9748,W,161539.281,A*2C
Sat Aug 28 09:15:42 2010 :$GPGGA,161539.28,3758.2942,N,11907.9748,W,1,09,1.7,01995,M,,,,*33
Sat Aug 28 09:15:42 2010 :$GPRMC,161539.28,A,3758.2942,N,11907.9748,W,46.9,332.2,280810,14,E*52
Sat Aug 28 09:15:42 2010 :$GPGSA,A,3,13,08,07,06,23,19,10,16,03,,,,02.7,01.7,02.0*04
Sat Aug 28 09:15:42 2010 :$PMGNST,02.17,3,T,000,00.0,+02464,00*43
Sat Aug 28 09:15:42 2010 :$GPGLL,3758.3173,N,11907.9896,W,161541.283,A*26
Sat Aug 28 09:15:43 2010 :$GPGGA,161541.28,3758.3173,N,11907.9896,W,1,09,1.9,01992,M,,,,*32
Sat Aug 28 09:15:43 2010 :$GPRMC,161541.28,A,3758.3173,N,11907.9896,W,46.1,334.0,280810,14,E*56
Sat Aug 28 09:15:43 2010 :$GPGSA,A,3,13,08,07,06,23,19,10,16,03,,,,02.2,01.9,01.1*0D
Sat Aug 28 09:15:43 2010 :$GPGSV,3,1,10,13,79,071,48,07,58,304,52,23,53,122,53,10,33,297,45*7A
Sat Aug 28 09:15:43 2010 :$GPGSV,3,2,10,03,32,088,45,08,29,274,51,06,24,070,41,19,22,121,46*76
Sat Aug 28 09:15:43 2010 :$GPGSV,3,3,10,16,14,042,46,28,13,214,,122,10,106,,134,12,253,*77
Sat Aug 28 09:15:44 2010 :$GPGLL,3758.3289,N,11907.9964,W,161542.291,A*2C
Sat Aug 28 09:15:44 2010 :$GPGGA,161542.29,3758.3289,N,11907.9964,W,1,09,1.5,01991,M,,,,*35
Sat Aug 28 09:15:44 2010 :$GPRMC,161542.29,A,3758.3289,N,11907.9964,W,45.4,336.7,280810,14,E*5D
Sat Aug 28 09:15:44 2010 :$GPGSA,A,3,13,08,07,06,23,19,10,16,03,,,,02.5,01.5,02.0*04
Sat Aug 28 09:15:44 2010 :$PMGNST,02.17,3,T,000,00.0,+02463,00*44
Sat Aug 28 09:15:44 2010 :$GPGLL,3758.3405,N,11908.0021,W,161543.285,A*24
Sat Aug 28 09:15:44 2010 :$GPGGA,161543.29,3758.3405,N,11908.0021,W,1,09,1.9,01990,M,,,,*35
Sat Aug 28 09:15:45 2010 :$GPRMC,161543.29,A,3758.3405,N,11908.0021,W,44.5,340.7,280810,14,E*51
Sat Aug 28 09:15:45 2010 :$GPGSA,A,3,13,08,07,06,23,19,10,16,03,,,,02.3,01.9,01.2*0F
Sat Aug 28 09:15:45 2010 :$GPGSV,3,1,10,13,79,071,48,07,58,304,52,23,53,122,54,10,33,297,46*7E
Sat Aug 28 09:15:45 2010 :$GPGSV,3,2,10,03,32,088,46,08,29,274,51,06,24,070,39,19,22,121,47*7B
Sat Aug 28 09:15:45 2010 :$GPGSV,3,3,10,16,14,042,44,28,13,214,,122,10,106,,134,12,253,*75
Sat Aug 28 09:15:46 2010 :$GPGLL,3758.3523,N,11908.0068,W,161544.293,A*2C
Sat Aug 28 09:15:46 2010 :$GPGGA,161544.29,3758.3523,N,11908.0068,W,1,09,1.6,01988,M,,,,*3C
Sat Aug 28 09:15:46 2010 :$GPRMC,161544.29,A,3758.3523,N,11908.0068,W,43.6,344.1,280810,14,E*58
Sat Aug 28 09:15:46 2010 :$GPGSA,A,3,13,08,07,06,23,19,10,16,03,,,,02.6,01.6,02.0*04
Sat Aug 28 09:15:46 2010 :$PMGNST,02.17,3,T,000,00.0,+02463,00*44
Sat Aug 28 09:15:46 2010 :$GPGLL,3758.3638,N,11908.0105,W,161545.287,A*2B
Sat Aug 28 09:15:46 2010 :$GPGGA,161545.29,3758.3638,N,11908.0105,W,1,09,1.7,01987,M,,,,*30
Sat Aug 28 09:15:47 2010 :$GPRMC,161545.29,A,3758.3638,N,11908.0105,W,42.6,347.2,280810,14,E*5B
Sat Aug 28 09:15:47 2010 :$GPGSA,A,3,13,08,07,06,23,19,10,16,03,,,,02.8,01.7,02.2*09
Sat Aug 28 09:15:47 2010 :$GPGSV,3,1,10,13,79,071,47,07,58,304,53,23,53,122,54,10,33,297,49*7F
Sat Aug 28 09:15:47 2010 :$GPGSV,3,2,10,03,32,088,43,08,29,274,51,06,24,070,42,19,22,121,44*71
Sat Aug 28 09:15:47 2010 :$GPGSV,3,3,10,16,14,042,44,28,13,214,,122,10,106,,134,12,253,*75
Sat Aug 28 09:15:47 2010 :$GPGLL,3758.3754,N,11908.0136,W,161546.295,A*20
Sat Aug 28 09:15:48 2010 :$GPGGA,161546.30,3758.3754,N,11908.0136,W,1,09,2.0,01987,M,,,,*34
Sat Aug 28 09:15:48 2010 :$GPRMC,161546.30,A,3758.3754,N,11908.0136,W,41.7,349.2,280810,14,E*57
Sat Aug 28 09:15:48 2010 :$GPGSA,A,3,13,08,07,06,23,19,10,16,03,,,,02.3,02.0,01.2*05
Sat Aug 28 09:15:48 2010 :$PMGNST,02.17,3,T,000,00.0,+02463,00*44
Sat Aug 28 09:15:48 2010 :$GPGLL,3758.3866,N,11908.0160,W,161547.289,A*21
Sat Aug 28 09:15:48 2010 :$GPGGA,161547.29,3758.3866,N,11908.0160,W,1,09,1.7,01986,M,,,,*35
Sat Aug 28 09:15:48 2010 :$GPRMC,161547.29,A,3758.3866,N,11908.0160,W,40.9,351.0,280810,14,E*57
Sat Aug 28 09:15:49 2010 :$GPGSA,A,3,13,08,07,06,23,19,10,16,03,,,,02.8,01.7,02.3*08
Sat Aug 28 09:15:49 2010 :$GPGSV,3,1,10,13,79,071,48,07,58,304,54,23,53,122,53,10,33,297,49*70
Sat Aug 28 09:15:49 2010 :$GPGSV,3,2,10,03,32,088,43,08,29,274,51,06,24,070,46,19,22,121,41*70
Sat Aug 28 09:15:49 2010 :$GPGSV,3,3,10,16,14,042,44,28,13,214,,122,10,106,,134,12,253,*75
Sat Aug 28 09:15:49 2010 :$GPGLL,3758.3977,N,11908.0181,W,161548.283,A*2A
Sat Aug 28 09:15:49 2010 :$GPGGA,161548.28,3758.3977,N,11908.0181,W,1,09,1.7,01985,M,,,,*36
Sat Aug 28 09:15:50 2010 :$GPRMC,161548.28,A,3758.3977,N,11908.0181,W,40.1,352.2,280810,14,E*5E
Sat Aug 28 09:15:50 2010 :$GPGSA,A,3,13,08,07,06,23,19,10,16,03,,,,02.8,01.7,02.3*08
Sat Aug 28 09:15:50 2010 :$PMGNST,02.17,3,T,000,00.0,+02464,00*43
Sat Aug 28 09:15:50 2010 :$GPGLL,3758.4088,N,11908.0200,W,161549.291,A*2C
Sat Aug 28 09:15:50 2010 :$GPGGA,161549.29,3758.4088,N,11908.0200,W,1,09,1.8,01984,M,,,,*3C
Sat Aug 28 09:15:50 2010 :$GPRMC,161549.29,A,3758.4088,N,11908.0200,W,39.7,352.7,280810,14,E*57
Sat Aug 28 09:15:51 2010 :$GPGSA,A,3,13,08,07,06,23,19,10,16,03,,,,02.6,01.8,01.9*00
Sat Aug 28 09:15:51 2010 :$GPGSV,3,1,10,13,79,071,49,07,58,304,55,23,53,122,51,10,33,297,48*73
Sat Aug 28 09:15:51 2010 :$GPGSV,3,2,10,03,32,088,44,08,29,274,52,06,24,070,46,19,22,121,39*7B
Sat Aug 28 09:15:51 2010 :$GPGSV,3,3,10,16,14,042,45,28,13,214,,122,10,106,,134,12,253,*74
Sat Aug 28 09:15:51 2010 :$GPGLL,3758.4198,N,11908.0217,W,161550.299,A*2A
Sat Aug 28 09:15:51 2010 :$GPGGA,161550.30,3758.4198,N,11908.0217,W,1,10,1.7,01983,M,,,,*3A
Sat Aug 28 09:15:52 2010 :$GPRMC,161550.30,A,3758.4198,N,11908.0217,W,39.5,352.7,280810,14,E*53
Sat Aug 28 09:15:52 2010 :$GPGSA,A,3,13,08,07,06,23,19,10,16,03,05,,,02.9,01.7,02.3*0C
Sat Aug 28 09:15:52 2010 :$PMGNST,02.17,3,T,000,00.0,+02464,00*43
Sat Aug 28 09:15:52 2010 :$GPGLL,3758.4307,N,11908.0235,W,161551.293,A*25
Sat Aug 28 09:15:52 2010 :$GPGGA,161551.29,3758.4307,N,11908.0235,W,1,10,1.9,01982,M,,,,*38
Sat Aug 28 09:15:52 2010 :$GPRMC,161551.29,A,3758.4307,N,11908.0235,W,39.6,352.3,280810,14,E*59
Sat Aug 28 09:15:53 2010 :$GPGSA,A,3,13,08,07,06,23,19,10,16,03,05,,,02.3,01.9,01.2*0A
Sat Aug 28 09:15:53 2010 :$GPGSV,3,1,10,13,79,071,50,07,58,304,54,23,53,122,51,10,33,297,47*75
Sat Aug 28 09:15:53 2010 :$GPGSV,3,2,10,03,32,088,45,08,29,274,53,06,24,070,47,19,22,121,39*7A
Sat Aug 28 09:15:53 2010 :$GPGSV,3,3,10,16,14,042,44,28,13,214,,122,10,106,,134,12,253,*75
Sat Aug 28 09:15:53 2010 :$GPGLL,3758.4415,N,11908.0255,W,161552.287,A*21
Sat Aug 28 09:15:54 2010 :$GPGGA,161552.29,3758.4415,N,11908.0255,W,1,10,1.8,01981,M,,,,*3B
Sat Aug 28 09:15:54 2010 :$GPRMC,161552.29,A,3758.4415,N,11908.0255,W,39.6,351.2,280810,14,E*5A
Sat Aug 28 09:15:54 2010 :$GPGSA,A,3,13,08,07,06,23,19,10,16,03,05,,,02.5,01.8,01.7*08
Sat Aug 28 09:15:54 2010 :$PMGNST,02.17,3,T,000,00.0,+02464,00*43
Sat Aug 28 09:15:54 2010 :$GPGLL,3758.4525,N,11908.0279,W,161553.295,A*2F
Sat Aug 28 09:15:54 2010 :$GPGGA,161553.30,3758.4525,N,11908.0279,W,1,10,1.7,01980,M,,,,*30
Sat Aug 28 09:15:54 2010 :$GPRMC,161553.30,A,3758.4525,N,11908.0279,W,39.9,349.3,280810,14,E*58
Sat Aug 28 09:15:55 2010 :$GPGSA,A,3,13,08,07,06,23,19,10,16,03,05,,,03.0,01.7,02.5*02
Sat Aug 28 09:15:55 2010 :$GPGSV,3,1,10,13,79,071,51,07,58,304,51,23,53,122,50,10,33,297,46*71
Sat Aug 28 09:15:55 2010 :$GPGSV,3,2,10,03,32,088,40,08,29,274,54,06,24,070,48,19,22,121,36*78
Sat Aug 28 09:15:55 2010 :$GPGSV,3,3,10,16,14,042,41,28,13,214,,122,10,106,,134,12,253,*70
Sat Aug 28 09:15:55 2010 :$GPGLL,3758.4633,N,11908.0308,W,161554.289,A*26
Sat Aug 28 09:15:56 2010 :$GPGGA,161554.29,3758.4633,N,11908.0308,W,1,10,1.9,01979,M,,,,*34
Sat Aug 28 09:15:56 2010 :$GPRMC,161554.29,A,3758.4633,N,11908.0308,W,40.0,346.5,280810,14,E*5A
Sat Aug 28 09:15:56 2010 :$GPGSA,A,3,13,08,07,06,23,19,10,16,03,05,,,02.6,01.9,01.8*05
Sat Aug 28 09:15:56 2010 :$PMGNST,02.17,3,T,000,00.0,+02464,00*43
Sat Aug 28 09:15:57 2010 :$GPGLL,3758.4741,N,11908.0345,W,161555.298,A*2A
Sat Aug 28 09:15:57 2010 :$GPGGA,161555.30,3758.4741,N,11908.0345,W,1,10,2.0,01978,M,,,,*3B
Sat Aug 28 09:15:57 2010 :$GPRMC,161555.30,A,3758.4741,N,11908.0345,W,40.3,343.6,280810,14,E*5B
Sat Aug 28 09:15:58 2010 :$GPGSA,A,3,13,08,07,06,23,19,10,16,03,05,,,02.3,02.0,01.2*00
Sat Aug 28 09:15:58 2010 :$GPGSV,3,1,10,13,79,071,51,07,58,304,52,23,53,122,52,10,33,297,46*70
Sat Aug 28 09:15:58 2010 :$GPGSV,3,2,10,03,32,088,44,08,29,274,51,06,24,070,45,19,22,121,39*7B
Sat Aug 28 09:15:58 2010 :$GPGSV,3,3,10,16,14,042,39,28,13,214,,122,10,106,,134,12,253,*7F
Sat Aug 28 09:15:58 2010 :$GPGLL,3758.4847,N,11908.0389,W,161556.292,A*2A
Sat Aug 28 09:15:59 2010 :$GPGGA,161556.29,3758.4847,N,11908.0389,W,1,10,2.0,01977,M,,,,*36
Sat Aug 28 09:15:59 2010 :$GPRMC,161556.29,A,3758.4847,N,11908.0389,W,40.5,340.1,280810,14,E*5B
Sat Aug 28 09:15:59 2010 :$GPGSA,A,3,13,08,07,06,23,19,10,16,03,05,,,02.4,02.0,01.2*07
Sat Aug 28 09:15:59 2010 :$PMGNST,02.17,3,T,000,00.0,+02464,00*43
Sat Aug 28 09:15:59 2010 :$GPGLL,3758.4953,N,11908.0443,W,161557.300,A*24
Sat Aug 28 09:15:59 2010 :$GPGGA,161557.30,3758.4953,N,11908.0443,W,1,10,1.9,01976,M,,,,*31
Sat Aug 28 09:15:59 2010 :$GPRMC,161557.30,A,3758.4953,N,11908.0443,W,40.8,335.8,280810,14,E*51
Sat Aug 28 09:16:00 2010 :$GPGSA,A,3,13,08,07,06,23,19,10,16,03,05,,,02.9,01.9,02.2*03
Sat Aug 28 09:16:00 2010 :$GPGSV,3,1,10,13,79,071,50,07,58,304,51,23,53,122,54,10,33,297,46*74
Sat Aug 28 09:16:00 2010 :$GPGSV,3,2,10,03,32,088,44,08,29,274,48,06,24,070,41,19,22,121,44*7D
Sat Aug 28 09:16:00 2010 :$GPGSV,3,3,10,16,14,042,40,28,13,214,,122,10,106,,134,12,253,*71
Sat Aug 28 09:16:00 2010 :$GPGLL,3758.5055,N,11908.0505,W,161558.294,A*2A
Sat Aug 28 09:16:01 2010 :$GPGGA,161558.29,3758.5055,N,11908.0505,W,1,09,1.9,01974,M,,,,*31
Sat Aug 28 09:16:01 2010 :$GPRMC,161558.29,A,3758.5055,N,11908.0505,W,41.0,332.1,280810,14,E*5C
Sat Aug 28 09:16:01 2010 :$GPGSA,A,3,13,08,07,06,23,19,10,16,03,,,,02.7,01.9,01.9*00
Sat Aug 28 09:16:01 2010 :$PMGNST,02.17,3,T,000,00.0,+02464,00*43
Sat Aug 28 09:16:01 2010 :$GPGLL,3758.5154,N,11908.0576,W,161559.288,A*22
Sat Aug 28 09:16:01 2010 :$GPGGA,161559.29,3758.5154,N,11908.0576,W,1,09,2.0,01973,M,,,,*39
Sat Aug 28 09:16:02 2010 :$GPRMC,161559.29,A,3758.5154,N,11908.0576,W,41.3,329.5,280810,14,E*54
Sat Aug 28 09:16:02 2010 :$GPGSA,A,3,13,08,07,06,23,19,10,16,03,,,,02.3,02.0,01.2*05
Sat Aug 28 09:16:02 2010 :$GPGSV,3,1,10,13,79,071,50,07,58,304,44,23,53,122,54,10,33,297,44*72
Sat Aug 28 09:16:02 2010 :$GPGSV,3,2,10,03,32,088,45,08,29,274,49,06,24,070,42,19,22,121,46*7C
Sat Aug 28 09:16:02 2010 :$GPGSV,3,3,10,16,14,042,36,28,13,214,,122,10,106,,134,12,253,*70
Sat Aug 28 09:16:03 2010 :$GPGLL,3758.5253,N,11908.0653,W,161600.296,A*22
Sat Aug 28 09:16:03 2010 :$GPGGA,161600.30,3758.5253,N,11908.0653,W,1,09,1.7,01972,M,,,,*3B
Sat Aug 28 09:16:03 2010 :$GPRMC,161600.30,A,3758.5253,N,11908.0653,W,41.6,326.9,280810,14,E*55
Sat Aug 28 09:16:03 2010 :$GPGSA,A,3,13,08,07,06,23,19,10,16,03,,,,02.7,01.7,02.1*05
Sat Aug 28 09:16:03 2010 :$PMGNST,02.17,3,T,000,00.0,+02464,00*43
Sat Aug 28 09:16:03 2010 :$GPGLL,3758.5349,N,11908.0734,W,161601.290,A*2F
Sat Aug 28 09:16:03 2010 :$GPGGA,161601.29,3758.5349,N,11908.0734,W,1,09,1.6,01971,M,,,,*3A
Sat Aug 28 09:16:04 2010 :$GPRMC,161601.29,A,3758.5349,N,11908.0734,W,41.8,325.2,280810,14,E*50
Sat Aug 28 09:16:04 2010 :$GPGSA,A,3,13,08,07,06,23,19,10,16,03,,,,02.6,01.6,02.1*05
Sat Aug 28 09:16:04 2010 :$GPGSV,3,1,10,13,79,071,49,07,58,304,45,23,53,122,51,10,33,297,44*7E
Sat Aug 28 09:16:04 2010 :$GPGSV,3,2,10,03,32,088,47,08,29,274,40,06,24,070,44,19,22,121,47*70
Sat Aug 28 09:16:04 2010 :$GPGSV,3,3,10,16,14,042,40,28,13,214,,122,10,106,,134,12,253,*71
Sat Aug 28 09:16:05 2010 :$GPGLL,3758.5445,N,11908.0819,W,161602.298,A*2F
Sat Aug 28 09:16:05 2010 :$GPGGA,161602.30,3758.5445,N,11908.0819,W,1,09,1.5,01970,M,,,,*38
Sat Aug 28 09:16:05 2010 :$GPRMC,161602.30,A,3758.5445,N,11908.0819,W,42.0,325.0,280810,14,E*59
Sat Aug 28 09:16:05 2010 :$GPGSA,A,3,13,08,07,06,23,19,10,16,03,,,,02.5,01.5,02.1*05
Sat Aug 28 09:16:05 2010 :$PMGNST,02.17,3,T,000,00.0,+02464,00*43
Sat Aug 28 09:16:05 2010 :$GPGLL,3758.5541,N,11908.0903,W,161603.292,A*2B
Sat Aug 28 09:16:05 2010 :$GPGGA,161603.29,3758.5541,N,11908.0903,W,1,09,1.9,01969,M,,,,*3A
Sat Aug 28 09:16:06 2010 :$GPRMC,161603.29,A,3758.5541,N,11908.0903,W,42.2,325.1,280810,14,E*5C
Sat Aug 28 09:16:06 2010 :$GPGSA,A,3,13,08,07,06,23,19,10,16,03,,,,02.8,01.9,02.1*04
Sat Aug 28 09:16:06 2010 :$GPGSV,3,1,10,13,79,071,48,07,58,304,46,23,53,122,50,10,33,297,43*7A
Sat Aug 28 09:16:06 2010 :$GPGSV,3,2,10,03,32,088,45,08,29,274,40,06,24,070,44,19,22,121,49*7C
Sat Aug 28 09:16:06 2010 :$GPGSV,3,3,10,16,14,042,44,28,13,214,,122,10,106,,134,12,253,*75
Sat Aug 28 09:16:06 2010 :$GPGLL,3758.5638,N,11908.0988,W,161604.300,A*28
Sat Aug 28 09:16:07 2010 :$GPGGA,161604.30,3758.5638,N,11908.0988,W,1,09,1.5,01967,M,,,,*39
Sat Aug 28 09:16:07 2010 :$GPRMC,161604.30,A,3758.5638,N,11908.0988,W,42.2,325.5,280810,14,E*59
Sat Aug 28 09:16:07 2010 :$GPGSA,A,3,13,08,07,06,23,19,10,16,03,,,,02.6,01.5,02.1*06
Sat Aug 28 09:16:07 2010 :$PMGNST,02.17,3,T,000,00.0,+02465,00*42
Sat Aug 28 09:16:07 2010 :$GPGLL,3758.5734,N,11908.1071,W,161605.294,A*26
Sat Aug 28 09:16:07 2010 :$GPGGA,161605.29,3758.5734,N,11908.1071,W,1,09,1.9,01967,M,,,,*3F
Sat Aug 28 09:16:07 2010 :$GPRMC,161605.29,A,3758.5734,N,11908.1071,W,42.2,325.9,280810,14,E*5F
Sat Aug 28 09:16:08 2010 :$GPGSA,A,3,13,08,07,06,23,19,10,16,03,,,,02.9,01.9,02.1*05
Sat Aug 28 09:16:08 2010 :$GPGSV,3,1,10,13,79,071,48,07,58,304,51,23,53,122,52,10,33,297,44*79
Sat Aug 28 09:16:08 2010 :$GPGSV,3,2,10,03,32,088,46,08,29,274,36,06,24,070,44,19,22,121,51*77
Sat Aug 28 09:16:08 2010 :$GPGSV,3,3,10,16,14,042,44,28,13,214,,122,10,106,,134,12,253,*75
Sat Aug 28 09:16:08 2010 :$GPGLL,3758.5831,N,11908.1153,W,161606.288,A*23
Sat Aug 28 09:16:09 2010 :$GPGGA,161606.29,3758.5831,N,11908.1153,W,1,09,1.9,01966,M,,,,*36
Sat Aug 28 09:16:09 2010 :$GPRMC,161606.29,A,3758.5831,N,11908.1153,W,42.2,326.4,280810,14,E*59
Sat Aug 28 09:16:09 2010 :$GPGSA,A,3,13,08,07,06,23,19,10,16,03,,,,03.2,01.9,02.5*0B
Sat Aug 28 09:16:09 2010 :$PMGNST,02.17,3,T,000,00.0,+02465,00*42
Sat Aug 28 09:16:09 2010 :$GPGLL,3758.5931,N,11908.1235,W,161607.296,A*2F
Sat Aug 28 09:16:09 2010 :$GPGGA,161607.30,3758.5931,N,11908.1235,W,1,09,1.7,01966,M,,,,*33
Sat Aug 28 09:16:09 2010 :$GPRMC,161607.30,A,3758.5931,N,11908.1235,W,42.7,327.6,280810,14,E*54
Sat Aug 28 09:16:10 2010 :$GPGSA,A,3,13,08,07,06,23,19,10,16,03,,,,02.7,01.7,02.2*06
Sat Aug 28 09:16:10 2010 :$GPGSV,3,1,10,13,79,071,48,07,58,304,52,23,53,122,52,10,33,297,43*7D
Sat Aug 28 09:16:10 2010 :$GPGSV,3,2,10,03,32,088,45,08,29,274,36,06,24,070,42,19,22,121,51*72
Sat Aug 28 09:16:10 2010 :$GPGSV,3,3,10,16,14,042,43,28,13,214,,122,10,106,,134,12,253,*72
Sat Aug 28 09:16:10 2010 :$GPGLL,3758.6032,N,11908.1313,W,161608.290,A*2A
Sat Aug 28 09:16:10 2010 :$GPGGA,161608.29,3758.6032,N,11908.1313,W,1,08,2.0,01966,M,,,,*3D
Sat Aug 28 09:16:11 2010 :$GPRMC,161608.29,A,3758.6032,N,11908.1313,W,42.9,329.0,280810,14,E*59
Sat Aug 28 09:16:11 2010 :$GPGSA,A,3,13,07,06,23,19,10,16,03,,,,,03.4,02.0,02.8*02
Sat Aug 28 09:16:11 2010 :$PMGNST,02.17,3,T,000,00.0,+02465,00*42
Sat Aug 28 09:16:11 2010 :$GPGLL,3758.6134,N,11908.1390,W,161609.298,A*2F
Sat Aug 28 09:16:11 2010 :$GPGGA,161609.30,3758.6134,N,11908.1390,W,1,08,1.9,01966,M,,,,*32
Sat Aug 28 09:16:11 2010 :$GPRMC,161609.30,A,3758.6134,N,11908.1390,W,42.3,329.6,280810,14,E*50
Sat Aug 28 09:16:12 2010 :$GPGSA,A,3,13,07,06,23,19,10,16,03,,,,,03.0,01.9,02.3*07
Sat Aug 28 09:16:12 2010 :$GPGSV,3,1,10,13,79,071,48,07,58,304,53,23,53,122,52,10,33,297,41*7E
Sat Aug 28 09:16:12 2010 :$GPGSV,3,2,10,03,32,088,45,08,29,274,,06,24,070,40,19,22,121,51*75
Sat Aug 28 09:16:12 2010 :$GPGSV,3,3,10,16,14,042,41,28,13,214,,122,10,106,,134,12,253,*70
Sat Aug 28 09:16:12 2010 :$GPGLL,3758.6235,N,11908.1465,W,161610.292,A*22
Sat Aug 28 09:16:13 2010 :$GPGGA,161610.29,3758.6235,N,11908.1465,W,1,08,2.3,01966,M,,,,*34
Sat Aug 28 09:16:13 2010 :$GPRMC,161610.29,A,3758.6235,N,11908.1465,W,42.1,329.7,280810,14,E*5C
Sat Aug 28 09:16:13 2010 :$GPGSA,A,3,13,07,06,23,19,10,16,03,,,,,02.8,02.3,01.6*01
Sat Aug 28 09:16:13 2010 :$PMGNST,02.17,3,T,000,00.0,+02465,00*42
Sat Aug 28 09:16:13 2010 :$GPGLL,3758.6335,N,11908.1539,W,161611.286,A*2F
Sat Aug 28 09:16:13 2010 :$GPGGA,161611.29,3758.6335,N,11908.1539,W,1,08,2.1,01966,M,,,,*3E
Sat Aug 28 09:16:14 2010 :$GPRMC,161611.29,A,3758.6335,N,11908.1539,W,42.1,329.5,280810,14,E*56
Sat Aug 28 09:16:14 2010 :$GPGSA,A,3,13,07,06,23,19,10,16,03,,,,,03.5,02.1,02.8*02
Sat Aug 28 09:16:14 2010 :$GPGSV,3,1,10,13,79,071,47,07,58,304,52,23,53,122,52,10,33,297,41*70
Sat Aug 28 09:16:14 2010 :$GPGSV,3,2,10,03,32,088,45,08,29,274,,06,24,070,39,19,22,121,51*7B
Sat Aug 28 09:16:14 2010 :$GPGSV,3,3,10,16,14,042,41,28,13,214,,122,10,106,,134,12,253,*70
Sat Aug 28 09:16:15 2010 :$GPGLL,3758.6437,N,11908.1614,W,161612.294,A*26
Sat Aug 28 09:16:15 2010 :$GPGGA,161612.29,3758.6437,N,11908.1614,W,1,08,2.3,01965,M,,,,*35
Sat Aug 28 09:16:15 2010 :$GPRMC,161612.29,A,3758.6437,N,11908.1614,W,42.3,329.8,280810,14,E*53
Sat Aug 28 09:16:15 2010 :$GPGSA,A,3,13,07,06,23,19,10,16,03,,,,,03.6,02.3,02.8*03
Sat Aug 28 09:16:15 2010 :$PMGNST,02.17,3,T,000,00.0,+02465,00*42
Sat Aug 28 09:16:15 2010 :$GPGLL,3758.6538,N,11908.1689,W,161613.288,A*20
Sat Aug 28 09:16:15 2010 :$GPGGA,161613.29,3758.6538,N,11908.1689,W,1,08,2.3,01965,M,,,,*3E
Sat Aug 28 09:16:16 2010 :$GPRMC,161613.29,A,3758.6538,N,11908.1689,W,42.3,329.8,280810,14,E*58
Sat Aug 28 09:16:16 2010 :$GPGSA,A,3,13,07,06,23,19,10,16,03,,,,,02.8,02.3,01.5*02
Sat Aug 28 09:16:16 2010 :$GPGSV,3,1,10,13,79,071,48,07,58,304,51,23,53,122,52,10,33,297,43*7E
Sat Aug 28 09:16:16 2010 :$GPGSV,3,2,10,03,32,088,45,08,29,274,,06,24,070,39,19,22,121,50*7A
Sat Aug 28 09:16:16 2010 :$GPGSV,3,3,10,16,14,042,41,28,13,214,,122,10,106,,134,12,253,*70
Sat Aug 28 09:16:17 2010 :$GPGLL,3758.6639,N,11908.1763,W,161614.282,A*2A
Sat Aug 28 09:16:17 2010 :$GPGGA,161614.28,3758.6639,N,11908.1763,W,1,08,2.0,01966,M,,,,*3F
Sat Aug 28 09:16:17 2010 :$GPRMC,161614.28,A,3758.6639,N,11908.1763,W,42.0,329.7,280810,14,E*55
Sat Aug 28 09:16:17 2010 :$GPGSA,A,3,13,07,06,23,19,10,16,03,,,,,03.4,02.0,02.7*0D
Sat Aug 28 09:16:17 2010 :$PMGNST,02.17,3,T,000,00.0,+02465,00*42
Sat Aug 28 09:16:17 2010 :$GPGLL,3758.6839,N,11908.1910,W,161616.284,A*2A
Sat Aug 28 09:16:18 2010 :$GPGGA,161616.28,3758.6839,N,11908.1910,W,1,08,2.1,01966,M,,,,*38
Sat Aug 28 09:16:18 2010 :$GPRMC,161616.28,A,3758.6839,N,11908.1910,W,41.1,329.4,280810,14,E*52
Sat Aug 28 09:16:18 2010 :$GPGSA,A,3,13,07,06,23,19,10,16,03,,,,,03.3,02.1,02.6*0A
Sat Aug 28 09:16:18 2010 :$GPGSV,3,1,10,13,79,071,49,07,58,304,51,23,53,122,52,10,33,297,42*7E
Sat Aug 28 09:16:18 2010 :$GPGSV,3,2,10,03,32,088,46,08,29,274,36,06,24,070,40,19,22,121,50*72
Sat Aug 28 09:16:18 2010 :$GPGSV,3,3,10,16,14,042,41,28,13,214,,122,10,106,,134,12,253,*70
Sat Aug 28 09:16:19 2010 :$GPGLL,3758.6938,N,11908.1983,W,161617.292,A*26
Sat Aug 28 09:16:19 2010 :$GPGGA,161617.29,3758.6938,N,11908.1983,W,1,09,1.8,01966,M,,,,*39
Sat Aug 28 09:16:19 2010 :$GPRMC,161617.29,A,3758.6938,N,11908.1983,W,40.6,329.4,280810,14,E*5E
Sat Aug 28 09:16:19 2010 :$GPGSA,A,3,13,08,07,06,23,19,10,16,03,,,,03.0,01.8,02.4*09
Sat Aug 28 09:16:19 2010 :$PMGNST,02.17,3,T,000,00.0,+02466,00*41
Sat Aug 28 09:16:19 2010 :$GPGLL,3758.7034,N,11908.2054,W,161618.286,A*28
Sat Aug 28 09:16:20 2010 :$GPGGA,161618.29,3758.7034,N,11908.2054,W,1,09,2.0,01966,M,,,,*39
Sat Aug 28 09:16:20 2010 :$GPRMC,161618.29,A,3758.7034,N,11908.2054,W,39.9,329.9,280810,14,E*59
Sat Aug 28 09:16:20 2010 :$GPGSA,A,3,13,08,07,06,23,19,10,16,03,,,,02.9,02.0,02.1*0F
Sat Aug 28 09:16:20 2010 :$GPGSV,3,1,10,13,79,071,49,07,58,304,50,23,53,122,53,10,33,297,42*7E
Sat Aug 28 09:16:20 2010 :$GPGSV,3,2,10,03,32,088,46,08,29,274,42,06,24,070,39,19,22,121,50*7F
Sat Aug 28 09:16:21 2010 :$GPGSV,3,3,10,16,14,042,41,28,13,214,,122,10,106,,134,12,253,*70
Sat Aug 28 09:16:21 2010 :$GPGLL,3758.7129,N,11908.2125,W,161619.294,A*20
Sat Aug 28 09:16:21 2010 :$GPGGA,161619.29,3758.7129,N,11908.2125,W,1,09,2.0,01967,M,,,,*33
Sat Aug 28 09:16:21 2010 :$GPRMC,161619.29,A,3758.7129,N,11908.2125,W,39.0,329.3,280810,14,E*51
Sat Aug 28 09:16:21 2010 :$GPGSA,A,3,13,08,07,06,23,19,10,16,03,,,,02.3,02.0,01.2*05
Sat Aug 28 09:16:21 2010 :$PMGNST,02.17,3,T,000,00.0,+02466,00*41
Sat Aug 28 09:16:22 2010 :$GPGLL,3758.7221,N,11908.2195,W,161620.288,A*27
Sat Aug 28 09:16:22 2010 :$GPGGA,161620.29,3758.7221,N,11908.2195,W,1,09,1.7,01967,M,,,,*3D
Sat Aug 28 09:16:22 2010 :$GPRMC,161620.29,A,3758.7221,N,11908.2195,W,38.3,328.2,280810,14,E*59
Sat Aug 28 09:16:22 2010 :$GPGSA,A,3,13,08,07,06,23,19,10,16,03,,,,02.8,01.7,02.2*09
Sat Aug 28 09:16:22 2010 :$GPGSV,3,1,10,13,79,071,49,07,58,304,50,23,53,122,53,10,33,297,41*7D
Sat Aug 28 09:16:22 2010 :$GPGSV,3,2,10,03,32,088,46,08,29,274,36,06,24,070,41,19,22,121,50*73
Sat Aug 28 09:16:23 2010 :$GPGSV,3,3,10,16,14,042,39,28,13,214,,122,10,106,,134,12,253,*7F
Sat Aug 28 09:16:23 2010 :$GPGLL,3758.7311,N,11908.2267,W,161621.296,A*25
Sat Aug 28 09:16:23 2010 :$GPGGA,161621.30,3758.7311,N,11908.2267,W,1,09,2.1,01966,M,,,,*3C
Sat Aug 28 09:16:23 2010 :$GPRMC,161621.30,A,3758.7311,N,11908.2267,W,38.0,327.0,280810,14,E*52
Sat Aug 28 09:16:23 2010 :$GPGSA,A,3,13,08,07,06,23,19,10,16,03,,,,02.4,02.1,01.3*02
Sat Aug 28 09:16:23 2010 :$PMGNST,02.17,3,T,000,00.0,+02466,00*41
Sat Aug 28 09:16:23 2010 :$GPGLL,3758.7399,N,11908.2340,W,161622.290,A*24
Sat Aug 28 09:16:24 2010 :$GPGGA,161622.29,3758.7399,N,11908.2340,W,1,09,1.7,01966,M,,,,*36
Sat Aug 28 09:16:24 2010 :$GPRMC,161622.29,A,3758.7399,N,11908.2340,W,38.1,326.5,280810,14,E*58
Sat Aug 28 09:16:24 2010 :$GPGSA,A,3,13,08,07,06,23,19,10,16,03,,,,02.8,01.7,02.2*09
Sat Aug 28 09:16:24 2010 :$GPGSV,3,1,10,13,79,076,49,07,58,306,50,23,52,123,52,10,33,296,42*7B
Sat Aug 28 09:16:24 2010 :$GPGSV,3,2,10,03,32,087,45,08,29,275,36,06,24,069,44,19,23,120,51*72
Sat Aug 28 09:16:25 2010 :$GPGSV,3,3,10,16,14,042,42,28,14,214,,122,10,106,,134,12,253,*74
Sat Aug 28 09:16:25 2010 :$GPGLL,3758.7489,N,11908.2414,W,161623.298,A*2D
Sat Aug 28 09:16:25 2010 :$GPGGA,161623.30,3758.7489,N,11908.2414,W,1,09,2.1,01966,M,,,,*3A
Sat Aug 28 09:16:25 2010 :$GPRMC,161623.30,A,3758.7489,N,11908.2414,W,38.3,327.2,280810,14,E*55
Sat Aug 28 09:16:25 2010 :$GPGSA,A,3,13,08,07,06,23,19,10,16,03,,,,02.5,02.1,01.4*04
Sat Aug 28 09:16:25 2010 :$PMGNST,02.17,3,T,000,00.0,+02465,00*42
Sat Aug 28 09:16:26 2010 :$GPGLL,3758.7578,N,11908.2486,W,161624.292,A*24
Sat Aug 28 09:16:26 2010 :$GPGGA,161624.29,3758.7578,N,11908.2486,W,1,09,2.1,01967,M,,,,*30
Sat Aug 28 09:16:26 2010 :$GPRMC,161624.29,A,3758.7578,N,11908.2486,W,38.5,327.3,280810,14,E*59
Sat Aug 28 09:16:26 2010 :$GPGSA,A,3,13,08,07,06,23,19,10,16,03,,,,02.5,02.1,01.3*03
Sat Aug 28 09:16:26 2010 :$GPGSV,3,1,10,13,79,076,48,07,58,306,51,23,52,123,52,10,33,296,44*7D
Sat Aug 28 09:16:26 2010 :$GPGSV,3,2,10,03,32,087,44,08,29,275,36,06,24,069,44,19,23,120,51*73
Sat Aug 28 09:16:27 2010 :$GPGSV,3,3,10,16,14,042,44,28,14,214,,122,10,106,,134,12,253,*72
Sat Aug 28 09:16:27 2010 :$GPGLL,3758.7668,N,11908.2558,W,161625.286,A*20
Sat Aug 28 09:16:27 2010 :$GPGGA,161625.29,3758.7668,N,11908.2558,W,1,09,2.1,01967,M,,,,*31
Sat Aug 28 09:16:27 2010 :$GPRMC,161625.29,A,3758.7668,N,11908.2558,W,38.6,328.3,280810,14,E*54
Sat Aug 28 09:16:27 2010 :$GPGSA,A,3,13,08,07,06,23,19,10,16,03,,,,03.2,02.1,02.4*01
Sat Aug 28 09:16:27 2010 :$PMGNST,02.17,3,T,000,00.0,+02467,00*40
Sat Aug 28 09:16:28 2010 :$GPGLL,3758.7762,N,11908.2628,W,161626.294,A*2F
Sat Aug 28 09:16:28 2010 :$GPGGA,161626.29,3758.7762,N,11908.2628,W,1,09,2.2,01967,M,,,,*3E
Sat Aug 28 09:16:28 2010 :$GPRMC,161626.29,A,3758.7762,N,11908.2628,W,38.9,330.2,280810,14,E*5F
Sat Aug 28 09:16:28 2010 :$GPGSA,A,3,13,08,07,06,23,19,10,16,03,,,,02.6,02.2,01.4*04
Sat Aug 28 09:16:28 2010 :$GPGSV,3,1,10,13,79,076,47,07,58,306,52,23,52,123,52,10,33,296,41*74
Sat Aug 28 09:16:29 2010 :$GPGSV,3,2,10,03,32,087,44,08,29,275,36,06,24,069,39,19,23,120,51*79
Sat Aug 28 09:16:29 2010 :$GPGSV,3,3,10,16,14,042,44,28,14,214,,122,10,106,,134,12,253,*72
Sat Aug 28 09:16:29 2010 :$GPGLL,3758.7856,N,11908.2693,W,161627.288,A*2B
Sat Aug 28 09:16:29 2010 :$GPGGA,161627.29,3758.7856,N,11908.2693,W,1,08,1.9,01967,M,,,,*3E
Sat Aug 28 09:16:29 2010 :$GPRMC,161627.29,A,3758.7856,N,11908.2693,W,39.1,332.4,280810,14,E*5B
Sat Aug 28 09:16:29 2010 :$GPGSA,A,3,13,07,06,23,19,10,16,03,,,,,02.9,01.9,02.3*0F
Sat Aug 28 09:16:29 2010 :$PMGNST,02.17,3,T,000,00.0,+02467,00*40
Sat Aug 28 09:16:30 2010 :$GPGLL,3758.7955,N,11908.2755,W,161628.296,A*22
Sat Aug 28 09:16:30 2010 :$GPGGA,161628.30,3758.7955,N,11908.2755,W,1,08,1.9,01967,M,,,,*30
Sat Aug 28 09:16:30 2010 :$GPRMC,161628.30,A,3758.7955,N,11908.2755,W,39.4,334.7,280810,14,E*55
Sat Aug 28 09:16:30 2010 :$GPGSA,A,3,13,07,06,23,19,10,16,03,,,,,02.9,01.9,02.2*0E
Sat Aug 28 09:16:30 2010 :$GPGSV,3,1,10,13,79,076,47,07,58,306,52,23,52,123,53,10,33,296,44*70
Sat Aug 28 09:16:30 2010 :$GPGSV,3,2,10,03,32,087,41,08,29,275,,06,24,069,41,19,23,120,49*7F
Sat Aug 28 09:16:31 2010 :$GPGSV,3,3,10,16,14,042,45,28,14,214,,122,10,106,,134,12,253,*73
Sat Aug 28 09:16:31 2010 :$GPGLL,3758.8054,N,11908.2812,W,161629.290,A*2E
Sat Aug 28 09:16:31 2010 :$GPGGA,161629.29,3758.8054,N,11908.2812,W,1,08,2.3,01967,M,,,,*3B
Sat Aug 28 09:16:31 2010 :$GPRMC,161629.29,A,3758.8054,N,11908.2812,W,39.6,336.4,280810,14,E*54
Sat Aug 28 09:16:32 2010 :$GPGSA,A,3,13,07,06,23,19,10,16,03,,,,,02.8,02.3,01.5*02
Sat Aug 28 09:16:32 2010 :$PMGNST,02.17,3,T,000,00.0,+02467,00*40
Sat Aug 28 09:16:32 2010 :$GPGLL,3758.8155,N,11908.2866,W,161630.284,A*20
Sat Aug 28 09:16:32 2010 :$GPGGA,161630.28,3758.8155,N,11908.2866,W,1,08,2.0,01967,M,,,,*32
Sat Aug 28 09:16:33 2010 :$GPRMC,161630.28,A,3758.8155,N,11908.2866,W,39.6,337.2,280810,14,E*59
Sat Aug 28 09:16:33 2010 :$GPGSA,A,3,13,07,06,23,19,10,16,03,,,,,03.4,02.0,02.8*02
Sat Aug 28 09:16:33 2010 :$GPGSV,3,1,10,13,79,076,49,07,58,306,52,23,52,123,54,10,33,296,44*79
Sat Aug 28 09:16:34 2010 :$GPGSV,3,2,10,03,32,087,46,08,29,275,,06,24,069,36,19,23,120,48*79
Sat Aug 28 09:16:34 2010 :$GPGSV,3,3,10,16,14,042,41,28,14,214,,122,10,106,,134,12,253,*77
Sat Aug 28 09:16:34 2010 :$GPGLL,3758.8257,N,11908.2919,W,161631.292,A*2E
Sat Aug 28 09:16:34 2010 :$GPGGA,161631.29,3758.8257,N,11908.2919,W,1,08,1.9,01967,M,,,,*30
Sat Aug 28 09:16:34 2010 :$GPRMC,161631.29,A,3758.8257,N,11908.2919,W,38.9,337.7,280810,14,E*5A
Sat Aug 28 09:16:34 2010 :$GPGSA,A,3,13,07,06,23,19,10,16,03,,,,,02.9,01.9,02.3*0F
Sat Aug 28 09:16:34 2010 :$PMGNST,02.17,3,T,000,00.0,+02467,00*40
Sat Aug 28 09:16:35 2010 :$GPGLL,3758.8356,N,11908.2971,W,161632.286,A*26
Sat Aug 28 09:16:35 2010 :$GPGGA,161632.29,3758.8356,N,11908.2971,W,1,08,1.9,01967,M,,,,*3D
Sat Aug 28 09:16:35 2010 :$GPRMC,161632.29,A,3758.8356,N,11908.2971,W,38.7,337.4,280810,14,E*5A
Sat Aug 28 09:16:35 2010 :$GPGSA,A,3,13,07,06,23,19,10,16,03,,,,,03.0,01.9,02.3*07
Sat Aug 28 09:16:35 2010 :$GPGSV,3,1,10,13,79,076,49,07,58,306,52,23,52,123,54,10,33,296,41*7C
Sat Aug 28 09:16:36 2010 :$GPGSV,3,2,10,03,32,087,46,08,29,275,,06,24,069,38,19,23,120,48*77
Sat Aug 28 09:16:36 2010 :$GPGSV,3,3,10,16,14,042,40,28,14,214,,122,10,106,,134,12,253,*76
Sat Aug 28 09:16:36 2010 :$GPGLL,3758.8456,N,11908.3023,W,161633.294,A*2C
Sat Aug 28 09:16:36 2010 :$GPGGA,161633.29,3758.8456,N,11908.3023,W,1,08,2.3,01967,M,,,,*3D
Sat Aug 28 09:16:36 2010 :$GPRMC,161633.29,A,3758.8456,N,11908.3023,W,38.7,338.0,280810,14,E*58
Sat Aug 28 09:16:36 2010 :$GPGSA,A,3,13,07,06,23,19,10,16,03,,,,,02.7,02.3,01.4*0C
Sat Aug 28 09:16:36 2010 :$PMGNST,02.17,3,T,000,00.0,+02467,00*40
Sat Aug 28 09:16:37 2010 :$GPGLL,3758.8556,N,11908.3073,W,161634.288,A*22
Sat Aug 28 09:16:37 2010 :$GPGGA,161634.29,3758.8556,N,11908.3073,W,1,08,2.3,01967,M,,,,*3E
Sat Aug 28 09:16:37 2010 :$GPRMC,161634.29,A,3758.8556,N,11908.3073,W,38.9,338.1,280810,14,E*54
Sat Aug 28 09:16:37 2010 :$GPGSA,A,3,13,07,06,23,19,10,16,03,,,,,02.7,02.3,01.5*0D
Sat Aug 28 09:16:37 2010 :$GPGSV,3,1,10,13,79,076,49,07,58,306,52,23,52,123,54,10,33,296,44*79
Sat Aug 28 09:16:38 2010 :$GPGSV,3,2,10,03,32,087,46,08,29,275,,06,24,069,38,19,23,120,48*77
Sat Aug 28 09:16:38 2010 :$GPGSV,3,3,10,16,14,042,39,28,14,214,,122,10,106,,134,12,253,*78
Sat Aug 28 09:16:38 2010 :$GPGLL,3758.8656,N,11908.3124,W,161635.296,A*2C
Sat Aug 28 09:16:38 2010 :$GPGGA,161635.30,3758.8656,N,11908.3124,W,1,08,2.1,01967,M,,,,*35
Sat Aug 28 09:16:38 2010 :$GPRMC,161635.30,A,3758.8656,N,11908.3124,W,38.3,338.1,280810,14,E*57
Sat Aug 28 09:16:38 2010 :$GPGSA,A,3,13,07,06,23,19,10,16,03,,,,,03.1,02.1,02.2*0C
Sat Aug 28 09:16:38 2010 :$PMGNST,02.17,3,T,000,00.0,+02467,00*40
Sat Aug 28 09:16:39 2010 :$GPGLL,3758.8755,N,11908.3174,W,161636.290,A*2E
Sat Aug 28 09:16:39 2010 :$GPGGA,161636.29,3758.8755,N,11908.3174,W,1,08,1.8,01967,M,,,,*33
Sat Aug 28 09:16:39 2010 :$GPRMC,161636.29,A,3758.8755,N,11908.3174,W,38.3,338.0,280810,14,E*5A
Sat Aug 28 09:16:39 2010 :$GPGSA,A,3,13,07,06,23,19,10,16,03,,,,,02.9,01.8,02.2*0F
Sat Aug 28 09:16:39 2010 :$GPGSV,3,1,10,13,79,076,49,07,58,306,52,23,52,123,54,10,33,296,45*78
Sat Aug 28 09:16:40 2010 :$GPGSV,3,2,10,03,32,087,46,08,29,275,,06,24,069,39,19,23,120,47*79
Sat Aug 28 09:16:40 2010 :$GPGSV,3,3,10,16,14,042,39,28,14,214,,122,10,106,,134,12,253,*78
Sat Aug 28 09:16:40 2010 :$GPGLL,3758.8853,N,11908.3224,W,161637.284,A*25
Sat Aug 28 09:16:40 2010 :$GPGGA,161637.28,3758.8853,N,11908.3224,W,1,08,2.3,01968,M,,,,*3B
Sat Aug 28 09:16:40 2010 :$GPRMC,161637.28,A,3758.8853,N,11908.3224,W,38.5,337.8,280810,14,E*54
Sat Aug 28 09:16:40 2010 :$GPGSA,A,3,13,07,06,23,19,10,16,03,,,,,02.7,02.3,01.5*0D
Sat Aug 28 09:16:40 2010 :$PMGNST,02.17,3,T,000,00.0,+02468,00*4F
Sat Aug 28 09:16:41 2010 :$GPGLL,3758.8953,N,11908.3276,W,161638.292,A*2B
Sat Aug 28 09:16:41 2010 :$GPGGA,161638.29,3758.8953,N,11908.3276,W,1,08,2.1,01967,M,,,,*3E
Sat Aug 28 09:16:41 2010 :$GPRMC,161638.29,A,3758.8953,N,11908.3276,W,38.7,337.7,280810,14,E*51
Sat Aug 28 09:16:41 2010 :$GPGSA,A,3,13,07,06,23,19,10,16,03,,,,,03.5,02.1,02.8*02
Sat Aug 28 09:16:41 2010 :$GPGSV,3,1,10,13,79,076,49,07,58,306,52,23,52,123,54,10,33,296,42*7F
Sat Aug 28 09:16:41 2010 :$GPGSV,3,2,10,03,32,087,46,08,29,275,,06,24,069,38,19,23,120,48*77
Sat Aug 28 09:16:42 2010 :$GPGSV,3,3,10,16,14,042,40,28,14,214,,122,10,106,,134,12,253,*76
Sat Aug 28 09:16:42 2010 :$GPGLL,3758.9052,N,11908.3327,W,161639.286,A*23
Sat Aug 28 09:16:42 2010 :$GPGGA,161639.29,3758.9052,N,11908.3327,W,1,08,1.9,01967,M,,,,*38
Sat Aug 28 09:16:42 2010 :$GPRMC,161639.29,A,3758.9052,N,11908.3327,W,38.5,337.9,280810,14,E*50
Sat Aug 28 09:16:42 2010 :$GPGSA,A,3,13,07,06,23,19,10,16,03,,,,,02.9,01.9,02.3*0F
Sat Aug 28 09:16:43 2010 :$PMGNST,02.17,3,T,000,00.0,+02468,00*4F
Sat Aug 28 09:16:43 2010 :$GPGLL,3758.9152,N,11908.3377,W,161640.295,A*2B
Sat Aug 28 09:16:43 2010 :$GPGGA,161640.29,3758.9152,N,11908.3377,W,1,08,2.0,01967,M,,,,*38
Sat Aug 28 09:16:43 2010 :$GPRMC,161640.29,A,3758.9152,N,11908.3377,W,38.5,338.6,280810,14,E*5A
Sat Aug 28 09:16:43 2010 :$GPGSA,A,3,13,07,06,23,19,10,16,03,,,,,03.3,02.0,02.6*0B
Sat Aug 28 09:16:44 2010 :$GPGSV,3,1,10,13,79,076,49,07,58,306,51,23,52,123,54,10,33,296,45*7B
Sat Aug 28 09:16:44 2010 :$GPGSV,3,2,10,03,32,087,44,08,29,275,,06,24,069,39,19,23,120,47*7B
Sat Aug 28 09:16:44 2010 :$GPGSV,3,3,10,16,14,042,39,28,14,214,,122,10,106,,134,12,253,*78
Sat Aug 28 09:16:44 2010 :$GPGLL,3758.9252,N,11908.3425,W,161641.289,A*24
Sat Aug 28 09:16:44 2010 :$GPGGA,161641.29,3758.9252,N,11908.3425,W,1,08,2.2,01967,M,,,,*38
Sat Aug 28 09:16:44 2010 :$GPRMC,161641.29,A,3758.9252,N,11908.3425,W,38.5,339.8,280810,14,E*57
Sat Aug 28 09:16:45 2010 :$GPGSA,A,3,13,07,06,23,19,10,16,03,,,,,03.3,02.2,02.5*0A
Sat Aug 28 09:16:45 2010 :$PMGNST,02.17,3,T,000,00.0,+02468,00*4F
Sat Aug 28 09:16:45 2010 :$GPGLL,3758.9353,N,11908.3469,W,161642.297,A*20
Sat Aug 28 09:16:45 2010 :$GPGGA,161642.30,3758.9353,N,11908.3469,W,1,08,2.2,01968,M,,,,*34
Sat Aug 28 09:16:45 2010 :$GPRMC,161642.30,A,3758.9353,N,11908.3469,W,37.9,342.0,280810,14,E*53
Sat Aug 28 09:16:46 2010 :$GPGSA,A,3,13,07,06,23,19,10,16,03,,,,,03.4,02.2,02.6*0E
Sat Aug 28 09:16:46 2010 :$GPGSV,3,1,10,13,79,076,48,07,58,306,51,23,52,123,54,10,33,296,45*7A
Sat Aug 28 09:16:46 2010 :$GPGSV,3,2,10,03,32,087,43,08,29,275,,06,24,069,44,19,23,120,44*75
Sat Aug 28 09:16:46 2010 :$GPGSV,3,3,10,16,14,042,43,28,14,214,,122,10,106,,134,12,253,*75
Sat Aug 28 09:16:46 2010 :$GPGLL,3758.9454,N,11908.3507,W,161643.291,A*2E
Sat Aug 28 09:16:46 2010 :$GPGGA,161643.29,3758.9454,N,11908.3507,W,1,08,2.2,01968,M,,,,*34
Sat Aug 28 09:16:47 2010 :$GPRMC,161643.29,A,3758.9454,N,11908.3507,W,38.1,344.7,280810,14,E*55
Sat Aug 28 09:16:47 2010 :$GPGSA,A,3,13,07,06,23,19,10,16,03,,,,,02.6,02.2,01.5*0D
Sat Aug 28 09:16:47 2010 :$PMGNST,02.17,3,T,000,00.0,+02468,00*4F
Sat Aug 28 09:16:47 2010 :$GPGLL,3758.9558,N,11908.3539,W,161644.299,A*21
Sat Aug 28 09:16:47 2010 :$GPGGA,161644.30,3758.9558,N,11908.3539,W,1,08,2.1,01968,M,,,,*38
Sat Aug 28 09:16:48 2010 :$GPRMC,161644.30,A,3758.9558,N,11908.3539,W,38.4,348.3,280810,14,E*57
Sat Aug 28 09:16:48 2010 :$GPGSA,A,3,13,07,06,23,19,10,16,03,,,,,03.1,02.1,02.3*0D
Sat Aug 28 09:16:48 2010 :$GPGSV,3,1,10,13,79,076,46,07,58,306,53,23,52,123,52,10,33,296,41*74
Sat Aug 28 09:16:48 2010 :$GPGSV,3,2,10,03,32,087,45,08,29,275,,06,24,069,45,19,23,120,44*72
Sat Aug 28 09:16:48 2010 :$GPGSV,3,3,10,16,14,042,45,28,14,214,,122,10,106,,134,12,253,*73
Sat Aug 28 09:16:48 2010 :$GPGLL,3758.9662,N,11908.3562,W,161645.293,A*2E
Sat Aug 28 09:16:48 2010 :$GPGGA,161645.29,3758.9662,N,11908.3562,W,1,08,2.2,01968,M,,,,*36
Sat Aug 28 09:16:49 2010 :$GPRMC,161645.29,A,3758.9662,N,11908.3562,W,38.4,351.8,280810,14,E*59
Sat Aug 28 09:16:49 2010 :$GPGSA,A,3,13,07,06,23,19,10,16,03,,,,,02.7,02.2,01.6*0F
Sat Aug 28 09:16:49 2010 :$PMGNST,02.17,3,T,000,00.0,+02468,00*4F
Sat Aug 28 09:16:49 2010 :$GPGLL,3758.9769,N,11908.3578,W,161646.301,A*26
Sat Aug 28 09:16:49 2010 :$GPGGA,161646.30,3758.9769,N,11908.3578,W,1,08,2.2,01967,M,,,,*33
Sat Aug 28 09:16:50 2010 :$GPRMC,161646.30,A,3758.9769,N,11908.3578,W,38.7,355.5,280810,14,E*59
Sat Aug 28 09:16:50 2010 :$GPGSA,A,3,13,07,06,23,19,10,16,03,,,,,03.7,02.2,03.0*0A
Sat Aug 28 09:16:50 2010 :$GPGSV,3,1,10,13,79,076,47,07,58,306,51,23,52,123,51,10,33,296,36*74
Sat Aug 28 09:16:50 2010 :$GPGSV,3,2,10,03,32,087,47,08,29,275,,06,24,069,47,19,23,120,44*72
Sat Aug 28 09:16:50 2010 :$GPGSV,3,3,10,16,14,042,47,28,14,214,,122,10,106,,134,12,253,*71
Sat Aug 28 09:16:50 2010 :$GPGLL,3758.9876,N,11908.3585,W,161647.295,A*28
Sat Aug 28 09:16:51 2010 :$GPGGA,161647.29,3758.9876,N,11908.3585,W,1,07,2.7,01967,M,,,,*33
Sat Aug 28 09:16:51 2010 :$GPRMC,161647.29,A,3758.9876,N,11908.3585,W,39.1,358.5,280810,14,E*59
Sat Aug 28 09:16:51 2010 :$GPGSA,A,3,13,07,06,23,19,16,03,,,,,,03.6,02.7,02.4*0A
Sat Aug 28 09:16:51 2010 :$PMGNST,02.17,3,T,000,00.0,+02468,00*4F
Sat Aug 28 09:16:51 2010 :$GPGLL,3758.9986,N,11908.3585,W,161648.303,A*27
Sat Aug 28 09:16:52 2010 :$GPGGA,161648.30,3758.9986,N,11908.3585,W,1,07,2.6,01968,M,,,,*34
Sat Aug 28 09:16:52 2010 :$GPRMC,161648.30,A,3758.9986,N,11908.3585,W,39.5,001.5,280810,14,E*5B
Sat Aug 28 09:16:52 2010 :$GPGSA,A,3,13,07,06,23,19,16,03,,,,,,04.6,02.6,03.8*01
Sat Aug 28 09:16:52 2010 :$GPGSV,3,1,10,13,79,076,49,07,58,306,50,23,52,123,51,10,33,296,*7E
Sat Aug 28 09:16:52 2010 :$GPGSV,3,2,10,03,32,087,48,08,29,275,,06,24,069,45,19,23,120,45*7E
Sat Aug 28 09:16:52 2010 :$GPGSV,3,3,10,16,14,042,46,28,14,214,,122,10,106,,134,12,253,*70
Sat Aug 28 09:16:52 2010 :$GPGLL,3759.0096,N,11908.3579,W,161649.297,A*29
Sat Aug 28 09:16:53 2010 :$GPGGA,161649.30,3759.0096,N,11908.3579,W,1,07,2.3,01968,M,,,,*33
Sat Aug 28 09:16:53 2010 :$GPRMC,161649.30,A,3759.0096,N,11908.3579,W,39.9,003.9,280810,14,E*5B
Sat Aug 28 09:16:53 2010 :$GPGSA,A,3,13,07,06,23,19,16,03,,,,,,03.7,02.3,03.0*0A
Sat Aug 28 09:16:53 2010 :$PMGNST,02.17,3,T,000,00.0,+02468,00*4F
Sat Aug 28 09:16:53 2010 :$GPGLL,3759.0319,N,11908.3558,W,161651.299,A*29
Sat Aug 28 09:16:54 2010 :$GPGGA,161651.30,3759.0319,N,11908.3558,W,1,07,2.6,01968,M,,,,*38
Sat Aug 28 09:16:54 2010 :$GPRMC,161651.30,A,3759.0319,N,11908.3558,W,40.7,004.3,280810,14,E*58
Sat Aug 28 09:16:54 2010 :$GPGSA,A,3,13,07,06,23,19,16,03,,,,,,04.7,02.6,03.9*01
Sat Aug 28 09:16:54 2010 :$GPGSV,3,1,10,13,79,076,49,07,58,306,53,23,52,123,50,10,33,296,*7C
Sat Aug 28 09:16:54 2010 :$GPGSV,3,2,10,03,32,087,46,08,29,275,,06,24,069,46,19,23,120,44*72
Sat Aug 28 09:16:54 2010 :$GPGSV,3,3,10,16,14,042,47,28,14,214,,122,10,106,,134,12,253,*71
Sat Aug 28 09:16:54 2010 :$GPGLL,3759.0431,N,11908.3548,W,161652.293,A*2C
Sat Aug 28 09:16:55 2010 :$GPGGA,161652.29,3759.0431,N,11908.3548,W,1,07,2.8,01968,M,,,,*31
Sat Aug 28 09:16:55 2010 :$GPRMC,161652.29,A,3759.0431,N,11908.3548,W,40.7,003.4,280810,14,E*5F
Sat Aug 28 09:16:55 2010 :$GPGSA,A,3,13,07,06,23,19,16,03,,,,,,03.7,02.8,02.5*05
Sat Aug 28 09:16:55 2010 :$PMGNST,02.17,3,T,000,00.0,+02469,00*4E
Sat Aug 28 09:16:55 2010 :$GPGLL,3759.0544,N,11908.3542,W,161653.301,A*2E
Sat Aug 28 09:16:56 2010 :$GPGGA,161653.30,3759.0544,N,11908.3542,W,1,08,2.1,01967,M,,,,*38
Sat Aug 28 09:16:56 2010 :$GPRMC,161653.30,A,3759.0544,N,11908.3542,W,40.1,001.5,280810,14,E*5A
Sat Aug 28 09:16:56 2010 :$GPGSA,A,3,13,07,06,23,19,10,16,03,,,,,03.2,02.1,02.4*09
Sat Aug 28 09:16:56 2010 :$GPGSV,3,1,10,13,79,076,50,07,58,306,54,23,52,123,51,10,33,296,50*77
Sat Aug 28 09:16:56 2010 :$GPGSV,3,2,10,03,32,087,44,08,29,275,,06,24,069,47,19,23,120,39*7B
Sat Aug 28 09:16:56 2010 :$GPGSV,3,3,10,16,14,042,48,28,14,214,,122,10,106,,134,12,253,*7E
Sat Aug 28 09:16:56 2010 :$GPGLL,3759.0654,N,11908.3541,W,161654.295,A*24
Sat Aug 28 09:16:57 2010 :$GPGGA,161654.29,3759.0654,N,11908.3541,W,1,08,2.1,01967,M,,,,*36
Sat Aug 28 09:16:57 2010 :$GPRMC,161654.29,A,3759.0654,N,11908.3541,W,39.4,359.0,280810,14,E*54
Sat Aug 28 09:16:57 2010 :$GPGSA,A,3,13,07,06,23,19,10,16,03,,,,,02.6,02.1,01.4*0F
Sat Aug 28 09:16:57 2010 :$PMGNST,02.17,3,T,000,00.0,+02469,00*4E
Sat Aug 28 09:16:57 2010 :$GPGLL,3759.0761,N,11908.3546,W,161655.289,A*28
Sat Aug 28 09:16:57 2010 :$GPGGA,161655.29,3759.0761,N,11908.3546,W,1,09,1.6,01967,M,,,,*32
Sat Aug 28 09:16:58 2010 :$GPRMC,161655.29,A,3759.0761,N,11908.3546,W,38.8,357.4,280810,14,E*52
Sat Aug 28 09:16:58 2010 :$GPGSA,A,3,13,08,07,06,23,19,10,16,03,,,,02.8,01.6,02.3*09
Sat Aug 28 09:16:58 2010 :$GPGSV,3,1,10,13,79,076,50,07,58,306,55,23,52,123,51,10,33,296,49*7E
Sat Aug 28 09:16:58 2010 :$GPGSV,3,2,10,03,32,087,42,08,29,275,48,06,24,069,47,19,23,120,44*7B
Sat Aug 28 09:16:58 2010 :$GPGSV,3,3,10,16,14,042,47,28,14,214,,122,10,106,,134,12,253,*71
Sat Aug 28 09:16:58 2010 :$GPGLL,3759.0869,N,11908.3554,W,161656.297,A*20
Sat Aug 28 09:16:58 2010 :$GPGGA,161656.30,3759.0869,N,11908.3554,W,1,09,1.7,01967,M,,,,*3C
Sat Aug 28 09:16:58 2010 :$GPRMC,161656.30,A,3759.0869,N,11908.3554,W,38.2,355.6,280810,14,E*57
Sat Aug 28 09:16:59 2010 :$GPGSA,A,3,13,08,07,06,23,19,10,16,03,,,,02.9,01.7,02.3*09
Sat Aug 28 09:16:59 2010 :$PMGNST,02.17,3,T,000,00.0,+02470,00*46
Sat Aug 28 09:16:59 2010 :$GPGLL,3759.0974,N,11908.3566,W,161657.291,A*2B
Sat Aug 28 09:16:59 2010 :$GPGGA,161657.29,3759.0974,N,11908.3566,W,1,09,2.0,01967,M,,,,*3D
Sat Aug 28 09:16:59 2010 :$GPRMC,161657.29,A,3759.0974,N,11908.3566,W,38.3,353.7,280810,14,E*54
Sat Aug 28 09:17:00 2010 :$GPGSA,A,3,13,08,07,06,23,19,10,16,03,,,,02.3,02.0,01.2*05
Sat Aug 28 09:17:00 2010 :$GPGSV,3,1,10,13,79,076,49,07,58,306,53,23,52,123,52,10,33,296,48*72
Sat Aug 28 09:17:00 2010 :$GPGSV,3,2,10,03,32,087,44,08,29,275,52,06,24,069,46,19,23,120,39*7D
Sat Aug 28 09:17:00 2010 :$GPGSV,3,3,10,16,14,042,46,28,14,214,,122,10,106,,134,12,253,*70
Sat Aug 28 09:17:00 2010 :$GPGLL,3759.1081,N,11908.3583,W,161658.299,A*25
Sat Aug 28 09:17:00 2010 :$GPGGA,161658.30,3759.1081,N,11908.3583,W,1,09,1.8,01967,M,,,,*38
Sat Aug 28 09:17:00 2010 :$GPRMC,161658.30,A,3759.1081,N,11908.3583,W,38.9,352.2,280810,14,E*54
Sat Aug 28 09:17:01 2010 :$GPGSA,A,3,13,08,07,06,23,19,10,16,03,,,,02.7,01.8,02.1*0A
Sat Aug 28 09:17:01 2010 :$PMGNST,02.17,3,T,000,00.0,+02470,00*46
Sat Aug 28 09:17:01 2010 :$GPGLL,3759.1188,N,11908.3604,W,161659.293,A*2A
Sat Aug 28 09:17:01 2010 :$GPGGA,161659.29,3759.1188,N,11908.3604,W,1,09,1.8,01967,M,,,,*35
Sat Aug 28 09:17:01 2010 :$GPRMC,161659.29,A,3759.1188,N,11908.3604,W,39.3,350.4,280810,14,E*56
Sat Aug 28 09:17:01 2010 :$GPGSA,A,3,13,08,07,06,23,19,10,16,03,,,,02.9,01.8,02.4*01
Sat Aug 28 09:17:02 2010 :$GPGSV,3,1,10,13,79,076,49,07,58,306,52,23,52,123,51,10,33,296,47*7F
Sat Aug 28 09:17:02 2010 :$GPGSV,3,2,10,03,32,087,44,08,29,275,53,06,24,069,47,19,23,120,39*7D
Sat Aug 28 09:17:02 2010 :$GPGSV,3,3,10,16,14,042,44,28,14,214,,122,10,106,,134,12,253,*72
Sat Aug 28 09:17:02 2010 :$GPGLL,3759.1296,N,11908.3629,W,161700.287,A*21
Sat Aug 28 09:17:02 2010 :$GPGGA,161700.29,3759.1296,N,11908.3629,W,1,09,1.9,01967,M,,,,*3A
Sat Aug 28 09:17:02 2010 :$GPRMC,161700.29,A,3759.1296,N,11908.3629,W,39.8,348.8,280810,14,E*56
Sat Aug 28 09:17:02 2010 :$GPGSA,A,3,13,08,07,06,23,19,10,16,03,,,,02.6,01.9,01.9*01
Sat Aug 28 09:17:02 2010 :$PMGNST,02.17,3,T,000,00.0,+02470,00*46
Sat Aug 28 09:17:03 2010 :$GPGLL,3759.1405,N,11908.3659,W,161701.295,A*28
Sat Aug 28 09:17:03 2010 :$GPGGA,161701.29,3759.1405,N,11908.3659,W,1,09,1.6,01967,M,,,,*3F
Sat Aug 28 09:17:03 2010 :$GPRMC,161701.29,A,3759.1405,N,11908.3659,W,40.3,346.8,280810,14,E*57
Sat Aug 28 09:17:03 2010 :$GPGSA,A,3,13,08,07,06,23,19,10,16,03,,,,02.8,01.6,02.3*09
Sat Aug 28 09:17:03 2010 :$GPGSV,3,1,10,13,79,076,49,07,58,306,50,23,52,123,51,10,33,296,46*7C
Sat Aug 28 09:17:04 2010 :$GPGSV,3,2,10,03,32,087,41,08,29,275,53,06,24,069,48,19,23,120,43*7A
Sat Aug 28 09:17:04 2010 :$GPGSV,3,3,10,16,14,042,38,28,14,214,,122,10,106,,134,12,253,*79
Sat Aug 28 09:17:04 2010 :$GPGLL,3759.1514,N,11908.3694,W,161702.289,A*26
Sat Aug 28 09:17:04 2010 :$GPGGA,161702.29,3759.1514,N,11908.3694,W,1,09,1.6,01967,M,,,,*3C
Sat Aug 28 09:17:04 2010 :$GPRMC,161702.29,A,3759.1514,N,11908.3694,W,40.5,344.9,280810,14,E*51
Sat Aug 28 09:17:04 2010 :$GPGSA,A,3,13,08,07,06,23,19,10,16,03,,,,02.8,01.6,02.3*09
Sat Aug 28 09:17:04 2010 :$PMGNST,02.17,3,T,000,00.0,+02470,00*46
Sat Aug 28 09:17:04 2010 :$GPGLL,3759.1622,N,11908.3734,W,161703.297,A*25
Sat Aug 28 09:17:05 2010 :$GPGGA,161703.30,3759.1622,N,11908.3734,W,1,10,1.7,01967,M,,,,*31
Sat Aug 28 09:17:05 2010 :$GPRMC,161703.30,A,3759.1622,N,11908.3734,W,40.3,342.7,280810,14,E*5B
Sat Aug 28 09:17:05 2010 :$GPGSA,A,3,13,08,07,06,23,19,10,16,03,05,,,02.6,01.7,02.0*00
Sat Aug 28 09:17:05 2010 :$GPGSV,3,1,10,13,79,076,49,07,58,306,51,23,52,123,53,10,33,296,46*7F
Sat Aug 28 09:17:05 2010 :$GPGSV,3,2,10,03,32,087,42,08,29,275,51,06,24,069,45,19,23,120,44*71
Sat Aug 28 09:17:05 2010 :$GPGSV,3,3,10,16,14,042,41,28,14,214,,122,10,106,,134,12,253,*77
Sat Aug 28 09:17:06 2010 :$GPGLL,3759.1728,N,11908.3778,W,161704.291,A*27
Sat Aug 28 09:17:06 2010 :$GPGGA,161704.29,3759.1728,N,11908.3778,W,1,10,1.6,01967,M,,,,*3C
Sat Aug 28 09:17:06 2010 :$GPRMC,161704.29,A,3759.1728,N,11908.3778,W,40.5,340.8,280810,14,E*5C
Sat Aug 28 09:17:06 2010 :$GPGSA,A,3,13,08,07,06,23,19,10,16,03,05,,,02.6,01.6,02.0*01
Sat Aug 28 09:17:07 2010 :$PMGNST,02.17,3,T,000,00.0,+02470,00*46
Sat Aug 28 09:17:07 2010 :$GPGLL,3759.1836,N,11908.3826,W,161705.299,A*2A
Sat Aug 28 09:17:07 2010 :$GPGGA,161705.30,3759.1836,N,11908.3826,W,1,09,2.0,01967,M,,,,*3C
Sat Aug 28 09:17:08 2010 :$GPRMC,161705.30,A,3759.1836,N,11908.3826,W,40.7,339.8,280810,14,E*5D
Sat Aug 28 09:17:08 2010 :$GPGSA,A,3,13,08,07,06,23,19,10,16,03,,,,02.3,02.0,01.2*05
Sat Aug 28 09:17:08 2010 :$GPGSV,3,1,10,13,79,076,49,07,58,306,52,23,52,123,54,10,33,296,45*78
Sat Aug 28 09:17:09 2010 :$GPGSV,3,2,10,03,32,087,42,08,29,275,50,06,24,069,42,19,23,120,46*75
Sat Aug 28 09:17:09 2010 :$GPGSV,3,3,10,16,14,042,38,28,14,214,,122,10,106,,134,12,253,*79
Sat Aug 28 09:17:09 2010 :$GPGLL,3759.1942,N,11908.3875,W,161706.293,A*27
Sat Aug 28 09:17:09 2010 :$GPGGA,161706.29,3759.1942,N,11908.3875,W,1,09,1.6,01967,M,,,,*36
Sat Aug 28 09:17:09 2010 :$GPRMC,161706.29,A,3759.1942,N,11908.3875,W,40.9,339.6,280810,14,E*52
Sat Aug 28 09:17:09 2010 :$GPGSA,A,3,13,08,07,06,23,19,10,16,03,,,,02.6,01.6,02.0*04
Sat Aug 28 09:17:09 2010 :$PMGNST,02.17,3,T,000,00.0,+02470,00*46
Sat Aug 28 09:17:10 2010 :$GPGLL,3759.2047,N,11908.3925,W,161707.287,A*28
Sat Aug 28 09:17:10 2010 :$GPGGA,161707.29,3759.2047,N,11908.3925,W,1,09,1.8,01967,M,,,,*32
Sat Aug 28 09:17:10 2010 :$GPRMC,161707.29,A,3759.2047,N,11908.3925,W,40.7,339.3,280810,14,E*53
Sat Aug 28 09:17:10 2010 :$GPGSA,A,3,13,08,07,06,23,19,10,16,03,,,,02.7,01.8,02.1*0A
