2010-05-29 07:35:38 UTC: KJ6AOD-11>APZ111,WIDE2-2,qAR,KC6SSM-5:>ProjectBacchus.org Uptime=00:03:30 Temp=78F,67F (235,217) RH=81% (617) Acc=507,501,332
2010-05-29 07:35:53 UTC: KJ6AOD-11>APZ111,WIDE2-2,qAR,KC6SSM-5:$GPGGA,073551.00,3745.74208,N,12225.15629,W,1,06,1.92,20.6,M,-29.8,M,,*5E
2010-05-29 07:36:08 UTC: KJ6AOD-11>APZ111,WIDE2-2,qAR,KC6SSM-5:>ProjectBacchus.org Uptime=00:04:00 Temp=81F,68F (240,218) RH=82% (621) Acc=506,502,331
2010-05-29 07:36:25 UTC: KJ6AOD-11>APZ111,KF6CLH-3,AC6ET-5,WIDE2*,qAR,K6MEU-5:$GPGGA,073621.00,3745.74054,N,12225.15604,W,1,06,1.91,12.6,M,-29.8,M,,*5C
2010-05-29 07:36:38 UTC: KJ6AOD-11>APZ111,WIDE2-2,qAR,KC6SSM-5:>ProjectBacchus.org Uptime=00:04:30 Temp=82F,67F (242,217) RH=82% (623) Acc=510,555,341
2010-05-29 07:36:53 UTC: KJ6AOD-11>APZ111,WIDE2-2,qAR,KC6SSM-5:$GPGGA,073651.00,3745.74329,N,12225.16304,W,1,06,1.90,42.9,M,-29.8,M,,*5F
2010-05-29 07:37:08 UTC: KJ6AOD-11>APZ111,WIDE2-2,qAR,KC6SSM-5:>ProjectBacchus.org Uptime=00:05:00 Temp=82F,67F (243,217) RH=81% (620) Acc=518,526,330
2010-05-29 07:37:23 UTC: KJ6AOD-11>APZ111,WIDE2-2,qAR,KC6SSM-5:$GPGGA,073721.00,3745.74590,N,12225.15623,W,1,06,1.89,21.7,M,-29.8,M,,*5D
2010-05-29 07:37:40 UTC: KJ6AOD-11>APZ111,KF6CLH-3,AC6ET-5,WIDE2*,qAR,W6PKT-5:>ProjectBacchus.org Uptime=00:05:30 Temp=82F,67F (243,216) RH=82% (624) Acc=521,524,333
2010-05-29 07:37:53 UTC: KJ6AOD-11>APZ111,WIDE2-2,qAR,KC6SSM-5:$GPGGA,073751.00,3745.74704,N,12225.15591,W,1,06,1.88,14.6,M,-29.8,M,,*59
2010-05-29 07:38:23 UTC: KJ6AOD-11>APZ111,WIDE2-2,qAR,KC6SSM-5:$GPGGA,073821.00,3745.74728,N,12225.15510,W,1,06,1.87,20.0,M,-29.8,M,,*58
2010-05-29 07:38:53 UTC: KJ6AOD-11>APZ111,WIDE2-2,qAR,KC6SSM-5:$GPGGA,073851.00,3745.74882,N,12225.15604,W,1,06,1.86,19.5,M,-29.8,M,,*58
2010-05-29 07:39:08 UTC: KJ6AOD-11>APZ111,WIDE2-2,qAR,KC6SSM-5:>ProjectBacchus.org Uptime=00:07:00 Temp=84F,66F (245,214) RH=85% (644) Acc=519,523,332
2010-05-29 07:39:23 UTC: KJ6AOD-11>APZ111,WIDE2-2,qAR,KC6SSM-5:$GPGGA,073921.00,3745.74148,N,12225.15906,W,1,06,1.85,24.2,M,-29.8,M,,*56
2010-05-29 07:39:38 UTC: KJ6AOD-11>APZ111,WIDE2-2,qAR,KC6SSM-5:>ProjectBacchus.org Uptime=00:07:30 Temp=84F,66F (245,214) RH=85% (646) Acc=518,522,333
2010-05-29 07:39:55 UTC: KJ6AOD-11>APZ111,KF6CLH-3,N6ZX-3,WIDE2*,qAR,W6YX-5:$GPGGA,073951.00,3745.74317,N,12225.15879,W,1,06,1.84,21.3,M,-29.8,M,,*55
2010-05-29 07:40:08 UTC: KJ6AOD-11>APZ111,WIDE2-2,qAR,KC6SSM-5:>ProjectBacchus.org Uptime=00:08:00 Temp=84F,66F (246,214) RH=86% (651) Acc=516,524,330
2010-05-29 07:40:25 UTC: KJ6AOD-11>APZ111,KF6CLH-3,AC6ET-5,WIDE2*,qAR,K6MEU-5:$GPGGA,074021.00,3745.74339,N,12225.15796,W,1,06,1.83,27.6,M,-29.8,M,,*5A
2010-05-29 07:40:38 UTC: KJ6AOD-11>APZ111,WIDE2-2,qAR,KC6SSM-5:>ProjectBacchus.org Uptime=00:08:30 Temp=84F,66F (246,214) RH=87% (655) Acc=518,525,335
2010-05-29 07:40:55 UTC: KJ6AOD-11>APZ111,KF6CLH-3,WB6TMS-5,WIDE2*,qAR,W6PKT-5:$GPGGA,074051.00,3745.74663,N,12225.15515,W,1,06,1.82,22.2,M,-29.8,M,,*5E
2010-05-29 07:41:38 UTC: KJ6AOD-11>APZ111,WIDE2-2,qAR,KC6SSM-5:>ProjectBacchus.org Uptime=00:09:30 Temp=85F,65F (247,213) RH=87% (659) Acc=518,524,334
2010-05-29 07:42:23 UTC: KJ6AOD-11>APZ111,WIDE2-2,qAR,KC6SSM-5:$GPGGA,074221.00,3745.73779,N,12225.16434,W,1,05,2.48,22.9,M,-29.8,M,,*5A
2010-05-29 07:42:53 UTC: KJ6AOD-11>APZ111,WIDE2-2,qAR,KC6SSM-5:$GPGGA,074251.00,3745.74705,N,12225.15722,W,1,05,2.48,29.9,M,-29.8,M,,*5D
2010-05-29 07:43:11 UTC: KJ6AOD-11>APZ111,KF6CLH-3,AC6ET-5,WIDE2*,qAR,K6MEU-5:>ProjectBacchus.org Uptime=00:11:00 Temp=85F,65F (247,213) RH=88% (665) Acc=520,524,333
2010-05-29 07:43:23 UTC: KJ6AOD-11>APZ111,WIDE2-2,qAR,KC6SSM-5:$GPGGA,074321.00,3745.75997,N,12225.14712,W,1,05,2.48,49.2,M,-29.8,M,,*50
2010-05-29 07:43:53 UTC: KJ6AOD-11>APZ111,WIDE2-2,qAR,KC6SSM-5:$GPGGA,074351.00,3745.75678,N,12225.14698,W,1,06,2.32,44.6,M,-29.8,M,,*5D
2010-05-29 07:44:08 UTC: KJ6AOD-11>APZ111,WIDE2-2,qAR,KC6SSM-5:>ProjectBacchus.org Uptime=00:12:00 Temp=85F,65F (248,213) RH=89% (668) Acc=516,523,330
2010-05-29 07:44:38 UTC: KJ6AOD-11>APZ111,WIDE2-2,qAR,KC6SSM-5:>ProjectBacchus.org Uptime=00:12:30 Temp=85F,65F (248,213) RH=89% (669) Acc=517,525,331
2010-05-29 07:44:53 UTC: KJ6AOD-11>APZ111,WIDE2-2,qAR,KC6SSM-5:$GPGGA,074451.00,3745.75209,N,12225.15151,W,1,07,2.34,30.3,M,-29.8,M,,*5A
2010-05-29 07:45:08 UTC: KJ6AOD-11>APZ111,WIDE2-2,qAR,KC6SSM-5:>ProjectBacchus.org Uptime=00:13:00 Temp=85F,65F (248,213) RH=89% (670) Acc=518,526,330
2010-05-29 07:45:23 UTC: KJ6AOD-11>APZ111,WIDE2-2,qAR,KC6SSM-5:$GPGGA,074521.00,3745.74831,N,12225.15317,W,1,06,2.36,24.8,M,-29.8,M,,*51
2010-05-29 07:45:38 UTC: KJ6AOD-11>APZ111,WIDE2-2,qAR,KC6SSM-5:>ProjectBacchus.org Uptime=00:13:30 Temp=85F,65F (248,213) RH=89% (672) Acc=515,525,331
2010-05-29 07:46:23 UTC: KJ6AOD-11>APZ111,WIDE2-2,qAR,KC6SSM-5:$GPGGA,074621.00,3745.74494,N,12225.15613,W,1,07,1.65,15.2,M,-29.8,M,,*5C
2010-05-29 07:46:38 UTC: KJ6AOD-11>APZ111,WIDE2-2,qAR,KC6SSM-5:>ProjectBacchus.org Uptime=00:14:30 Temp=86F,65F (249,213) RH=89% (673) Acc=519,525,333
2010-05-29 07:46:53 UTC: KJ6AOD-11>APZ111,WIDE2-2,qAR,KC6SSM-5:$GPGGA,074651.00,3745.73706,N,12225.16208,W,1,07,1.65,13.9,M,-29.8,M,,*54
2010-05-29 07:47:08 UTC: KJ6AOD-11>APZ111,WIDE2-2,qAR,KC6SSM-5:>ProjectBacchus.org Uptime=00:15:00 Temp=86F,65F (249,213) RH=89% (672) Acc=518,526,329
2010-05-29 07:47:38 UTC: KJ6AOD-11>APZ111,WIDE2-2,qAR,KC6SSM-5:>ProjectBacchus.org Uptime=00:15:30 Temp=86F,64F (249,212) RH=89% (673) Acc=516,528,330
2010-05-29 07:48:24 UTC: KJ6AOD-11>APZ111,WIDE2-2,qAR,KC6SSM-5:$GPGGA,074821.00,3745.73927,N,12225.16195,W,1,07,1.66,27.3,M,-29.8,M,,*59
2010-05-29 07:48:38 UTC: KJ6AOD-11>APZ111,WIDE2-2,qAR,KC6SSM-5:>ProjectBacchus.org Uptime=00:16:30 Temp=86F,65F (249,213) RH=90% (674) Acc=518,526,331
2010-05-29 07:48:53 UTC: KJ6AOD-11>APZ111,WIDE2-2,qAR,KC6SSM-5:$GPGGA,074851.00,3745.74305,N,12225.16402,W,1,07,1.66,32.9,M,-29.8,M,,*56
2010-05-29 07:49:10 UTC: KJ6AOD-11>APZ111,KF6CLH-3,AC6ET-5,WIDE2*,qAR,K6MEU-5:>ProjectBacchus.org Uptime=00:17:00 Temp=87F,64F (250,212) RH=90% (674) Acc=517,524,333
2010-05-29 07:49:23 UTC: KJ6AOD-11>APZ111,WIDE2-2,qAR,KC6SSM-5:$GPGGA,074921.00,3745.73934,N,12225.17132,W,1,07,1.66,30.5,M,-29.8,M,,*56
2010-05-29 07:49:38 UTC: KJ6AOD-11>APZ111,WIDE2-2,qAR,KC6SSM-5:>ProjectBacchus.org Uptime=00:17:30 Temp=87F,65F (250,213) RH=90% (674) Acc=517,525,331
2010-05-29 07:50:08 UTC: KJ6AOD-11>APZ111,WIDE2-2,qAR,KC6SSM-5:>ProjectBacchus.org Uptime=00:18:00 Temp=87F,64F (250,212) RH=90% (674) Acc=515,525,333
2010-05-29 07:50:38 UTC: KJ6AOD-11>APZ111,WIDE2-2,qAR,KC6SSM-5:>ProjectBacchus.org Uptime=00:18:30 Temp=87F,64F (250,212) RH=90% (674) Acc=516,526,330
2010-05-29 07:51:23 UTC: KJ6AOD-11>APZ111,WIDE2-2,qAR,KC6SSM-5:$GPGGA,075121.00,3745.74299,N,12225.15987,W,1,07,1.66,20.8,M,-29.8,M,,*5C
2010-05-29 07:52:08 UTC: KJ6AOD-11>APZ111,WIDE2-2,qAR,KC6SSM-5:>ProjectBacchus.org Uptime=00:20:00 Temp=87F,64F (251,212) RH=90% (675) Acc=500,496,329
2010-05-29 07:52:53 UTC: KJ6AOD-11>APZ111,WIDE2-2,qAR,KC6SSM-5:$GPGGA,075251.00,3745.74067,N,12225.16426,W,1,07,1.66,15.4,M,-29.8,M,,*54
2010-05-29 07:53:08 UTC: KJ6AOD-11>APZ111,WIDE2-2,qAR,KC6SSM-5:>ProjectBacchus.org Uptime=00:21:00 Temp=87F,64F (251,212) RH=90% (679) Acc=500,496,330
2010-05-29 07:53:23 UTC: KJ6AOD-11>APZ111,WIDE2-2,qAR,KC6SSM-5:$GPGGA,075321.00,3745.74585,N,12225.15753,W,1,06,2.52,19.8,M,-29.8,M,,*5C
2010-05-29 07:53:53 UTC: KJ6AOD-11>APZ111,WIDE2-2,qAR,KC6SSM-5:$GPGGA,075351.00,3745.74876,N,12225.15727,W,1,06,2.53,31.2,M,-29.8,M,,*58
2010-05-29 07:54:10 UTC: KJ6AOD-11>APZ111,KF6CLH-3,N6ZX-3,WIDE2*,qAR,W6YX-5:>ProjectBacchus.org Uptime=00:22:00 Temp=88F,64F (252,212) RH=91% (680) Acc=497,493,329
2010-05-29 07:54:23 UTC: KJ6AOD-11>APZ111,WIDE2-2,qAR,KC6SSM-5:$GPGGA,075421.00,3745.74029,N,12225.16301,W,1,06,2.54,12.8,M,-29.8,M,,*55
2010-05-29 07:54:39 UTC: KJ6AOD-11>APZ111,WIDE2-2,qAR,KC6SSM-5:>ProjectBacchus.org Uptime=00:22:30 Temp=88F,64F (252,212) RH=91% (681) Acc=498,497,333
2010-05-29 07:55:08 UTC: KJ6AOD-11>APZ111,WIDE2-2,qAR,KC6SSM-5:>ProjectBacchus.org Uptime=00:23:00 Temp=88F,64F (252,212) RH=91% (681) Acc=497,495,330
2010-05-29 07:55:23 UTC: KJ6AOD-11>APZ111,WIDE2-2,qAR,KC6SSM-5:$GPGGA,075521.00,3745.74796,N,12225.15824,W,1,07,1.66,29.5,M,-29.8,M,,*5E
2010-05-29 07:55:38 UTC: KJ6AOD-11>APZ111,WIDE2-2,qAR,KC6SSM-5:>ProjectBacchus.org Uptime=00:23:30 Temp=88F,64F (252,212) RH=91% (683) Acc=498,495,331
2010-05-29 07:55:53 UTC: KJ6AOD-11>APZ111,WIDE2-2,qAR,KC6SSM-5:$GPGGA,075551.00,3745.74861,N,12225.15710,W,1,07,1.67,28.4,M,-29.8,M,,*57
2010-05-29 07:56:08 UTC: KJ6AOD-11>APZ111,WIDE2-2,qAR,KC6SSM-5:>ProjectBacchus.org Uptime=00:24:00 Temp=88F,64F (252,211) RH=91% (683) Acc=501,495,331
2010-05-29 07:56:23 UTC: KJ6AOD-11>APZ111,WIDE2-2,qAR,KC6SSM-5:$GPGGA,075621.00,3745.74697,N,12225.15747,W,1,07,1.67,28.6,M,-29.8,M,,*54
2010-05-29 07:56:38 UTC: KJ6AOD-11>APZ111,WIDE2-2,qAR,KC6SSM-5:>ProjectBacchus.org Uptime=00:24:30 Temp=88F,64F (252,211) RH=91% (684) Acc=497,495,331
2010-05-29 07:56:53 UTC: KJ6AOD-11>APZ111,WIDE2-2,qAR,KC6SSM-5:$GPGGA,075651.00,3745.74893,N,12225.15726,W,1,07,1.67,26.8,M,-29.8,M,,*5E
2010-05-29 07:57:08 UTC: KJ6AOD-11>APZ111,WIDE2-2,qAR,KC6SSM-5:>ProjectBacchus.org Uptime=00:25:00 Temp=88F,64F (253,212) RH=91% (685) Acc=499,495,332
2010-05-29 07:57:24 UTC: KJ6AOD-11>APZ111,W6CX-3*,qAR,W6YX-5:$GPGGA,075721.00,3745.73825,N,12225.16368,W,1,07,1.67,10.2,M,-29.8,M,,*50
2010-05-29 07:57:38 UTC: KJ6AOD-11>APZ111,WIDE2-2,qAR,KC6SSM-5:>ProjectBacchus.org Uptime=00:25:30 Temp=88F,64F (253,211) RH=91% (685) Acc=501,495,331
2010-05-29 07:58:53 UTC: KJ6AOD-11>APZ111,WIDE2-2,qAR,KC6SSM-5:$GPGGA,075851.00,3745.75278,N,12225.15332,W,1,07,2.56,29.3,M,-29.8,M,,*5A
2010-05-29 07:59:09 UTC: KJ6AOD-11>APZ111,W6CX-3*,qAR,WB5VUL:>ProjectBacchus.org Uptime=00:27:01 Temp=88F,64F (253,211) RH=91% (685) Acc=496,495,330
2010-05-29 07:59:23 UTC: KJ6AOD-11>APZ111,WIDE2-2,qAR,KC6SSM-5:$GPGGA,075921.00,3745.74309,N,12225.15994,W,1,06,2.56,13.6,M,-29.8,M,,*51
2010-05-29 07:59:38 UTC: KJ6AOD-11>APZ111,WIDE2-2,qAR,KC6SSM-5:>ProjectBacchus.org Uptime=00:27:31 Temp=88F,64F (253,211) RH=91% (686) Acc=498,494,332
2010-05-29 08:00:08 UTC: KJ6AOD-11>APZ111,WIDE2-2,qAR,KC6SSM-5:>ProjectBacchus.org Uptime=00:28:01 Temp=88F,64F (253,211) RH=91% (684) Acc=498,494,330
2010-05-29 08:00:25 UTC: KJ6AOD-11>APZ111,KF6CLH-3,AC6ET-5,WIDE2*,qAR,W6PKT-5:$GPGGA,080021.00,3745.73686,N,12225.16339,W,1,07,1.67,-2.6,M,-29.8,M,,*44
2010-05-29 08:00:54 UTC: KJ6AOD-11>APZ111,W6CX-3*,qAR,W6YX-5:$GPGGA,080051.00,,,,,0,04,12.11,,,,,,*6D [Less than 11 fields in GPGGA sentence]
2010-05-29 08:01:10 UTC: KJ6AOD-11>APZ111,KF6CLH-3,N6ZX-3,WIDE2*,qAR,W6YX-5:>ProjectBacchus.org Uptime=00:29:01 Temp=89F,64F (254,211) RH=91% (686) Acc=498,493,330
2010-05-29 08:01:23 UTC: KJ6AOD-11>APZ111,WIDE2-2,qAR,KC6SSM-5:$GPGGA,080121.00,3745.73493,N,12225.17585,W,1,07,1.67,26.6,M,-29.8,M,,*58
2010-05-29 08:01:40 UTC: KJ6AOD-11>APZ111,KF6CLH-3,AC6ET-5,WIDE2*,qAR,N6VUD-2:>ProjectBacchus.org Uptime=00:29:31 Temp=89F,64F (254,211) RH=91% (686) Acc=497,496,329
2010-05-29 08:02:53 UTC: KJ6AOD-11>APZ111,WIDE2-2,qAR,KC6SSM-5:$GPGGA,080251.00,3745.73948,N,12225.16168,W,1,06,2.26,8.5,M,-29.8,M,,*69
2010-05-29 08:03:10 UTC: KJ6AOD-11>APZ111,KF6CLH-3,AC6ET-5,WIDE2*,qAR,N6VUD-2:>ProjectBacchus.org Uptime=00:31:01 Temp=89F,64F (255,211) RH=92% (687) Acc=497,495,331
2010-05-29 08:03:23 UTC: KJ6AOD-11>APZ111,WIDE2-2,qAR,KC6SSM-5:$GPGGA,080321.00,3745.73542,N,12225.16217,W,1,06,2.25,-3.4,M,-29.8,M,,*46
2010-05-29 08:03:38 UTC: KJ6AOD-11>APZ111,WIDE2-2,qAR,KC6SSM-5:>ProjectBacchus.org Uptime=00:31:31 Temp=89F,63F (254,209) RH=92% (687) Acc=500,497,330
2010-05-29 08:03:53 UTC: KJ6AOD-11>APZ111,WIDE2-2,qAR,KC6SSM-5:$GPGGA,080351.00,3745.74134,N,12225.16164,W,1,07,1.67,4.5,M,-29.8,M,,*6B
2010-05-29 08:04:08 UTC: KJ6AOD-11>APZ111,WIDE2-2,qAR,KC6SSM-5:>ProjectBacchus.org Uptime=00:32:01 Temp=89F,64F (255,211) RH=92% (687) Acc=496,496,332
2010-05-29 08:04:23 UTC: KJ6AOD-11>APZ111,WIDE2-2,qAR,KC6SSM-5:$GPGGA,080421.00,3745.74651,N,12225.15862,W,1,06,8.11,13.2,M,-29.8,M,,*5B
2010-05-29 08:04:53 UTC: KJ6AOD-11>APZ111,WIDE2-2,qAR,KC6SSM-5:$GPGGA,080451.00,3745.75142,N,12225.14741,W,1,06,7.88,2.4,M,-29.8,M,,*6E
2010-05-29 08:05:38 UTC: KJ6AOD-11>APZ111,WIDE2-2,qAR,KC6SSM-5:>ProjectBacchus.org Uptime=00:33:31 Temp=89F,64F (255,211) RH=92% (688) Acc=495,493,332
2010-05-29 08:05:53 UTC: KJ6AOD-11>APZ111,WIDE2-2,qAR,KC6SSM-5:$GPGGA,080551.00,3745.74795,N,12225.15655,W,1,06,2.48,20.9,M,-29.8,M,,*53
2010-05-29 08:06:09 UTC: KJ6AOD-11>APZ111,WIDE2-2,qAR,KC6SSM-5:>ProjectBacchus.org Uptime=00:34:01 Temp=89F,64F (255,211) RH=92% (688) Acc=497,495,333
2010-05-29 08:06:23 UTC: KJ6AOD-11>APZ111,WIDE2-2,qAR,KC6SSM-5:$GPGGA,080621.00,3745.74539,N,12225.16198,W,1,06,2.47,23.2,M,-29.8,M,,*51
2010-05-29 08:06:38 UTC: KJ6AOD-11>APZ111,WIDE2-2,qAR,KC6SSM-5:>ProjectBacchus.org Uptime=00:34:31 Temp=89F,64F (255,211) RH=91% (686) Acc=499,495,331
2010-05-29 08:07:08 UTC: KJ6AOD-11>APZ111,WIDE2-2,qAR,KC6SSM-5:>ProjectBacchus.org Uptime=00:35:01 Temp=89F,64F (255,211) RH=91% (686) Acc=497,494,332
2010-05-29 08:07:25 UTC: KJ6AOD-11>APZ111,KF6CLH-3,N6ZX-3,WIDE2*,qAR,W6YX-5:$GPGGA,080721.00,3745.74123,N,12225.16236,W,1,07,1.67,13.6,M,-29.8,M,,*5F
2010-05-29 08:07:53 UTC: KJ6AOD-11>APZ111,WIDE2-2,qAR,KC6SSM-5:$GPGGA,080751.00,3745.74592,N,12225.16244,W,1,07,1.26,28.9,M,-29.8,M,,*51
2010-05-29 08:08:24 UTC: KJ6AOD-11>APZ111,KF6CLH-3*,WIDE2-1,qAR,W6PKT-5:$GPGGA,080821.00,3745.74730,N,12225.15726,W,1,08,1.11,23.8,M,-29.8,M,,*50
2010-05-29 08:08:38 UTC: KJ6AOD-11>APZ111,WIDE2-2,qAR,KC6SSM-5:>ProjectBacchus.org Uptime=00:36:31 Temp=89F,64F (255,211) RH=92% (687) Acc=497,495,328
2010-05-29 08:08:53 UTC: KJ6AOD-11>APZ111,WIDE2-2,qAR,KC6SSM-5:$GPGGA,080851.00,3745.74693,N,12225.16262,W,1,08,1.11,28.3,M,-29.8,M,,*59
2010-05-29 08:09:23 UTC: KJ6AOD-11>APZ111,WIDE2-2,qAR,KC6SSM-5:$GPGGA,080921.00,3745.74801,N,12225.15990,W,1,07,1.22,26.5,M,-29.8,M,,*58
2010-05-29 08:09:39 UTC: KJ6AOD-11>APZ111,KF6CLH-3*,WIDE2-1,qAR,W6PKT-5:>ProjectBacchus.org Uptime=00:37:31 Temp=89F,64F (255,212) RH=91% (686) Acc=495,498,331
2010-05-29 08:09:54 UTC: KJ6AOD-11>APZ111,KF6CLH-3*,WIDE2-1,qAR,W6PKT-5:$GPGGA,080951.00,3745.75000,N,12225.15510,W,1,07,1.22,14.8,M,-29.8,M,,*5F
2010-05-29 08:10:08 UTC: KJ6AOD-11>APZ111,WIDE2-2,qAR,KC6SSM-5:>ProjectBacchus.org Uptime=00:38:01 Temp=89F,64F (255,211) RH=92% (687) Acc=496,495,330
2010-05-29 08:10:23 UTC: KJ6AOD-11>APZ111,WIDE2-2,qAR,KC6SSM-5:$GPGGA,081021.00,3745.74627,N,12225.15845,W,1,08,1.20,22.7,M,-29.8,M,,*58
2010-05-29 08:11:08 UTC: KJ6AOD-11>APZ111,WIDE2-2,qAR,KC6SSM-5:>ProjectBacchus.org Uptime=00:39:01 Temp=90F,64F (256,211) RH=92% (687) Acc=498,494,329
2010-05-29 08:11:38 UTC: KJ6AOD-11>APZ111,WIDE2-2,qAR,KC6SSM-5:>ProjectBacchus.org Uptime=00:39:31 Temp=90F,64F (256,211) RH=91% (686) Acc=498,495,331
2010-05-29 08:11:54 UTC: KJ6AOD-11>APZ111,W6CX-3*,qAR,W6YX-5:$GPGGA,081151.00,3745.74697,N,12225.15847,W,1,07,1.22,28.4,M,-29.8,M,,*53
2010-05-29 08:12:08 UTC: KJ6AOD-11>APZ111,WIDE2-2,qAR,KC6SSM-5:>ProjectBacchus.org Uptime=00:40:01 Temp=90F,64F (256,211) RH=91% (686) Acc=496,495,332
2010-05-29 08:12:24 UTC: KJ6AOD-11>APZ111,WIDE2-2,qAR,KC6SSM-5:$GPGGA,081221.00,3745.74550,N,12225.15876,W,1,07,1.22,28.9,M,-29.8,M,,*50
2010-05-29 08:12:53 UTC: KJ6AOD-11>APZ111,WIDE2-2,qAR,KC6SSM-5:$GPGGA,081251.00,3745.74539,N,12225.16125,W,1,06,1.64,34.6,M,-29.8,M,,*55
2010-05-29 08:13:08 UTC: KJ6AOD-11>APZ111,WIDE2-2,qAR,KC6SSM-5:>ProjectBacchus.org Uptime=00:41:01 Temp=90F,63F (256,210) RH=91% (686) Acc=499,496,330
2010-05-29 08:13:23 UTC: KJ6AOD-11>APZ111,WIDE2-2,qAR,KC6SSM-5:$GPGGA,081321.00,3745.74212,N,12225.16632,W,1,07,1.25,36.9,M,-29.8,M,,*55
2010-05-29 08:13:38 UTC: KJ6AOD-11>APZ111,WIDE2-2,qAR,KC6SSM-5:>ProjectBacchus.org Uptime=00:41:31 Temp=90F,64F (256,211) RH=91% (685) Acc=497,496,328
2010-05-29 08:13:53 UTC: KJ6AOD-11>APZ111,WIDE2-2,qAR,KC6SSM-5:$GPGGA,081351.00,3745.74471,N,12225.16554,W,1,07,1.22,38.0,M,-29.8,M,,*52
2010-05-29 08:14:38 UTC: KJ6AOD-11>APZ111,WIDE2-2,qAR,KC6SSM-5:>ProjectBacchus.org Uptime=00:42:31 Temp=90F,64F (256,211) RH=92% (687) Acc=497,497,330
2010-05-29 08:14:54 UTC: KJ6AOD-11>APZ111,W6CX-3*,qAR,WB5VUL:$GPGGA,081451.00,3745.74845,N,12225.15695,W,1,06,1.64,22.3,M,-29.8,M,,*58
2010-05-29 08:15:08 UTC: KJ6AOD-11>APZ111,WIDE2-2,qAR,KC6SSM-5:>ProjectBacchus.org Uptime=00:43:01 Temp=90F,64F (256,211) RH=92% (687) Acc=496,496,330
2010-05-29 08:15:23 UTC: KJ6AOD-11>APZ111,WIDE2-2,qAR,KC6SSM-5:$GPGGA,081521.00,3745.74590,N,12225.16434,W,1,07,1.24,29.1,M,-29.8,M,,*5D
2010-05-29 08:15:53 UTC: KJ6AOD-11>APZ111,WIDE2-2,qAR,KC6SSM-5:$GPGGA,081551.00,3745.74674,N,12225.16559,W,1,08,1.24,38.9,M,-29.8,M,,*5E
2010-05-29 08:16:08 UTC: KJ6AOD-11>APZ111,WIDE2-2,qAR,KC6SSM-5:>ProjectBacchus.org Uptime=00:44:01 Temp=90F,64F (256,211) RH=91% (686) Acc=497,497,330
2010-05-29 08:16:53 UTC: KJ6AOD-11>APZ111,WIDE2-2,qAR,KC6SSM-5:$GPGGA,081651.00,3745.74732,N,12225.16086,W,1,08,1.11,20.6,M,-29.8,M,,*59
2010-05-29 08:17:08 UTC: KJ6AOD-11>APZ111,WIDE2-2,qAR,KC6SSM-5:>ProjectBacchus.org Uptime=00:45:01 Temp=90F,64F (256,211) RH=91% (686) Acc=497,496,332
2010-05-29 08:17:23 UTC: KJ6AOD-11>APZ111,WIDE2-2,qAR,KC6SSM-5:$GPGGA,081721.00,3745.74702,N,12225.15710,W,1,06,1.31,23.7,M,-29.8,M,,*59
2010-05-29 08:17:39 UTC: KJ6AOD-11>APZ111,KF6CLH-3*,WIDE2-1,qAR,W6PKT-5:>ProjectBacchus.org Uptime=00:45:31 Temp=90F,64F (256,211) RH=91% (686) Acc=496,494,330
2010-05-29 08:18:09 UTC: KJ6AOD-11>APZ111,WIDE2-2,qAR,KC6SSM-5:>ProjectBacchus.org Uptime=00:46:01 Temp=90F,64F (256,211) RH=91% (686) Acc=494,498,332
2010-05-29 08:18:23 UTC: KJ6AOD-11>APZ111,WIDE2-2,qAR,KC6SSM-5:$GPGGA,081821.00,3745.74519,N,12225.16262,W,1,08,1.12,29.7,M,-29.8,M,,*58
2010-05-29 08:18:38 UTC: KJ6AOD-11>APZ111,WIDE2-2,qAR,KC6SSM-5:>ProjectBacchus.org Uptime=00:46:31 Temp=90F,64F (256,211) RH=91% (686) Acc=496,495,331
2010-05-29 08:19:08 UTC: KJ6AOD-11>APZ111,WIDE2-2,qAR,KC6SSM-5:>ProjectBacchus.org Uptime=00:47:01 Temp=91F,64F (257,211) RH=91% (686) Acc=494,495,330
2010-05-29 08:19:23 UTC: KJ6AOD-11>APZ111,WIDE2-2,qAR,KC6SSM-5:$GPGGA,081921.00,3745.74541,N,12225.15683,W,1,07,1.22,16.3,M,-29.8,M,,*58
2010-05-29 08:19:53 UTC: KJ6AOD-11>APZ111,WIDE2-2,qAR,KC6SSM-5:$GPGGA,081951.00,3745.74928,N,12225.15555,W,1,08,1.24,14.9,M,-29.8,M,,*55
2010-05-29 08:20:09 UTC: KJ6AOD-11>APZ111,KF6CLH-3*,WIDE2-1,qAR,W6PKT-5:>ProjectBacchus.org Uptime=00:48:01 Temp=90F,64F (256,211) RH=91% (686) Acc=498,496,331
2010-05-29 08:20:25 UTC: KJ6AOD-11>APZ111,KF6CLH-3,AC6ET-5,WIDE2*,qAR,N6VUD-2:$GPGGA,082021.00,3745.75054,N,12225.15631,W,1,06,1.63,18.6,M,-29.8,M,,*54
2010-05-29 08:20:38 UTC: KJ6AOD-11>APZ111,WIDE2-2,qAR,KC6SSM-5:>ProjectBacchus.org Uptime=00:48:31 Temp=91F,64F (257,211) RH=92% (687) Acc=496,498,329
2010-05-29 08:20:54 UTC: KJ6AOD-11>APZ111,W6CX-3*,qAR,W6YX-5:$GPGGA,082051.00,3745.74515,N,12225.15877,W,1,06,1.37,25.7,M,-29.8,M,,*50
2010-05-29 08:21:08 UTC: KJ6AOD-11>APZ111,WIDE2-2,qAR,KC6SSM-5:>ProjectBacchus.org Uptime=00:49:01 Temp=91F,64F (257,211) RH=92% (687) Acc=497,498,333
2010-05-29 08:21:23 UTC: KJ6AOD-11>APZ111,WIDE2-2,qAR,KC6SSM-5:$GPGGA,082121.00,3745.74200,N,12225.16080,W,1,08,1.12,21.1,M,-29.8,M,,*5D
2010-05-29 08:21:38 UTC: KJ6AOD-11>APZ111,WIDE2-2,qAR,KC6SSM-5:>ProjectBacchus.org Uptime=00:49:31 Temp=91F,64F (257,211) RH=92% (687) Acc=497,496,333
2010-05-29 08:21:53 UTC: KJ6AOD-11>APZ111,WIDE2-2,qAR,KC6SSM-5:$GPGGA,082151.00,3745.74697,N,12225.15773,W,1,06,1.63,19.1,M,-29.8,M,,*5B
2010-05-29 08:22:23 UTC: KJ6AOD-11>APZ111,WIDE2-2,qAR,KC6SSM-5:$GPGGA,082221.00,3745.74767,N,12225.15572,W,1,06,1.30,16.5,M,-29.8,M,,*5F
2010-05-29 08:23:24 UTC: KJ6AOD-11>APZ111,W6CX-3*,qAR,W6YX-5:$GPGGA,082321.00,3745.74660,N,12225.16064,W,1,06,1.99,18.1,M,-29.8,M,,*50
2010-05-29 08:23:38 UTC: KJ6AOD-11>APZ111,WIDE2-2,qAR,KC6SSM-5:>ProjectBacchus.org Uptime=00:51:31 Temp=91F,64F (257,211) RH=92% (688) Acc=495,497,328
2010-05-29 08:23:53 UTC: KJ6AOD-11>APZ111,WIDE2-2,qAR,KC6SSM-5:$GPGGA,082351.00,3745.75895,N,12225.15217,W,1,06,1.30,49.7,M,-29.8,M,,*56
2010-05-29 08:24:24 UTC: KJ6AOD-11>APZ111,WIDE2-2,qAR,KC6SSM-5:$GPGGA,082421.00,3745.74928,N,12225.15938,W,1,08,1.23,43.0,M,-29.8,M,,*57
2010-05-29 08:24:38 UTC: KJ6AOD-11>APZ111,WIDE2-2,qAR,KC6SSM-5:>ProjectBacchus.org Uptime=00:52:31 Temp=91F,64F (257,211) RH=92% (688) Acc=495,497,333
2010-05-29 08:24:53 UTC: KJ6AOD-11>APZ111,WIDE2-2,qAR,KC6SSM-5:$GPGGA,082451.00,3745.74881,N,12225.15845,W,1,08,1.13,34.2,M,-29.8,M,,*58
2010-05-29 08:25:08 UTC: KJ6AOD-11>APZ111,WIDE2-2,qAR,KC6SSM-5:>ProjectBacchus.org Uptime=00:53:01 Temp=91F,64F (257,211) RH=92% (689) Acc=496,495,329
2010-05-29 08:25:23 UTC: KJ6AOD-11>APZ111,WIDE2-2,qAR,KC6SSM-5:$GPGGA,082521.00,3745.74826,N,12225.15620,W,1,08,1.13,22.4,M,-29.8,M,,*5F
2010-05-29 08:25:38 UTC: KJ6AOD-11>APZ111,WIDE2-2,qAR,KC6SSM-5:>ProjectBacchus.org Uptime=00:53:31 Temp=91F,64F (257,211) RH=92% (690) Acc=497,494,331
2010-05-29 08:25:53 UTC: KJ6AOD-11>APZ111,WIDE2-2,qAR,KC6SSM-5:$GPGGA,082551.00,3745.74764,N,12225.15956,W,1,07,1.56,26.1,M,-29.8,M,,*50
2010-05-29 08:26:38 UTC: KJ6AOD-11>APZ111,WIDE2-2,qAR,KC6SSM-5:>ProjectBacchus.org Uptime=00:54:31 Temp=91F,64F (257,211) RH=92% (688) Acc=496,496,330
2010-05-29 08:26:54 UTC: KJ6AOD-11>APZ111,KF6CLH-3*,WIDE2-1,qAR,W6PKT-5:$GPGGA,082651.00,3745.74427,N,12225.16196,W,1,06,1.64,16.9,M,-29.8,M,,*5B
2010-05-29 08:27:23 UTC: KJ6AOD-11>APZ111,WIDE2-2,qAR,KC6SSM-5:$GPGGA,082721.00,3745.74075,N,12225.16099,W,1,08,1.13,2.8,M,-29.8,M,,*6A
2010-05-29 08:27:38 UTC: KJ6AOD-11>APZ111,WIDE2-2,qAR,KC6SSM-5:>ProjectBacchus.org Uptime=00:55:31 Temp=91F,64F (257,211) RH=92% (688) Acc=498,496,328
2010-05-29 08:28:38 UTC: KJ6AOD-11>APZ111,WIDE2-2,qAR,KC6SSM-5:>ProjectBacchus.org Uptime=00:56:31 Temp=91F,64F (257,211) RH=92% (687) Acc=498,497,331
2010-05-29 08:28:53 UTC: KJ6AOD-11>APZ111,WIDE2-2,qAR,KC6SSM-5:$GPGGA,082851.00,3745.74590,N,12225.16318,W,1,07,1.20,38.1,M,-29.8,M,,*59
2010-05-29 08:29:08 UTC: KJ6AOD-11>APZ111,WIDE2-2,qAR,KC6SSM-5:>ProjectBacchus.org Uptime=00:57:01 Temp=91F,64F (257,211) RH=92% (688) Acc=495,498,331
2010-05-29 08:29:23 UTC: KJ6AOD-11>APZ111,WIDE2-2,qAR,KC6SSM-5:$GPGGA,082921.00,3745.74690,N,12225.15877,W,1,08,1.13,20.6,M,-29.8,M,,*5C
2010-05-29 08:30:09 UTC: KJ6AOD-11>APZ111,WIDE2-2,qAR,KC6SSM-5:>ProjectBacchus.org Uptime=00:58:01 Temp=91F,64F (257,211) RH=92% (688) Acc=496,495,330
2010-05-29 08:30:24 UTC: KJ6AOD-11>APZ111,W6CX-3*,qAR,W6YX-5:$GPGGA,083021.00,3745.74725,N,12225.15934,W,1,08,1.14,24.9,M,-29.8,M,,*51
2010-05-29 08:30:38 UTC: KJ6AOD-11>APZ111,WIDE2-2,qAR,KC6SSM-5:>ProjectBacchus.org Uptime=00:58:31 Temp=91F,64F (257,211) RH=92% (688) Acc=495,496,332
2010-05-29 08:30:53 UTC: KJ6AOD-11>APZ111,WIDE2-2,qAR,KC6SSM-5:$GPGGA,083051.00,3745.74642,N,12225.15895,W,1,08,1.14,24.9,M,-29.8,M,,*5C
2010-05-29 08:31:25 UTC: KJ6AOD-11>APZ111,KF6CLH-3,AC6ET-5,WIDE2*,qAR,K6MEU-5:$GPGGA,083121.00,3745.74668,N,12225.16236,W,1,08,1.14,33.3,M,-29.8,M,,*5E
2010-05-29 08:31:38 UTC: KJ6AOD-11>APZ111,WIDE2-2,qAR,KC6SSM-5:>ProjectBacchus.org Uptime=00:59:31 Temp=91F,64F (257,211) RH=92% (689) Acc=498,495,329
2010-05-29 08:31:53 UTC: KJ6AOD-11>APZ111,WIDE2-2,qAR,KC6SSM-5:$GPGGA,083151.00,3745.74418,N,12225.15849,W,1,08,1.14,24.4,M,-29.8,M,,*5C
2010-05-29 08:32:23 UTC: KJ6AOD-11>APZ111,WIDE2-2,qAR,KC6SSM-5:$GPGGA,083221.00,3745.74657,N,12225.15771,W,1,08,1.23,20.3,M,-29.8,M,,*52
2010-05-29 08:32:53 UTC: KJ6AOD-11>APZ111,WIDE2-2,qAR,KC6SSM-5:$GPGGA,083251.00,3745.74302,N,12225.16270,W,1,07,1.23,36.2,M,-29.8,M,,*5E
2010-05-29 08:33:23 UTC: KJ6AOD-11>APZ111,WIDE2-2,qAR,KC6SSM-5:$GPGGA,083321.00,3745.74602,N,12225.15869,W,1,07,1.23,28.5,M,-29.8,M,,*54
2010-05-29 08:33:38 UTC: KJ6AOD-11>APZ111,WIDE2-2,qAR,KC6SSM-5:>ProjectBacchus.org Uptime=01:01:31 Temp=91F,64F (257,211) RH=92% (688) Acc=495,495,328
2010-05-29 08:33:53 UTC: KJ6AOD-11>APZ111,WIDE2-2,qAR,KC6SSM-5:$GPGGA,083351.00,3745.74749,N,12225.15642,W,1,08,1.23,13.4,M,-29.8,M,,*5C
2010-05-29 08:34:23 UTC: KJ6AOD-11>APZ111,WIDE2-2,qAR,KC6SSM-5:$GPGGA,083421.00,3745.74730,N,12225.15679,W,1,08,1.14,14.3,M,-29.8,M,,*5E
2010-05-29 08:34:38 UTC: KJ6AOD-11>APZ111,WIDE2-2,qAR,KC6SSM-5:>ProjectBacchus.org Uptime=01:02:31 Temp=91F,64F (257,211) RH=92% (689) Acc=497,496,333
2010-05-29 08:35:23 UTC: KJ6AOD-11>APZ111,WIDE2-2,qAR,KC6SSM-5:$GPGGA,083521.00,3745.74749,N,12225.15740,W,1,08,1.20,16.6,M,-29.8,M,,*5A
2010-05-29 08:35:38 UTC: KJ6AOD-11>APZ111,WIDE2-2,qAR,KC6SSM-5:>ProjectBacchus.org Uptime=01:03:31 Temp=91F,64F (257,211) RH=92% (687) Acc=495,497,329
2010-05-29 08:35:53 UTC: KJ6AOD-11>APZ111,WIDE2-2,qAR,KC6SSM-5:$GPGGA,083551.00,3745.74754,N,12225.15864,W,1,08,1.14,17.0,M,-29.8,M,,*58
2010-05-29 08:36:10 UTC: KJ6AOD-11>APZ111,KF6CLH-3,AC6ET-5,WIDE2*,qAR,K6MEU-5:>ProjectBacchus.org Uptime=01:04:01 Temp=91F,64F (257,211) RH=92% (688) Acc=495,496,331
2010-05-29 08:36:23 UTC: KJ6AOD-11>APZ111,WIDE2-2,qAR,KC6SSM-5:$GPGGA,083621.00,3745.74718,N,12225.15660,W,1,08,1.15,11.6,M,-29.8,M,,*5F
2010-05-29 08:36:53 UTC: KJ6AOD-11>APZ111,WIDE2-2,qAR,KC6SSM-5:$GPGGA,083651.00,3745.74485,N,12225.15846,W,1,08,1.15,10.7,M,-29.8,M,,*55
2010-05-29 08:37:25 UTC: KJ6AOD-11>APZ111,KF6CLH-3,AC6ET-5,WIDE2*,qAR,W6PKT-5:$GPGGA,083721.00,3745.74655,N,12225.15954,W,1,08,1.23,13.4,M,-29.8,M,,*5B
2010-05-29 08:37:40 UTC: KJ6AOD-11>APZ111,KF6CLH-3,N6ZX-3,WIDE2*,qAR,W6YX-5:>ProjectBacchus.org Uptime=01:05:31 Temp=91F,64F (257,211) RH=92% (690) Acc=496,498,333
2010-05-29 08:37:53 UTC: KJ6AOD-11>APZ111,WIDE2-2,qAR,KC6SSM-5:$GPGGA,083751.00,3745.74890,N,12225.15935,W,1,07,1.49,13.8,M,-29.8,M,,*53
2010-05-29 08:38:08 UTC: KJ6AOD-11>APZ111,WIDE2-2,qAR,KC6SSM-5:>ProjectBacchus.org Uptime=01:06:01 Temp=91F,63F (257,210) RH=92% (690) Acc=496,496,327
2010-05-29 08:38:23 UTC: KJ6AOD-11>APZ111,WIDE2-2,qAR,KC6SSM-5:$GPGGA,083821.00,3745.74738,N,12225.15793,W,1,07,1.23,19.6,M,-29.8,M,,*5C
2010-05-29 08:38:38 UTC: KJ6AOD-11>APZ111,WIDE2-2,qAR,KC6SSM-5:>ProjectBacchus.org Uptime=01:06:31 Temp=91F,64F (257,211) RH=92% (690) Acc=494,496,329
2010-05-29 08:39:38 UTC: KJ6AOD-11>APZ111,WIDE2-2,qAR,KC6SSM-5:>ProjectBacchus.org Uptime=01:07:31 Temp=91F,64F (257,211) RH=92% (689) Acc=498,496,331
2010-05-29 08:39:55 UTC: KJ6AOD-11>APZ111,KF6CLH-3,AC6ET-5,WIDE2*,qAR,K6MEU-5:$GPGGA,083951.00,3745.74662,N,12225.15522,W,1,07,1.22,24.6,M,-29.8,M,,*53
2010-05-29 08:40:23 UTC: KJ6AOD-11>APZ111,WIDE2-2,qAR,KC6SSM-5:$GPGGA,084021.00,3745.74589,N,12225.16025,W,1,07,1.22,32.3,M,-29.8,M,,*5F
2010-05-29 08:40:38 UTC: KJ6AOD-11>APZ111,WIDE2-2,qAR,KC6SSM-5:>ProjectBacchus.org Uptime=01:08:31 Temp=91F,64F (257,211) RH=92% (688) Acc=496,496,330
2010-05-29 08:40:53 UTC: KJ6AOD-11>APZ111,WIDE2-2,qAR,KC6SSM-5:$GPGGA,084051.00,3745.74617,N,12225.16441,W,1,08,1.15,39.3,M,-29.8,M,,*5A
2010-05-29 08:41:08 UTC: KJ6AOD-11>APZ111,WIDE2-2,qAR,KC6SSM-5:>ProjectBacchus.org Uptime=01:09:01 Temp=91F,64F (257,211) RH=92% (688) Acc=496,498,331
2010-05-29 08:41:23 UTC: KJ6AOD-11>APZ111,WIDE2-2,qAR,KC6SSM-5:$GPGGA,084121.00,3745.74568,N,12225.16654,W,1,07,1.59,36.9,M,-29.8,M,,*53
2010-05-29 08:41:38 UTC: KJ6AOD-11>APZ111,WIDE2-2,qAR,KC6SSM-5:>ProjectBacchus.org Uptime=01:09:31 Temp=91F,64F (257,211) RH=92% (689) Acc=497,496,332
2010-05-29 08:42:09 UTC: KJ6AOD-11>APZ111,WIDE2-2,qAR,KC6SSM-5:>ProjectBacchus.org Uptime=01:10:01 Temp=91F,64F (257,211) RH=92% (689) Acc=496,496,330
2010-05-29 08:43:08 UTC: KJ6AOD-11>APZ111,WIDE2-2,qAR,KC6SSM-5:>ProjectBacchus.org Uptime=01:11:01 Temp=91F,63F (257,210) RH=92% (690) Acc=497,497,328
2010-05-29 08:43:23 UTC: KJ6AOD-11>APZ111,WIDE2-2,qAR,KC6SSM-5:$GPGGA,084321.00,3745.74676,N,12225.15806,W,1,08,1.15,21.0,M,-29.8,M,,*5F
2010-05-29 08:43:40 UTC: KJ6AOD-11>APZ111,KF6CLH-3,AC6ET-5,WIDE2*,qAR,K6MEU-5:>ProjectBacchus.org Uptime=01:11:31 Temp=91F,63F (257,210) RH=92% (690) Acc=496,498,330
2010-05-29 08:43:53 UTC: KJ6AOD-11>APZ111,WIDE2-2,qAR,KC6SSM-5:$GPGGA,084351.00,3745.74761,N,12225.15893,W,1,06,1.28,23.1,M,-29.8,M,,*50
2010-05-29 08:44:23 UTC: KJ6AOD-11>APZ111,WIDE2-2,qAR,KC6SSM-5:$GPGGA,084421.00,3745.74829,N,12225.15367,W,1,06,1.58,13.9,M,-29.8,M,,*5F
2010-05-29 08:44:39 UTC: KJ6AOD-11>APZ111,W6CX-3*,qAR,W6YX-5:>ProjectBacchus.org Uptime=01:12:31 Temp=91F,63F (257,210) RH=92% (690) Acc=495,496,331
2010-05-29 08:44:53 UTC: KJ6AOD-11>APZ111,WIDE2-2,qAR,KC6SSM-5:$GPGGA,084451.00,3745.74812,N,12225.15512,W,1,05,2.79,13.1,M,-29.8,M,,*5F
2010-05-29 08:45:08 UTC: KJ6AOD-11>APZ111,WIDE2-2,qAR,KC6SSM-5:>ProjectBacchus.org Uptime=01:13:01 Temp=91F,63F (257,210) RH=92% (690) Acc=496,493,329
2010-05-29 08:45:38 UTC: KJ6AOD-11>APZ111,WIDE2-2,qAR,KC6SSM-5:>ProjectBacchus.org Uptime=01:13:31 Temp=91F,64F (257,211) RH=92% (690) Acc=495,496,331
2010-05-29 08:45:53 UTC: KJ6AOD-11>APZ111,WIDE2-2,qAR,KC6SSM-5:$GPGGA,084551.00,3745.74812,N,12225.15806,W,1,06,1.58,16.4,M,-29.8,M,,*55
2010-05-29 08:46:08 UTC: KJ6AOD-11>APZ111,WIDE2-2,qAR,KC6SSM-5:>ProjectBacchus.org Uptime=01:14:01 Temp=91F,63F (258,210) RH=92% (691) Acc=496,495,329
2010-05-29 08:46:23 UTC: KJ6AOD-11>APZ111,WIDE2-2,qAR,KC6SSM-5:$GPGGA,084621.00,3745.74613,N,12225.15997,W,1,08,1.22,25.3,M,-29.8,M,,*53
2010-05-29 08:46:53 UTC: KJ6AOD-11>APZ111,WIDE2-2,qAR,KC6SSM-5:$GPGGA,084651.00,3745.74556,N,12225.15987,W,1,08,1.21,29.3,M,-29.8,M,,*58
2010-05-29 08:47:08 UTC: KJ6AOD-11>APZ111,WIDE2-2,qAR,KC6SSM-5:>ProjectBacchus.org Uptime=01:15:01 Temp=91F,63F (257,210) RH=92% (691) Acc=495,497,328
2010-05-29 08:47:54 UTC: KJ6AOD-11>APZ111,WIDE2-2,qAR,KC6SSM-5:$GPGGA,084751.00,3745.74539,N,12225.15121,W,1,07,1.21,-0.9,M,-29.8,M,,*47
2010-05-29 08:48:08 UTC: KJ6AOD-11>APZ111,WIDE2-2,qAR,KC6SSM-5:>ProjectBacchus.org Uptime=01:16:01 Temp=91F,63F (257,210) RH=92% (692) Acc=496,498,330
2010-05-29 08:48:23 UTC: KJ6AOD-11>APZ111,WIDE2-2,qAR,KC6SSM-5:$GPGGA,084821.00,3745.74500,N,12225.15826,W,1,08,1.14,18.2,M,-29.8,M,,*5D
2010-05-29 08:48:38 UTC: KJ6AOD-11>APZ111,WIDE2-2,qAR,KC6SSM-5:>ProjectBacchus.org Uptime=01:16:31 Temp=91F,63F (257,210) RH=92% (692) Acc=498,496,331
2010-05-29 08:48:53 UTC: KJ6AOD-11>APZ111,WIDE2-2,qAR,KC6SSM-5:$GPGGA,084851.00,3745.74607,N,12225.16119,W,1,06,1.26,25.7,M,-29.8,M,,*5C
2010-05-29 08:49:08 UTC: KJ6AOD-11>APZ111,WIDE2-2,qAR,KC6SSM-5:>ProjectBacchus.org Uptime=01:17:01 Temp=91F,63F (257,210) RH=92% (692) Acc=494,496,332
2010-05-29 08:49:23 UTC: KJ6AOD-11>APZ111,WIDE2-2,qAR,KC6SSM-5:$GPGGA,084921.00,3745.74915,N,12225.15559,W,1,05,2.69,17.5,M,-29.8,M,,*5D
2010-05-29 08:49:40 UTC: KJ6AOD-11>APZ111,KF6CLH-3,AC6ET-5,WIDE2*,qAR,K6MEU-5:>ProjectBacchus.org Uptime=01:17:31 Temp=91F,63F (258,210) RH=92% (692) Acc=496,496,330
2010-05-29 08:49:53 UTC: KJ6AOD-11>APZ111,WIDE2-2,qAR,KC6SSM-5:$GPGGA,084951.00,3745.74443,N,12225.16003,W,1,08,1.14,23.5,M,-29.8,M,,*5E
2010-05-29 08:50:23 UTC: KJ6AOD-11>APZ111,WIDE2-2,qAR,KC6SSM-5:$GPGGA,085021.00,3745.74545,N,12225.15836,W,1,07,1.20,20.9,M,-29.8,M,,*5C
2010-05-29 08:50:40 UTC: KJ6AOD-11>APZ111,KF6CLH-3,AC6ET-5,WIDE2*,qAR,K6MEU-5:>ProjectBacchus.org Uptime=01:18:31 Temp=91F,63F (257,210) RH=92% (692) Acc=496,494,329
2010-05-29 08:50:53 UTC: KJ6AOD-11>APZ111,WIDE2-2,qAR,KC6SSM-5:$GPGGA,085051.00,3745.74551,N,12225.16046,W,1,08,1.21,30.2,M,-29.8,M,,*56
2010-05-29 08:51:09 UTC: KJ6AOD-11>APZ111,KF6CLH-3*,WIDE2-1,qAR,W6PKT-5:>ProjectBacchus.org Uptime=01:19:01 Temp=91F,63F (257,210) RH=92% (692) Acc=494,494,328
2010-05-29 08:51:38 UTC: KJ6AOD-11>APZ111,WIDE2-2,qAR,KC6SSM-5:>ProjectBacchus.org Uptime=01:19:31 Temp=91F,63F (257,210) RH=93% (693) Acc=497,494,328
2010-05-29 08:52:09 UTC: KJ6AOD-11>APZ111,KF6CLH-3*,WIDE2-1,qAR,W6PKT-5:>ProjectBacchus.org Uptime=01:20:01 Temp=91F,63F (257,210) RH=93% (693) Acc=494,494,332
2010-05-29 08:52:55 UTC: KJ6AOD-11>APZ111,KF6CLH-3,WB6TMS-5,WIDE2*,qAR,W6YX-5:$GPGGA,085251.00,3745.74634,N,12225.15480,W,1,08,1.13,10.0,M,-29.8,M,,*58
2010-05-29 08:53:08 UTC: KJ6AOD-11>APZ111,WIDE2-2,qAR,KC6SSM-5:>ProjectBacchus.org Uptime=01:21:01 Temp=91F,63F (257,210) RH=93% (693) Acc=496,496,331
2010-05-29 08:53:39 UTC: KJ6AOD-11>APZ111,W6CX-3*,qAR,W6YX-5:>ProjectBacchus.org Uptime=01:21:32 Temp=91F,63F (258,210) RH=93% (694) Acc=497,493,333
2010-05-29 08:54:23 UTC: KJ6AOD-11>APZ111,WIDE2-2,qAR,KC6SSM-5:$GPGGA,085421.00,3745.74471,N,12225.15519,W,1,08,1.13,6.2,M,-29.8,M,,*6E
2010-05-29 08:54:53 UTC: KJ6AOD-11>APZ111,WIDE2-2,qAR,KC6SSM-5:$GPGGA,085451.00,3745.74449,N,12225.15641,W,1,07,1.19,6.1,M,-29.8,M,,*6A
2010-05-29 08:55:08 UTC: KJ6AOD-11>APZ111,WIDE2-2,qAR,KC6SSM-5:>ProjectBacchus.org Uptime=01:23:02 Temp=91F,63F (258,210) RH=93% (693) Acc=498,496,330
2010-05-29 08:55:25 UTC: KJ6AOD-11>APZ111,KF6CLH-3,WB6TMS-5,WIDE2*,qAR,W6YX-5:$GPGGA,085521.00,3745.74554,N,12225.15645,W,1,08,1.13,7.9,M,-29.8,M,,*69
2010-05-29 08:55:39 UTC: KJ6AOD-11>APZ111,W6CX-3*,qAR,W6YX-5:>ProjectBacchus.org Uptime=01:23:32 Temp=91F,63F (257,210) RH=93% (693) Acc=498,495,330
2010-05-29 08:55:53 UTC: KJ6AOD-11>APZ111,WIDE2-2,qAR,KC6SSM-5:$GPGGA,085551.00,3745.74360,N,12225.16189,W,1,07,1.18,37.1,M,-29.8,M,,*54
2010-05-29 08:56:08 UTC: KJ6AOD-11>APZ111,WIDE2-2,qAR,KC6SSM-5:>ProjectBacchus.org Uptime=01:24:02 Temp=91F,63F (258,210) RH=92% (692) Acc=496,496,329
2010-05-29 08:56:25 UTC: KJ6AOD-11>APZ111,KF6CLH-3,AC6ET-5,WIDE2*,qAR,K6MEU-5:$GPGGA,085621.00,3745.74794,N,12225.15212,W,1,06,1.52,9.0,M,-29.8,M,,*6E
2010-05-29 08:56:53 UTC: KJ6AOD-11>APZ111,WIDE2-2,qAR,KC6SSM-5:$GPGGA,085651.00,3745.74692,N,12225.15264,W,1,07,1.19,11.4,M,-29.8,M,,*5C
2010-05-29 08:57:08 UTC: KJ6AOD-11>APZ111,WIDE2-2,qAR,KC6SSM-5:>ProjectBacchus.org Uptime=01:25:02 Temp=91F,63F (257,210) RH=93% (694) Acc=495,497,331
2010-05-29 08:57:23 UTC: KJ6AOD-11>APZ111,WIDE2-2,qAR,KC6SSM-5:$GPGGA,085721.00,3745.74656,N,12225.15090,W,1,07,1.19,-3.1,M,-29.8,M,,*40
2010-05-29 08:57:38 UTC: KJ6AOD-11>APZ111,WIDE2-2,qAR,KC6SSM-5:>ProjectBacchus.org Uptime=01:25:32 Temp=91F,63F (257,210) RH=92% (692) Acc=494,496,329
2010-05-29 08:57:55 UTC: KJ6AOD-11>APZ111,KF6CLH-3,WB6TMS-5,WIDE2*,qAR,W6YX-5:$GPGGA,085751.00,3745.74648,N,12225.15328,W,1,07,1.18,4.0,M,-29.8,M,,*62
2010-05-29 08:58:08 UTC: KJ6AOD-11>APZ111,WIDE2-2,qAR,KC6SSM-5:>ProjectBacchus.org Uptime=01:26:02 Temp=91F,63F (258,210) RH=92% (692) Acc=495,497,328
2010-05-29 08:58:23 UTC: KJ6AOD-11>APZ111,WIDE2-2,qAR,KC6SSM-5:$GPGGA,085821.00,3745.74723,N,12225.15236,W,1,07,1.18,1.0,M,-29.8,M,,*6D
2010-05-29 08:58:38 UTC: KJ6AOD-11>APZ111,WIDE2-2,qAR,KC6SSM-5:>ProjectBacchus.org Uptime=01:26:32 Temp=91F,63F (258,210) RH=93% (693) Acc=497,498,331
2010-05-29 08:58:55 UTC: KJ6AOD-11>APZ111,KF6CLH-3,WB6TMS-5,WIDE2*,qAR,W6YX-5:$GPGGA,085851.00,3745.74560,N,12225.15832,W,1,08,1.11,13.4,M,-29.8,M,,*50
2010-05-29 08:59:23 UTC: KJ6AOD-11>APZ111,WIDE2-2,qAR,KC6SSM-5:$GPGGA,085921.00,3745.74571,N,12225.16019,W,1,07,1.18,18.7,M,-29.8,M,,*5A
2010-05-29 08:59:38 UTC: KJ6AOD-11>APZ111,WIDE2-2,qAR,KC6SSM-5:>ProjectBacchus.org Uptime=01:27:32 Temp=91F,63F (258,210) RH=93% (693) Acc=496,496,330
2010-05-29 09:00:09 UTC: KJ6AOD-11>APZ111,WIDE2-2,qAR,KC6SSM-5:>ProjectBacchus.org Uptime=01:28:02 Temp=91F,63F (257,210) RH=93% (694) Acc=495,494,330
2010-05-29 09:00:23 UTC: KJ6AOD-11>APZ111,WIDE2-2,qAR,KC6SSM-5:$GPGGA,090021.00,3745.74963,N,12225.15880,W,1,07,1.67,18.4,M,-29.8,M,,*58
2010-05-29 09:00:38 UTC: KJ6AOD-11>APZ111,WIDE2-2,qAR,KC6SSM-5:>ProjectBacchus.org Uptime=01:28:32 Temp=91F,63F (258,210) RH=93% (693) Acc=496,496,328
2010-05-29 09:00:53 UTC: KJ6AOD-11>APZ111,WIDE2-2,qAR,KC6SSM-5:$GPGGA,090051.00,3745.74341,N,12225.16531,W,1,07,1.17,19.0,M,-29.8,M,,*53
2010-05-29 09:01:10 UTC: KJ6AOD-11>APZ111,KF6CLH-3,AC6ET-5,WIDE2*,qAR,K6MEU-5:>ProjectBacchus.org Uptime=01:29:02 Temp=91F,63F (258,209) RH=93% (694) Acc=497,495,330
2010-05-29 09:01:23 UTC: KJ6AOD-11>APZ111,WIDE2-2,qAR,KC6SSM-5:$GPGGA,090121.00,3745.74616,N,12225.16533,W,1,07,1.17,21.8,M,-29.8,M,,*53
2010-05-29 09:01:38 UTC: KJ6AOD-11>APZ111,WIDE2-2,qAR,KC6SSM-5:>ProjectBacchus.org Uptime=01:29:32 Temp=91F,63F (258,209) RH=93% (694) Acc=496,495,330
2010-05-29 09:01:55 UTC: KJ6AOD-11>APZ111,KF6CLH-3,AC6ET-5,WIDE2*,qAR,K6MEU-5:$GPGGA,090151.00,3745.74653,N,12225.15907,W,1,07,1.17,12.0,M,-29.8,M,,*55
2010-05-29 09:02:08 UTC: KJ6AOD-11>APZ111,WIDE2-2,qAR,KC6SSM-5:>ProjectBacchus.org Uptime=01:30:02 Temp=91F,63F (258,210) RH=93% (693) Acc=494,496,330
2010-05-29 09:02:23 UTC: KJ6AOD-11>APZ111,WIDE2-2,qAR,KC6SSM-5:$GPGGA,090221.00,3745.74339,N,12225.16187,W,1,08,1.10,20.1,M,-29.8,M,,*53
2010-05-29 09:02:54 UTC: KJ6AOD-11>APZ111,W6CX-3*,qAR,W6YX-5:$GPGGA,090251.00,3745.74804,N,12225.15742,W,1,07,1.16,17.0,M,-29.8,M,,*51
2010-05-29 09:03:08 UTC: KJ6AOD-11>APZ111,WIDE2-2,qAR,KC6SSM-5:>ProjectBacchus.org Uptime=01:31:02 Temp=91F,63F (258,210) RH=93% (693) Acc=495,496,330
2010-05-29 09:03:23 UTC: KJ6AOD-11>APZ111,WIDE2-2,qAR,KC6SSM-5:$GPGGA,090321.00,3745.74777,N,12225.15012,W,1,07,1.16,0.4,M,-29.8,M,,*6C
2010-05-29 09:03:40 UTC: KJ6AOD-11>APZ111,KF6CLH-3,AC6ET-5,WIDE2*,qAR,K6MEU-5:>ProjectBacchus.org Uptime=01:31:32 Temp=91F,63F (258,210) RH=93% (693) Acc=496,496,326
2010-05-29 09:03:55 UTC: KJ6AOD-11>APZ111,KF6CLH-3,AC6ET-5,WIDE2*,qAR,N6VUD-2:$GPGGA,090351.00,3745.74493,N,12225.15422,W,1,07,1.14,0.9,M,-29.8,M,,*6A
2010-05-29 09:04:08 UTC: KJ6AOD-11>APZ111,WIDE2-2,qAR,KC6SSM-5:>ProjectBacchus.org Uptime=01:32:02 Temp=91F,63F (258,210) RH=93% (693) Acc=498,496,330
2010-05-29 09:04:38 UTC: KJ6AOD-11>APZ111,WIDE2-2,qAR,KC6SSM-5:>ProjectBacchus.org Uptime=01:32:32 Temp=91F,63F (258,210) RH=93% (693) Acc=497,497,331
2010-05-29 09:04:53 UTC: KJ6AOD-11>APZ111,WIDE2-2,qAR,KC6SSM-5:$GPGGA,090451.00,3745.74394,N,12225.15519,W,1,06,1.79,4.1,M,-29.8,M,,*62
2010-05-29 09:05:23 UTC: KJ6AOD-11>APZ111,WIDE2-2,qAR,KC6SSM-5:$GPGGA,090521.00,3745.74303,N,12225.15773,W,1,08,1.09,6.6,M,-29.8,M,,*68
2010-05-29 09:05:39 UTC: KJ6AOD-11>APZ111,WIDE2-2,qAR,KC6SSM-5:>ProjectBacchus.org Uptime=01:33:32 Temp=91F,63F (258,210) RH=92% (692) Acc=494,498,331
2010-05-29 09:05:53 UTC: KJ6AOD-11>APZ111,WIDE2-2,qAR,KC6SSM-5:$GPGGA,090551.00,3745.74308,N,12225.15896,W,1,08,1.08,12.8,M,-29.8,M,,*5A
2010-05-29 09:06:10 UTC: KJ6AOD-11>APZ111,KF6CLH-3*,WIDE2-1,qAR,W6PKT-5:>ProjectBacchus.org Uptime=01:34:02 Temp=91F,63F (258,210) RH=93% (693) Acc=495,496,332
2010-05-29 09:06:23 UTC: KJ6AOD-11>APZ111,WIDE2-2,qAR,KC6SSM-5:$GPGGA,090621.00,3745.74161,N,12225.16172,W,1,07,1.15,15.8,M,-29.8,M,,*57
2010-05-29 09:06:38 UTC: KJ6AOD-11>APZ111,WIDE2-2,qAR,KC6SSM-5:>ProjectBacchus.org Uptime=01:34:32 Temp=91F,63F (258,209) RH=92% (692) Acc=495,494,329
2010-05-29 09:06:53 UTC: KJ6AOD-11>APZ111,WIDE2-2,qAR,KC6SSM-5:$GPGGA,090651.00,3745.74432,N,12225.15717,W,1,06,1.68,4.5,M,-29.8,M,,*63
2010-05-29 09:07:08 UTC: KJ6AOD-11>APZ111,WIDE2-2,qAR,KC6SSM-5:>ProjectBacchus.org Uptime=01:35:02 Temp=91F,63F (258,210) RH=92% (692) Acc=495,497,331
2010-05-29 09:07:25 UTC: KJ6AOD-11>APZ111,KF6CLH-3,AC6ET-5,WIDE2*,qAR,K6MEU-5:$GPGGA,090721.00,3745.74315,N,12225.15963,W,1,07,1.17,8.5,M,-29.8,M,,*6F
2010-05-29 09:07:53 UTC: KJ6AOD-11>APZ111,WIDE2-2,qAR,KC6SSM-5:$GPGGA,090751.00,3745.74409,N,12225.16134,W,1,08,1.07,11.4,M,-29.8,M,,*5C
2010-05-29 09:08:08 UTC: KJ6AOD-11>APZ111,WIDE2-2,qAR,KC6SSM-5:>ProjectBacchus.org Uptime=01:36:02 Temp=91F,63F (258,210) RH=93% (694) Acc=497,497,333
2010-05-29 09:08:23 UTC: KJ6AOD-11>APZ111,WIDE2-2,qAR,KC6SSM-5:$GPGGA,090821.00,3745.74314,N,12225.16151,W,1,08,1.07,22.6,M,-29.8,M,,*5E
2010-05-29 09:08:38 UTC: KJ6AOD-11>APZ111,WIDE2-2,qAR,KC6SSM-5:>ProjectBacchus.org Uptime=01:36:32 Temp=91F,63F (258,210) RH=93% (693) Acc=497,496,331
2010-05-29 09:08:53 UTC: KJ6AOD-11>APZ111,WIDE2-2,qAR,KC6SSM-5:$GPGGA,090851.00,3745.74559,N,12225.15839,W,1,08,1.07,11.5,M,-29.8,M,,*51
2010-05-29 09:09:10 UTC: KJ6AOD-11>APZ111,KF6CLH-3,AC6ET-5,WIDE2*,qAR,K6MEU-5:>ProjectBacchus.org Uptime=01:37:02 Temp=91F,63F (258,210) RH=92% (692) Acc=495,495,330
2010-05-29 09:09:23 UTC: KJ6AOD-11>APZ111,WIDE2-2,qAR,KC6SSM-5:$GPGGA,090921.00,3745.74759,N,12225.15334,W,1,07,1.17,8.5,M,-29.8,M,,*65
2010-05-29 09:10:08 UTC: KJ6AOD-11>APZ111,WIDE2-2,qAR,KC6SSM-5:>ProjectBacchus.org Uptime=01:38:02 Temp=91F,63F (258,210) RH=93% (693) Acc=497,495,331
2010-05-29 09:10:23 UTC: KJ6AOD-11>APZ111,WIDE2-2,qAR,KC6SSM-5:$GPGGA,091021.00,3745.74234,N,12225.15855,W,1,05,1.55,18.7,M,-29.8,M,,*58
2010-05-29 09:10:53 UTC: KJ6AOD-11>APZ111,WIDE2-2,qAR,KC6SSM-5:$GPGGA,091051.00,3745.74107,N,12225.16396,W,1,08,1.06,29.0,M,-29.8,M,,*55
2010-05-29 09:11:08 UTC: KJ6AOD-11>APZ111,WIDE2-2,qAR,KC6SSM-5:>ProjectBacchus.org Uptime=01:39:02 Temp=91F,63F (258,210) RH=93% (693) Acc=498,498,329
2010-05-29 09:11:23 UTC: KJ6AOD-11>APZ111,WIDE2-2,qAR,KC6SSM-5:$GPGGA,091121.00,3745.74233,N,12225.16002,W,1,06,1.43,22.7,M,-29.8,M,,*5A
2010-05-29 09:11:38 UTC: KJ6AOD-11>APZ111,WIDE2-2,qAR,KC6SSM-5:>ProjectBacchus.org Uptime=01:39:32 Temp=91F,63F (258,210) RH=93% (693) Acc=496,496,330
2010-05-29 09:11:55 UTC: KJ6AOD-11>APZ111,KF6CLH-3,N6ZX-3,WIDE2*,qAR,W6YX-5:$GPGGA,091151.00,3745.74000,N,12225.16174,W,1,07,1.12,29.3,M,-29.8,M,,*55
2010-05-29 09:12:23 UTC: KJ6AOD-11>APZ111,WIDE2-2,qAR,KC6SSM-5:$GPGGA,091221.00,3745.74185,N,12225.16066,W,1,07,1.12,22.8,M,-29.8,M,,*5F
2010-05-29 09:12:53 UTC: KJ6AOD-11>APZ111,WIDE2-2,qAR,KC6SSM-5:$GPGGA,091251.00,3745.74257,N,12225.15815,W,1,07,1.11,24.7,M,-29.8,M,,*51
2010-05-29 09:13:53 UTC: KJ6AOD-11>APZ111,WIDE2-2,qAR,KC6SSM-5:$GPGGA,091351.00,3745.74585,N,12225.15765,W,1,07,1.10,28.0,M,-29.8,M,,*5A
2010-05-29 09:14:23 UTC: KJ6AOD-11>APZ111,WIDE2-2,qAR,KC6SSM-5:$GPGGA,091421.00,3745.74936,N,12225.16347,W,1,07,1.10,38.5,M,-29.8,M,,*5D
2010-05-29 09:14:38 UTC: KJ6AOD-11>APZ111,WIDE2-2,qAR,KC6SSM-5:>ProjectBacchus.org Uptime=01:42:32 Temp=91F,63F (257,210) RH=92% (691) Acc=495,493,330
2010-05-29 09:14:53 UTC: KJ6AOD-11>APZ111,WIDE2-2,qAR,KC6SSM-5:$GPGGA,091451.00,3745.75145,N,12225.16216,W,1,07,1.10,32.7,M,-29.8,M,,*5A
2010-05-29 09:15:08 UTC: KJ6AOD-11>APZ111,WIDE2-2,qAR,KC6SSM-5:>ProjectBacchus.org Uptime=01:43:02 Temp=91F,63F (258,210) RH=92% (691) Acc=496,497,333
2010-05-29 09:15:40 UTC: KJ6AOD-11>APZ111,KF6CLH-3,AC6ET-5,WIDE2*,qAR,K6MEU-5:>ProjectBacchus.org Uptime=01:43:32 Temp=91F,63F (258,210) RH=92% (692) Acc=496,494,332
2010-05-29 09:15:53 UTC: KJ6AOD-11>APZ111,WIDE2-2,qAR,KC6SSM-5:$GPGGA,091551.00,3745.74576,N,12225.16122,W,1,07,1.09,23.8,M,-29.8,M,,*5D
2010-05-29 09:16:08 UTC: KJ6AOD-11>APZ111,WIDE2-2,qAR,KC6SSM-5:>ProjectBacchus.org Uptime=01:44:02 Temp=91F,63F (258,210) RH=93% (693) Acc=496,496,331
2010-05-29 09:16:40 UTC: KJ6AOD-11>APZ111,KF6CLH-3,AC6ET-5,WIDE2*,qAR,K6MEU-5:>ProjectBacchus.org Uptime=01:44:32 Temp=91F,63F (257,210) RH=92% (692) Acc=497,497,330
2010-05-29 09:16:53 UTC: KJ6AOD-11>APZ111,WIDE2-2,qAR,KC6SSM-5:$GPGGA,091651.00,3745.74736,N,12225.15191,W,1,05,2.28,-0.4,M,-29.8,M,,*41
2010-05-29 09:17:23 UTC: KJ6AOD-11>APZ111,WIDE2-2,qAR,KC6SSM-5:$GPGGA,091721.00,3745.74328,N,12225.15899,W,1,05,1.51,10.3,M,-29.8,M,,*5B
2010-05-29 09:17:39 UTC: KJ6AOD-11>APZ111,WIDE2-2,qAR,KC6SSM-5:>ProjectBacchus.org Uptime=01:45:32 Temp=91F,63F (257,210) RH=92% (691) Acc=495,497,331
2010-05-29 09:17:53 UTC: KJ6AOD-11>APZ111,WIDE2-2,qAR,KC6SSM-5:$GPGGA,091751.00,3745.74501,N,12225.15379,W,1,06,1.10,5.6,M,-29.8,M,,*63
2010-05-29 09:18:08 UTC: KJ6AOD-11>APZ111,WIDE2-2,qAR,KC6SSM-5:>ProjectBacchus.org Uptime=01:46:02 Temp=91F,63F (258,210) RH=92% (691) Acc=495,495,332
2010-05-29 09:18:23 UTC: KJ6AOD-11>APZ111,WIDE2-2,qAR,KC6SSM-5:$GPGGA,091821.00,3745.74659,N,12225.15707,W,1,05,1.51,1.8,M,-29.8,M,,*64
2010-05-29 09:18:38 UTC: KJ6AOD-11>APZ111,WIDE2-2,qAR,KC6SSM-5:>ProjectBacchus.org Uptime=01:46:32 Temp=91F,63F (258,210) RH=92% (692) Acc=498,495,330
2010-05-29 09:18:53 UTC: KJ6AOD-11>APZ111,WIDE2-2,qAR,KC6SSM-5:$GPGGA,091851.00,3745.74139,N,12225.15485,W,1,06,1.15,5.4,M,-29.8,M,,*60
2010-05-29 09:19:08 UTC: KJ6AOD-11>APZ111,WIDE2-2,qAR,KC6SSM-5:>ProjectBacchus.org Uptime=01:47:02 Temp=91F,63F (258,210) RH=92% (692) Acc=497,497,331
2010-05-29 09:19:38 UTC: KJ6AOD-11>APZ111,WIDE2-2,qAR,KC6SSM-5:>ProjectBacchus.org Uptime=01:47:32 Temp=91F,62F (258,208) RH=92% (692) Acc=495,497,329
2010-05-29 09:20:10 UTC: KJ6AOD-11>APZ111,KF6CLH-3,AC6ET-5,WIDE2*,qAR,K6MEU-5:>ProjectBacchus.org Uptime=01:48:02 Temp=91F,63F (258,210) RH=93% (693) Acc=497,496,329
2010-05-29 09:20:23 UTC: KJ6AOD-11>APZ111,WIDE2-2,qAR,KC6SSM-5:$GPGGA,092021.00,3745.74955,N,12225.15385,W,1,06,1.37,-16.3,M,-29.8,M,,*71
2010-05-29 09:20:38 UTC: KJ6AOD-11>APZ111,WIDE2-2,qAR,KC6SSM-5:>ProjectBacchus.org Uptime=01:48:32 Temp=91F,63F (258,210) RH=93% (693) Acc=498,497,328
2010-05-29 09:20:54 UTC: KJ6AOD-11>APZ111,W6CX-3*,qAR,W6YX-5:$GPGGA,092051.00,3745.74743,N,12225.15532,W,1,07,1.08,-8.6,M,-29.8,M,,*42
2010-05-29 09:21:23 UTC: KJ6AOD-11>APZ111,WIDE2-2,qAR,KC6SSM-5:$GPGGA,092121.00,3745.74673,N,12225.15717,W,1,07,1.36,3.3,M,-29.8,M,,*6D
2010-05-29 09:21:38 UTC: KJ6AOD-11>APZ111,WIDE2-2,qAR,KC6SSM-5:>ProjectBacchus.org Uptime=01:49:32 Temp=91F,63F (257,210) RH=92% (692) Acc=497,499,330
2010-05-29 09:21:53 UTC: KJ6AOD-11>APZ111,WIDE2-2,qAR,KC6SSM-5:$GPGGA,092151.00,3745.74750,N,12225.15365,W,1,06,1.36,-9.0,M,-29.8,M,,*4E
2010-05-29 09:22:53 UTC: KJ6AOD-11>APZ111,WIDE2-2,qAR,KC6SSM-5:$GPGGA,092251.00,3745.74333,N,12225.15758,W,1,07,1.07,18.6,M,-29.8,M,,*5E
2010-05-29 09:23:08 UTC: KJ6AOD-11>APZ111,WIDE2-2,qAR,KC6SSM-5:>ProjectBacchus.org Uptime=01:51:02 Temp=91F,63F (258,210) RH=93% (693) Acc=494,495,329
2010-05-29 09:23:24 UTC: KJ6AOD-11>APZ111,WIDE2-2,qAR,KC6SSM-5:$GPGGA,092321.00,3745.74668,N,12225.15578,W,1,06,1.14,13.0,M,-29.8,M,,*5D
2010-05-29 09:23:40 UTC: KJ6AOD-11>APZ111,KF6CLH-3,AC6ET-5,WIDE2*,qAR,K6MEU-5:>ProjectBacchus.org Uptime=01:51:32 Temp=91F,63F (258,210) RH=93% (693) Acc=494,496,331
2010-05-29 09:23:53 UTC: KJ6AOD-11>APZ111,WIDE2-2,qAR,KC6SSM-5:$GPGGA,092351.00,3745.74663,N,12225.15764,W,1,08,1.07,20.9,M,-29.8,M,,*5B
2010-05-29 09:24:08 UTC: KJ6AOD-11>APZ111,WIDE2-2,qAR,KC6SSM-5:>ProjectBacchus.org Uptime=01:52:02 Temp=91F,63F (258,210) RH=93% (694) Acc=495,496,332
2010-05-29 09:24:23 UTC: KJ6AOD-11>APZ111,WIDE2-2,qAR,KC6SSM-5:$GPGGA,092421.00,3745.74756,N,12225.15414,W,1,07,1.06,29.4,M,-29.8,M,,*52
2010-05-29 09:24:38 UTC: KJ6AOD-11>APZ111,WIDE2-2,qAR,KC6SSM-5:>ProjectBacchus.org Uptime=01:52:32 Temp=91F,63F (258,209) RH=93% (694) Acc=496,494,329
2010-05-29 09:25:08 UTC: KJ6AOD-11>APZ111,WIDE2-2,qAR,KC6SSM-5:>ProjectBacchus.org Uptime=01:53:02 Temp=91F,63F (258,209) RH=93% (694) Acc=495,495,331
2010-05-29 09:25:25 UTC: KJ6AOD-11>APZ111,KF6CLH-3,AC6ET-5,WIDE2*,qAR,K6MEU-5:$GPGGA,092521.00,3745.74942,N,12225.15923,W,1,05,2.04,36.0,M,-29.8,M,,*58
2010-05-29 09:25:39 UTC: KJ6AOD-11>APZ111,WIDE2-2,qAR,KC6SSM-5:>ProjectBacchus.org Uptime=01:53:32 Temp=91F,63F (258,210) RH=93% (695) Acc=493,498,329
2010-05-29 09:25:53 UTC: KJ6AOD-11>APZ111,WIDE2-2,qAR,KC6SSM-5:$GPGGA,092551.00,3745.74952,N,12225.15872,W,1,07,1.03,3.9,M,-29.8,M,,*62
2010-05-29 09:26:23 UTC: KJ6AOD-11>APZ111,WIDE2-2,qAR,KC6SSM-5:$GPGGA,092621.00,3745.75057,N,12225.16135,W,1,06,1.11,14.7,M,-29.8,M,,*58
2010-05-29 09:26:38 UTC: KJ6AOD-11>APZ111,WIDE2-2,qAR,KC6SSM-5:>ProjectBacchus.org Uptime=01:54:32 Temp=91F,63F (258,209) RH=93% (695) Acc=495,497,329
2010-05-29 09:26:54 UTC: KJ6AOD-11>APZ111,W6CX-3*,qAR,W6YX-5:$GPGGA,092651.00,3745.74622,N,12225.15918,W,1,07,1.06,17.4,M,-29.8,M,,*59
2010-05-29 09:27:08 UTC: KJ6AOD-11>APZ111,WIDE2-2,qAR,KC6SSM-5:>ProjectBacchus.org Uptime=01:55:02 Temp=91F,63F (258,209) RH=93% (695) Acc=498,496,329
2010-05-29 09:27:38 UTC: KJ6AOD-11>APZ111,WIDE2-2,qAR,KC6SSM-5:>ProjectBacchus.org Uptime=01:55:32 Temp=91F,63F (257,209) RH=93% (694) Acc=497,495,329
2010-05-29 09:27:55 UTC: KJ6AOD-11>APZ111,KF6CLH-3,AC6ET-5,WIDE2*,qAR,N6VUD-2:$GPGGA,092751.00,3745.74839,N,12225.15769,W,1,08,1.05,16.5,M,-29.8,M,,*58
2010-05-29 09:28:08 UTC: KJ6AOD-11>APZ111,WIDE2-2,qAR,KC6SSM-5:>ProjectBacchus.org Uptime=01:56:02 Temp=91F,63F (258,209) RH=93% (695) Acc=495,496,330
2010-05-29 09:28:23 UTC: KJ6AOD-11>APZ111,WIDE2-2,qAR,KC6SSM-5:$GPGGA,092821.00,3745.74820,N,12225.15656,W,1,07,1.05,10.9,M,-29.8,M,,*50
2010-05-29 09:28:38 UTC: KJ6AOD-11>APZ111,WIDE2-2,qAR,KC6SSM-5:>ProjectBacchus.org Uptime=01:56:32 Temp=91F,63F (258,209) RH=93% (694) Acc=497,498,330
2010-05-29 09:28:53 UTC: KJ6AOD-11>APZ111,WIDE2-2,qAR,KC6SSM-5:$GPGGA,092851.00,3745.74476,N,12225.16186,W,1,06,1.14,17.7,M,-29.8,M,,*59
2010-05-29 09:29:10 UTC: KJ6AOD-11>APZ111,KF6CLH-3,WB6TMS-5,WIDE2*,qAR,W6YX-5:>ProjectBacchus.org Uptime=01:57:02 Temp=91F,63F (258,209) RH=93% (694) Acc=496,496,329
2010-05-29 09:29:23 UTC: KJ6AOD-11>APZ111,WIDE2-2,qAR,KC6SSM-5:$GPGGA,092921.00,3745.74378,N,12225.15897,W,1,05,1.51,13.8,M,-29.8,M,,*55
2010-05-29 09:29:38 UTC: KJ6AOD-11>APZ111,WIDE2-2,qAR,KC6SSM-5:>ProjectBacchus.org Uptime=01:57:32 Temp=92F,63F (259,210) RH=93% (694) Acc=495,497,328
2010-05-29 09:30:08 UTC: KJ6AOD-11>APZ111,WIDE2-2,qAR,KC6SSM-5:>ProjectBacchus.org Uptime=01:58:02 Temp=92F,63F (259,209) RH=93% (694) Acc=496,496,330
2010-05-29 09:30:25 UTC: KJ6AOD-11>APZ111,KF6CLH-3,AC6ET-5,WIDE2*,qAR,N6VUD-2:$GPGGA,093021.00,3745.74578,N,12225.15462,W,1,07,1.05,5.6,M,-29.8,M,,*67
2010-05-29 09:30:38 UTC: KJ6AOD-11>APZ111,WIDE2-2,qAR,KC6SSM-5:>ProjectBacchus.org Uptime=01:58:32 Temp=92F,63F (259,209) RH=93% (695) Acc=497,497,328
2010-05-29 09:30:53 UTC: KJ6AOD-11>APZ111,WIDE2-2,qAR,KC6SSM-5:$GPGGA,093051.00,3745.74433,N,12225.15594,W,1,05,1.39,4.2,M,-29.8,M,,*6E
2010-05-29 09:31:23 UTC: KJ6AOD-11>APZ111,WIDE2-2,qAR,KC6SSM-5:$GPGGA,093121.00,3745.74409,N,12225.15703,W,1,07,1.05,11.1,M,-29.8,M,,*57
2010-05-29 09:31:41 UTC: KJ6AOD-11>APZ111,KF6CLH-3,AC6ET-5,WIDE2*,qAR,K6MEU-5:>ProjectBacchus.org Uptime=01:59:32 Temp=92F,63F (259,209) RH=93% (695) Acc=493,498,333
2010-05-29 09:31:53 UTC: KJ6AOD-11>APZ111,WIDE2-2,qAR,KC6SSM-5:$GPGGA,093151.00,3745.74338,N,12225.15562,W,1,07,1.04,7.3,M,-29.8,M,,*64
2010-05-29 09:32:08 UTC: KJ6AOD-11>APZ111,WIDE2-2,qAR,KC6SSM-5:>ProjectBacchus.org Uptime=02:00:02 Temp=92F,63F (259,209) RH=93% (695) Acc=495,494,333
2010-05-29 09:32:53 UTC: KJ6AOD-11>APZ111,WIDE2-2,qAR,KC6SSM-5:$GPGGA,093251.00,3745.74736,N,12225.15467,W,1,06,1.30,8.3,M,-29.8,M,,*60
2010-05-29 09:33:23 UTC: KJ6AOD-11>APZ111,WIDE2-2,qAR,KC6SSM-5:$GPGGA,093321.00,3745.74435,N,12225.15774,W,1,05,1.36,16.7,M,-29.8,M,,*59
2010-05-29 09:33:38 UTC: KJ6AOD-11>APZ111,WIDE2-2,qAR,KC6SSM-5:>ProjectBacchus.org Uptime=02:01:32 Temp=92F,63F (260,209) RH=93% (695) Acc=495,496,329
2010-05-29 09:33:53 UTC: KJ6AOD-11>APZ111,WIDE2-2,qAR,KC6SSM-5:$GPGGA,093351.00,3745.74467,N,12225.15835,W,1,06,1.36,21.3,M,-29.8,M,,*50
2010-05-29 09:34:11 UTC: KJ6AOD-11>APZ111,KF6CLH-3,AC6ET-5,WIDE2*,qAR,K6MEU-5:>ProjectBacchus.org Uptime=02:02:03 Temp=92F,63F (260,209) RH=93% (695) Acc=493,495,331
2010-05-29 09:34:25 UTC: KJ6AOD-11>APZ111,KF6CLH-3,WB6TMS-5,WIDE2*,qAR,W6YX-5:$GPGGA,093422.00,,,,,0,04,41.67,,,,,,*68 [Less than 11 fields in GPGGA sentence]
2010-05-29 09:34:39 UTC: KJ6AOD-11>APZ111,WIDE2-2,qAR,KC6SSM-5:>ProjectBacchus.org Uptime=02:02:33 Temp=92F,63F (260,209) RH=93% (695) Acc=495,495,329
2010-05-29 09:34:56 UTC: KJ6AOD-11>APZ111,KF6CLH-3,AC6ET-5,WIDE2*,qAR,N6VUD-2:$GPGGA,093452.00,3745.73939,N,12225.16124,W,1,05,1.21,16.6,M,-29.8,M,,*5B
2010-05-29 09:35:09 UTC: KJ6AOD-11>APZ111,WIDE2-2,qAR,KC6SSM-5:>ProjectBacchus.org Uptime=02:03:03 Temp=92F,63F (260,210) RH=93% (693) Acc=495,498,329
2010-05-29 09:35:25 UTC: KJ6AOD-11>APZ111,WIDE2-2,qAR,KC6SSM-5:$GPGGA,093522.00,3745.74412,N,12225.15715,W,1,06,1.11,11.2,M,-29.8,M,,*5A
2010-05-29 09:35:54 UTC: KJ6AOD-11>APZ111,WIDE2-2,qAR,KC6SSM-5:$GPGGA,093552.00,3745.74540,N,12225.15503,W,1,07,1.03,6.9,M,-29.8,M,,*61
2010-05-29 09:36:09 UTC: KJ6AOD-11>APZ111,WIDE2-2,qAR,KC6SSM-5:>ProjectBacchus.org Uptime=02:04:03 Temp=92F,63F (260,209) RH=93% (694) Acc=494,495,330
2010-05-29 09:36:24 UTC: KJ6AOD-11>APZ111,WIDE2-2,qAR,KC6SSM-5:$GPGGA,093622.00,3745.74204,N,12225.16203,W,1,07,1.03,24.3,M,-29.8,M,,*5C
2010-05-29 09:36:54 UTC: KJ6AOD-11>APZ111,WIDE2-2,qAR,KC6SSM-5:$GPGGA,093652.00,3745.74457,N,12225.15829,W,1,07,1.03,15.2,M,-29.8,M,,*59
2010-05-29 09:37:09 UTC: KJ6AOD-11>APZ111,WIDE2-2,qAR,KC6SSM-5:>ProjectBacchus.org Uptime=02:05:03 Temp=92F,63F (260,209) RH=93% (694) Acc=493,496,329
2010-05-29 09:37:39 UTC: KJ6AOD-11>APZ111,WIDE2-2,qAR,KC6SSM-5:>ProjectBacchus.org Uptime=02:05:33 Temp=92F,63F (260,209) RH=93% (695) Acc=493,496,331
2010-05-29 09:37:54 UTC: KJ6AOD-11>APZ111,WIDE2-2,qAR,KC6SSM-5:$GPGGA,093752.00,3745.74697,N,12225.15260,W,1,07,1.26,5.2,M,-29.8,M,,*67
2010-05-29 09:38:09 UTC: KJ6AOD-11>APZ111,WIDE2-2,qAR,KC6SSM-5:>ProjectBacchus.org Uptime=02:06:03 Temp=92F,63F (260,209) RH=93% (694) Acc=493,495,333
2010-05-29 09:38:26 UTC: KJ6AOD-11>APZ111,KF6CLH-3,AC6ET-5,WIDE2*,qAR,N6VUD-2:$GPGGA,093822.00,3745.74503,N,12225.15592,W,1,08,1.26,11.9,M,-29.8,M,,*5A
2010-05-29 09:38:54 UTC: KJ6AOD-11>APZ111,WIDE2-2,qAR,KC6SSM-5:$GPGGA,093852.00,3745.74261,N,12225.16299,W,1,08,1.07,27.2,M,-29.8,M,,*5C
2010-05-29 09:39:09 UTC: KJ6AOD-11>APZ111,WIDE2-2,qAR,KC6SSM-5:>ProjectBacchus.org Uptime=02:07:03 Temp=93F,62F (261,208) RH=93% (694) Acc=495,496,334
2010-05-29 09:39:24 UTC: KJ6AOD-11>APZ111,WIDE2-2,qAR,KC6SSM-5:$GPGGA,093922.00,3745.74588,N,12225.15756,W,1,07,1.25,13.8,M,-29.8,M,,*5D
2010-05-29 09:39:42 UTC: KJ6AOD-11>APZ111,KF6CLH-3,AC6ET-5,WIDE2*,qAR,K6MEU-5:>ProjectBacchus.org Uptime=02:07:33 Temp=92F,63F (260,209) RH=93% (694) Acc=495,498,327
2010-05-29 09:39:56 UTC: KJ6AOD-11>APZ111,KF6CLH-3,AC6ET-5,WIDE2*,qAR,W6PKT-5:$GPGGA,093952.00,3745.74798,N,12225.15784,W,1,06,1.30,10.8,M,-29.8,M,,*50
2010-05-29 09:40:09 UTC: KJ6AOD-11>APZ111,WIDE2-2,qAR,KC6SSM-5:>ProjectBacchus.org Uptime=02:08:04 Temp=93F,63F (261,209) RH=93% (694) Acc=493,496,331
2010-05-29 09:40:24 UTC: KJ6AOD-11>APZ111,WIDE2-2,qAR,KC6SSM-5:$GPGGA,094022.00,3745.74677,N,12225.16108,W,1,07,1.02,30.3,M,-29.8,M,,*51
2010-05-29 09:41:24 UTC: KJ6AOD-11>APZ111,WIDE2-2,qAR,KC6SSM-5:$GPGGA,094122.00,3745.74785,N,12225.14457,W,1,06,1.13,-4.2,M,-29.8,M,,*4B
2010-05-29 09:41:41 UTC: KJ6AOD-11>APZ111,WIDE2-2,qAR,KC6SSM-5:>ProjectBacchus.org Uptime=02:09:34 Temp=93F,63F (261,209) RH=93% (695) Acc=497,498,332
2010-05-29 09:41:54 UTC: KJ6AOD-11>APZ111,WIDE2-2,qAR,KC6SSM-5:$GPGGA,094152.00,3745.74811,N,12225.14447,W,1,07,1.07,-7.2,M,-29.8,M,,*48
2010-05-29 09:42:12 UTC: KJ6AOD-11>APZ111,KF6CLH-3,AC6ET-5,WIDE2*,qAR,N6VUD-2:>ProjectBacchus.org Uptime=02:10:04 Temp=93F,63F (261,209) RH=93% (693) Acc=493,496,328
2010-05-29 09:42:24 UTC: KJ6AOD-11>APZ111,WIDE2-2,qAR,KC6SSM-5:$GPGGA,094222.00,3745.74282,N,12225.15819,W,1,07,1.04,25.3,M,-29.8,M,,*55
2010-05-29 09:42:54 UTC: KJ6AOD-11>APZ111,WIDE2-2,qAR,KC6SSM-5:$GPGGA,094252.00,3745.74680,N,12225.15147,W,1,07,1.36,3.4,M,-29.8,M,,*64
2010-05-29 09:43:09 UTC: KJ6AOD-11>APZ111,WIDE2-2,qAR,KC6SSM-5:>ProjectBacchus.org Uptime=02:11:04 Temp=93F,63F (261,209) RH=93% (693) Acc=495,497,331
2010-05-29 09:43:24 UTC: KJ6AOD-11>APZ111,WIDE2-2,qAR,KC6SSM-5:$GPGGA,094322.00,3745.74785,N,12225.14974,W,1,08,1.23,-4.6,M,-29.8,M,,*4C
2010-05-29 09:43:39 UTC: KJ6AOD-11>APZ111,WIDE2-2,qAR,KC6SSM-5:>ProjectBacchus.org Uptime=02:11:34 Temp=93F,63F (261,209) RH=93% (694) Acc=494,498,331
2010-05-29 09:43:54 UTC: KJ6AOD-11>APZ111,WIDE2-2,qAR,KC6SSM-5:$GPGGA,094352.00,3745.74758,N,12225.14928,W,1,06,1.35,-1.0,M,-29.8,M,,*48
2010-05-29 09:44:09 UTC: KJ6AOD-11>APZ111,WIDE2-2,qAR,KC6SSM-5:>ProjectBacchus.org Uptime=02:12:04 Temp=93F,63F (261,209) RH=93% (693) Acc=495,498,331
2010-05-29 09:44:24 UTC: KJ6AOD-11>APZ111,WIDE2-2,qAR,KC6SSM-5:$GPGGA,094422.00,3745.74597,N,12225.15604,W,1,07,1.01,20.4,M,-29.8,M,,*55
2010-05-29 09:44:54 UTC: KJ6AOD-11>APZ111,WIDE2-2,qAR,KC6SSM-5:$GPGGA,094452.00,3745.74681,N,12225.15151,W,1,07,1.29,0.3,M,-29.8,M,,*6E
2010-05-29 09:45:09 UTC: KJ6AOD-11>APZ111,WIDE2-2,qAR,KC6SSM-5:>ProjectBacchus.org Uptime=02:13:04 Temp=93F,62F (261,208) RH=93% (695) Acc=495,497,329
2010-05-29 09:45:24 UTC: KJ6AOD-11>APZ111,WIDE2-2,qAR,KC6SSM-5:$GPGGA,094522.00,3745.74361,N,12225.16519,W,1,07,1.46,36.8,M,-29.8,M,,*5F
2010-05-29 09:45:39 UTC: KJ6AOD-11>APZ111,WIDE2-2,qAR,KC6SSM-5:>ProjectBacchus.org Uptime=02:13:34 Temp=93F,63F (261,209) RH=93% (695) Acc=497,496,328
2010-05-29 09:45:54 UTC: KJ6AOD-11>APZ111,WIDE2-2,qAR,KC6SSM-5:$GPGGA,094552.00,3745.74588,N,12225.16161,W,1,08,2.07,39.0,M,-29.8,M,,*5C
2010-05-29 09:46:09 UTC: KJ6AOD-11>APZ111,WIDE2-2,qAR,KC6SSM-5:>ProjectBacchus.org Uptime=02:14:04 Temp=93F,63F (261,209) RH=93% (695) Acc=495,498,327
2010-05-29 09:46:24 UTC: KJ6AOD-11>APZ111,WIDE2-2,qAR,KC6SSM-5:$GPGGA,094622.00,3745.75291,N,12225.15082,W,1,08,2.07,13.9,M,-29.8,M,,*58
2010-05-29 09:46:39 UTC: KJ6AOD-11>APZ111,WIDE2-2,qAR,KC6SSM-5:>ProjectBacchus.org Uptime=02:14:34 Temp=93F,63F (261,209) RH=93% (695) Acc=496,496,329
2010-05-29 09:47:09 UTC: KJ6AOD-11>APZ111,WIDE2-2,qAR,KC6SSM-5:>ProjectBacchus.org Uptime=02:15:04 Temp=92F,63F (260,209) RH=93% (695) Acc=493,496,330
2010-05-29 09:47:39 UTC: KJ6AOD-11>APZ111,WIDE2-2,qAR,KC6SSM-5:>ProjectBacchus.org Uptime=02:15:34 Temp=93F,63F (261,209) RH=93% (696) Acc=495,497,330
2010-05-29 09:47:57 UTC: KJ6AOD-11>APZ111,KF6CLH-3,WB6TMS-5,WIDE2*,qAR,W6PKT-5:$GPGGA,094752.00,3745.74838,N,12225.15132,W,1,07,2.06,11.4,M,-29.8,M,,*5D
2010-05-29 09:48:39 UTC: KJ6AOD-11>APZ111,WIDE2-2,qAR,KC6SSM-5:>ProjectBacchus.org Uptime=02:16:34 Temp=93F,61F (261,206) RH=93% (695) Acc=494,497,325
2010-05-29 09:49:09 UTC: KJ6AOD-11>APZ111,WIDE2-2,qAR,KC6SSM-5:>ProjectBacchus.org Uptime=02:17:04 Temp=92F,63F (260,209) RH=93% (694) Acc=493,497,332
2010-05-29 09:49:24 UTC: KJ6AOD-11>APZ111,WIDE2-2,qAR,KC6SSM-5:$GPGGA,094922.00,3745.74683,N,12225.15571,W,1,08,1.24,18.0,M,-29.8,M,,*58
2010-05-29 09:49:39 UTC: KJ6AOD-11>APZ111,WIDE2-2,qAR,KC6SSM-5:>ProjectBacchus.org Uptime=02:17:34 Temp=93F,63F (261,209) RH=93% (694) Acc=494,498,330
2010-05-29 09:50:39 UTC: KJ6AOD-11>APZ111,WIDE2-2,qAR,KC6SSM-5:>ProjectBacchus.org Uptime=02:18:34 Temp=93F,63F (261,209) RH=93% (695) Acc=496,494,330
2010-05-29 09:50:54 UTC: KJ6AOD-11>APZ111,WIDE2-2,qAR,KC6SSM-5:$GPGGA,095052.00,3745.74698,N,12225.15721,W,1,08,1.23,15.3,M,-29.8,M,,*53
2010-05-29 09:51:09 UTC: KJ6AOD-11>APZ111,WIDE2-2,qAR,KC6SSM-5:>ProjectBacchus.org Uptime=02:19:04 Temp=93F,63F (261,209) RH=93% (694) Acc=497,498,329
2010-05-29 09:51:24 UTC: KJ6AOD-11>APZ111,WIDE2-2,qAR,KC6SSM-5:$GPGGA,095122.00,3745.74461,N,12225.15782,W,1,08,1.23,20.3,M,-29.8,M,,*5E
2010-05-29 09:51:54 UTC: KJ6AOD-11>APZ111,WIDE2-2,qAR,KC6SSM-5:$GPGGA,095152.00,3745.74505,N,12225.16145,W,1,07,1.23,17.5,M,-29.8,M,,*59
2010-05-29 09:52:24 UTC: KJ6AOD-11>APZ111,WIDE2-2,qAR,KC6SSM-5:$GPGGA,095222.00,3745.75011,N,12225.15801,W,1,06,1.28,8.5,M,-29.8,M,,*62
2010-05-29 09:52:54 UTC: KJ6AOD-11>APZ111,WIDE2-2,qAR,KC6SSM-5:$GPGGA,095252.00,3745.75160,N,12225.15436,W,1,07,1.22,4.8,M,-29.8,M,,*60
2010-05-29 09:53:10 UTC: KJ6AOD-11>APZ111,WIDE2-2,qAR,KC6SSM-5:>ProjectBacchus.org Uptime=02:21:04 Temp=93F,63F (261,209) RH=92% (692) Acc=496,497,327
2010-05-29 09:53:24 UTC: KJ6AOD-11>APZ111,WIDE2-2,qAR,KC6SSM-5:$GPGGA,095322.00,3745.74621,N,12225.15893,W,1,07,1.22,18.7,M,-29.8,M,,*54
2010-05-29 09:53:54 UTC: KJ6AOD-11>APZ111,WIDE2-2,qAR,KC6SSM-5:$GPGGA,095352.00,3745.74311,N,12225.16385,W,1,07,1.22,33.2,M,-29.8,M,,*56
2010-05-29 09:54:09 UTC: KJ6AOD-11>APZ111,WIDE2-2,qAR,KC6SSM-5:>ProjectBacchus.org Uptime=02:22:04 Temp=93F,63F (261,209) RH=93% (693) Acc=495,496,328
2010-05-29 09:54:26 UTC: KJ6AOD-11>APZ111,KF6CLH-3,N6ZX-3,WIDE2*,qAR,W6YX-5:$GPGGA,095422.00,3745.74070,N,12225.16315,W,1,06,1.40,40.6,M,-29.8,M,,*5E
2010-05-29 09:54:39 UTC: KJ6AOD-11>APZ111,WIDE2-2,qAR,KC6SSM-5:>ProjectBacchus.org Uptime=02:22:34 Temp=93F,63F (261,210) RH=93% (693) Acc=492,496,330
2010-05-29 09:54:54 UTC: KJ6AOD-11>APZ111,WIDE2-2,qAR,KC6SSM-5:$GPGGA,095452.00,3745.74515,N,12225.15882,W,1,07,1.20,21.4,M,-29.8,M,,*5B
2010-05-29 09:55:24 UTC: KJ6AOD-11>APZ111,WIDE2-2,qAR,KC6SSM-5:$GPGGA,095522.00,3745.74538,N,12225.15942,W,1,06,2.02,18.8,M,-29.8,M,,*5B
2010-05-29 09:55:39 UTC: KJ6AOD-11>APZ111,WIDE2-2,qAR,KC6SSM-5:>ProjectBacchus.org Uptime=02:23:34 Temp=93F,63F (261,209) RH=93% (693) Acc=495,496,330
2010-05-29 09:56:09 UTC: KJ6AOD-11>APZ111,WIDE2-2,qAR,KC6SSM-5:>ProjectBacchus.org Uptime=02:24:04 Temp=93F,63F (261,209) RH=93% (693) Acc=495,498,330
2010-05-29 09:56:26 UTC: KJ6AOD-11>APZ111,KF6CLH-3,AC6ET-5,WIDE2*,qAR,K6MEU-5:$GPGGA,095622.00,3745.74621,N,12225.15678,W,1,06,1.91,24.7,M,-29.8,M,,*5C
